{
  "type": "FeatureCollection",
  "features": [
    {
      "type": "Feature",
      "id": "8887",
      "geometry": {
        "type": "Point",
        "coordinates": [
          -29.818024,
          -50.047048
        ]
      },
      "properties": {
        "label": "Cetuximab",
        "level": 5,
        "pos": "-122867.952,-306238.142",
        "src_id": "2",
        "weight": "0.0"
      }
    },
    {
      "type": "Feature",
      "id": "2810",
      "geometry": {
        "type": "Point",
        "coordinates": [
          -29.383219,
          -50.360178
        ]
      },
      "properties": {
        "label": "Bevacizumab",
        "level": 4,
        "pos": "-120701.523,-308782.598",
        "src_id": "105",
        "weight": "124221.0"
      }
    },
    {
      "type": "Feature",
      "id": "5078",
      "geometry": {
        "type": "Point",
        "coordinates": [
          -31.154629,
          -49.886323
        ]
      },
      "properties": {
        "label": "Duloxetine",
        "level": 4,
        "pos": "-129527.616,-304938.55100000004",
        "src_id": "465",
        "weight": "106488.0"
      }
    },
    {
      "type": "Feature",
      "id": "1320",
      "geometry": {
        "type": "Point",
        "coordinates": [
          -28.664023,
          -48.80213
        ]
      },
      "properties": {
        "label": "Tadalafil",
        "level": 4,
        "pos": "-117118.106,-296282.915",
        "src_id": "806",
        "weight": "150804.0"
      }
    },
    {
      "type": "Feature",
      "id": "662",
      "geometry": {
        "type": "Point",
        "coordinates": [
          -29.518128,
          -51.084998
        ]
      },
      "properties": {
        "label": "Adalimumab",
        "level": 4,
        "pos": "-121373.711,-314737.541",
        "src_id": "50",
        "weight": "97662.0"
      }
    },
    {
      "type": "Feature",
      "id": "5062",
      "geometry": {
        "type": "Point",
        "coordinates": [
          -33.957146,
          -49.912763
        ]
      },
      "properties": {
        "label": "Bosentan",
        "level": 4,
        "pos": "-143491.228,-305152.044",
        "src_id": "546",
        "weight": "159624.0"
      }
    },
    {
      "type": "Feature",
      "id": "8816",
      "geometry": {
        "type": "Point",
        "coordinates": [
          -27.396919,
          -51.333001
        ]
      },
      "properties": {
        "label": "Tenofovir disoproxil",
        "level": 5,
        "pos": "-110804.731,-316796.473",
        "src_id": "291",
        "weight": "0.0"
      }
    },
    {
      "type": "Feature",
      "id": "8617",
      "geometry": {
        "type": "Point",
        "coordinates": [
          -28.255042,
          -51.643634
        ]
      },
      "properties": {
        "label": "Ezetimibe",
        "level": 5,
        "pos": "-115080.355,-319391.12799999997",
        "src_id": "959",
        "weight": "0.0"
      }
    },
    {
      "type": "Feature",
      "id": "2698",
      "geometry": {
        "type": "Point",
        "coordinates": [
          -29.0007,
          -51.922704
        ]
      },
      "properties": {
        "label": "Vardenafil",
        "level": 5,
        "pos": "-118795.61499999999,-321737.352",
        "src_id": "848",
        "weight": "17769.0"
      }
    },
    {
      "type": "Feature",
      "id": "8571",
      "geometry": {
        "type": "Point",
        "coordinates": [
          -30.56353,
          -52.131803
        ]
      },
      "properties": {
        "label": "Dutasteride",
        "level": 5,
        "pos": "-126582.454,-323504.878",
        "src_id": "1110",
        "weight": "0.0"
      }
    },
    {
      "type": "Feature",
      "id": "1245",
      "geometry": {
        "type": "Point",
        "coordinates": [
          -29.993734,
          -52.432241
        ]
      },
      "properties": {
        "label": "Nesiritide",
        "level": 4,
        "pos": "-123743.43000000001,-326059.08599999995",
        "src_id": "4621",
        "weight": "44412.0"
      }
    },
    {
      "type": "Feature",
      "id": "363",
      "geometry": {
        "type": "Point",
        "coordinates": [
          46.889129,
          14.868198
        ]
      },
      "properties": {
        "label": "Denileukin diftitox",
        "level": 5,
        "pos": "259327.424,73537.765",
        "src_id": "4",
        "weight": "0.0"
      }
    },
    {
      "type": "Feature",
      "id": "354",
      "geometry": {
        "type": "Point",
        "coordinates": [
          51.973161,
          17.128566
        ]
      },
      "properties": {
        "label": "Zanamivir",
        "level": 5,
        "pos": "284658.742,85768.66200000001",
        "src_id": "545",
        "weight": "0.0"
      }
    },
    {
      "type": "Feature",
      "id": "221",
      "geometry": {
        "type": "Point",
        "coordinates": [
          46.956589,
          15.774751
        ]
      },
      "properties": {
        "label": "Candesartan cilexetil",
        "level": 4,
        "pos": "259663.54,78426.606",
        "src_id": "782",
        "weight": "53280.0"
      }
    },
    {
      "type": "Feature",
      "id": "321",
      "geometry": {
        "type": "Point",
        "coordinates": [
          50.539288,
          16.667695
        ]
      },
      "properties": {
        "label": "Enrasentan",
        "level": 5,
        "pos": "277514.429,83263.473",
        "src_id": "5618",
        "weight": "0.0"
      }
    },
    {
      "type": "Feature",
      "id": "314",
      "geometry": {
        "type": "Point",
        "coordinates": [
          53.448503,
          16.791711
        ]
      },
      "properties": {
        "label": "Benidipine",
        "level": 5,
        "pos": "292009.67000000004,83936.99399999999",
        "src_id": "8171",
        "weight": "0.0"
      }
    },
    {
      "type": "Feature",
      "id": "313",
      "geometry": {
        "type": "Point",
        "coordinates": [
          52.087115,
          18.213514
        ]
      },
      "properties": {
        "label": "Manidipine",
        "level": 5,
        "pos": "285226.522,91691.075",
        "src_id": "8178",
        "weight": "0.0"
      }
    },
    {
      "type": "Feature",
      "id": "306",
      "geometry": {
        "type": "Point",
        "coordinates": [
          52.200387,
          17.844591
        ]
      },
      "properties": {
        "label": "Mizolastine",
        "level": 5,
        "pos": "285790.89900000003,89673.208",
        "src_id": "10171",
        "weight": "0.0"
      }
    },
    {
      "type": "Feature",
      "id": "1323",
      "geometry": {
        "type": "Point",
        "coordinates": [
          45.014132,
          15.573336
        ]
      },
      "properties": {
        "label": "Perindopril",
        "level": 4,
        "pos": "249985.198,77338.579",
        "src_id": "776",
        "weight": "159725.0"
      }
    },
    {
      "type": "Feature",
      "id": "2793",
      "geometry": {
        "type": "Point",
        "coordinates": [
          47.457178,
          16.252995
        ]
      },
      "properties": {
        "label": "Torasemide",
        "level": 5,
        "pos": "262157.74199999997,81014.40599999999",
        "src_id": "205",
        "weight": "17769.0"
      }
    },
    {
      "type": "Feature",
      "id": "2630",
      "geometry": {
        "type": "Point",
        "coordinates": [
          49.065212,
          16.6627
        ]
      },
      "properties": {
        "label": "Cilazapril",
        "level": 4,
        "pos": "270169.80799999996,83236.35299999999",
        "src_id": "1302",
        "weight": "62159.0"
      }
    },
    {
      "type": "Feature",
      "id": "640",
      "geometry": {
        "type": "Point",
        "coordinates": [
          49.262658,
          12.513217
        ]
      },
      "properties": {
        "label": "Sevelamer",
        "level": 3,
        "pos": "271153.594,60930.214",
        "src_id": "645",
        "weight": "301291.0"
      }
    },
    {
      "type": "Feature",
      "id": "8664",
      "geometry": {
        "type": "Point",
        "coordinates": [
          49.903253,
          18.072824
        ]
      },
      "properties": {
        "label": "Indapamide",
        "level": 5,
        "pos": "274345.373,90921.058",
        "src_id": "794",
        "weight": "0.0"
      }
    },
    {
      "type": "Feature",
      "id": "7878",
      "geometry": {
        "type": "Point",
        "coordinates": [
          49.980527,
          17.142883
        ]
      },
      "properties": {
        "label": "Thiazolidinedione",
        "level": 5,
        "pos": "274730.388,85846.581",
        "src_id": "9565",
        "weight": "0.0"
      }
    },
    {
      "type": "Feature",
      "id": "1333",
      "geometry": {
        "type": "Point",
        "coordinates": [
          50.925465,
          17.614388
        ]
      },
      "properties": {
        "label": "Enalapril",
        "level": 4,
        "pos": "279438.56799999997,88416.208",
        "src_id": "571",
        "weight": "44412.0"
      }
    },
    {
      "type": "Feature",
      "id": "7650",
      "geometry": {
        "type": "Point",
        "coordinates": [
          46.953879,
          15.313764
        ]
      },
      "properties": {
        "label": "Angiotensin I",
        "level": 5,
        "pos": "259650.041,75937.963",
        "src_id": "170384",
        "weight": "0.0"
      }
    },
    {
      "type": "Feature",
      "id": "4481",
      "geometry": {
        "type": "Point",
        "coordinates": [
          44.300932,
          14.377584
        ]
      },
      "properties": {
        "label": "Ifetroban",
        "level": 5,
        "pos": "246431.66,70900.63",
        "src_id": "9978",
        "weight": "8885.0"
      }
    },
    {
      "type": "Feature",
      "id": "4075",
      "geometry": {
        "type": "Point",
        "coordinates": [
          44.997902,
          15.125855
        ]
      },
      "properties": {
        "label": "Colectomy",
        "level": 4,
        "pos": "249904.33,74925.11",
        "src_id": "173901",
        "weight": "97625.0"
      }
    },
    {
      "type": "Feature",
      "id": "968",
      "geometry": {
        "type": "Point",
        "coordinates": [
          45.950996,
          11.225299
        ]
      },
      "properties": {
        "label": "Food allergy",
        "level": 3,
        "pos": "254653.149,54085.182",
        "src_id": "176840",
        "weight": "1043613.0"
      }
    },
    {
      "type": "Feature",
      "id": "6394",
      "geometry": {
        "type": "Point",
        "coordinates": [
          50.059531,
          12.055463
        ]
      },
      "properties": {
        "label": "Mastectomy",
        "level": 5,
        "pos": "275124.029,58493.608",
        "src_id": "180535",
        "weight": "0.0"
      }
    },
    {
      "type": "Feature",
      "id": "8886",
      "geometry": {
        "type": "Point",
        "coordinates": [
          1.583848,
          -32.452403
        ]
      },
      "properties": {
        "label": "Etanercept",
        "level": 5,
        "pos": "33592.686,-183285.625",
        "src_id": "5",
        "weight": "0.0"
      }
    },
    {
      "type": "Feature",
      "id": "1377",
      "geometry": {
        "type": "Point",
        "coordinates": [
          1.043402,
          -28.710055
        ]
      },
      "properties": {
        "label": "Infliximab",
        "level": 5,
        "pos": "30899.899999999998,-160669.962",
        "src_id": "63",
        "weight": "17770.0"
      }
    },
    {
      "type": "Feature",
      "id": "2300",
      "geometry": {
        "type": "Point",
        "coordinates": [
          0.872904,
          -28.173329
        ]
      },
      "properties": {
        "label": "Aphthous stomatitis",
        "level": 5,
        "pos": "30050.388000000003,-157495.221",
        "src_id": "170731",
        "weight": "13323.0"
      }
    },
    {
      "type": "Feature",
      "id": "5638",
      "geometry": {
        "type": "Point",
        "coordinates": [
          1.689437,
          -33.320664
        ]
      },
      "properties": {
        "label": "Susac's syndrome",
        "level": 5,
        "pos": "34118.794,-188663.378",
        "src_id": "186597",
        "weight": "0.0"
      }
    },
    {
      "type": "Feature",
      "id": "2213",
      "geometry": {
        "type": "Point",
        "coordinates": [
          1.327007,
          -29.59528
        ]
      },
      "properties": {
        "label": "C-reactive protein decreased",
        "level": 5,
        "pos": "32312.972,-165941.968",
        "src_id": "172862",
        "weight": "13323.0"
      }
    },
    {
      "type": "Feature",
      "id": "795",
      "geometry": {
        "type": "Point",
        "coordinates": [
          0.289744,
          -25.161423
        ]
      },
      "properties": {
        "label": "Polyarthritis",
        "level": 4,
        "pos": "27144.781,-139962.406",
        "src_id": "183756",
        "weight": "53285.0"
      }
    },
    {
      "type": "Feature",
      "id": "4100",
      "geometry": {
        "type": "Point",
        "coordinates": [
          -2.334112,
          -21.323434
        ]
      },
      "properties": {
        "label": "Chondritis",
        "level": 4,
        "pos": "14071.348,-118232.164",
        "src_id": "173630",
        "weight": "62153.0"
      }
    },
    {
      "type": "Feature",
      "id": "7472",
      "geometry": {
        "type": "Point",
        "coordinates": [
          -0.830299,
          -25.53209
        ]
      },
      "properties": {
        "label": "Blood immunoglobulin A decreased",
        "level": 5,
        "pos": "21564.141,-142095.62600000002",
        "src_id": "172196",
        "weight": "0.0"
      }
    },
    {
      "type": "Feature",
      "id": "8885",
      "geometry": {
        "type": "Point",
        "coordinates": [
          -9.002254,
          37.692138
        ]
      },
      "properties": {
        "label": "Bivalirudin",
        "level": 5,
        "pos": "-19152.844999999998,207256.21899999998",
        "src_id": "6",
        "weight": "0.0"
      }
    },
    {
      "type": "Feature",
      "id": "47",
      "geometry": {
        "type": "Point",
        "coordinates": [
          -6.86771,
          35.662578
        ]
      },
      "properties": {
        "label": "Formic Acid",
        "level": 4,
        "pos": "-8517.422,194093.063",
        "src_id": "1847",
        "weight": "133165.0"
      }
    },
    {
      "type": "Feature",
      "id": "2844",
      "geometry": {
        "type": "Point",
        "coordinates": [
          -8.782462,
          35.704351
        ]
      },
      "properties": {
        "label": "Hedera",
        "level": 5,
        "pos": "-18057.722999999998,194360.54200000002",
        "src_id": "240367",
        "weight": "8885.0"
      }
    },
    {
      "type": "Feature",
      "id": "249",
      "geometry": {
        "type": "Point",
        "coordinates": [
          -2.732806,
          33.217397
        ]
      },
      "properties": {
        "label": "Partner stress",
        "level": 4,
        "pos": "12084.847,178670.357",
        "src_id": "182929",
        "weight": "230549.0"
      }
    },
    {
      "type": "Feature",
      "id": "4825",
      "geometry": {
        "type": "Point",
        "coordinates": [
          -9.895643,
          35.19438
        ]
      },
      "properties": {
        "label": "Iron",
        "level": 5,
        "pos": "-23604.171000000002,191104.572",
        "src_id": "1525",
        "weight": "8885.0"
      }
    },
    {
      "type": "Feature",
      "id": "8124",
      "geometry": {
        "type": "Point",
        "coordinates": [
          -10.726015,
          38.837279
        ]
      },
      "properties": {
        "label": "Macitentan",
        "level": 5,
        "pos": "-27741.517000000003,214842.162",
        "src_id": "7886",
        "weight": "0.0"
      }
    },
    {
      "type": "Feature",
      "id": "8093",
      "geometry": {
        "type": "Point",
        "coordinates": [
          -9.907325,
          38.455473
        ]
      },
      "properties": {
        "label": "Nintedanib",
        "level": 5,
        "pos": "-23662.379999999997,212299.57200000001",
        "src_id": "8024",
        "weight": "0.0"
      }
    },
    {
      "type": "Feature",
      "id": "7936",
      "geometry": {
        "type": "Point",
        "coordinates": [
          -10.698775,
          39.186627
        ]
      },
      "properties": {
        "label": "Ferrous asparto glycinate",
        "level": 5,
        "pos": "-27605.8,217180.576",
        "src_id": "9108",
        "weight": "0.0"
      }
    },
    {
      "type": "Feature",
      "id": "7899",
      "geometry": {
        "type": "Point",
        "coordinates": [
          -8.615786,
          38.071691
        ]
      },
      "properties": {
        "label": "Fruquintinib",
        "level": 5,
        "pos": "-17227.249,209757.34900000002",
        "src_id": "9351",
        "weight": "0.0"
      }
    },
    {
      "type": "Feature",
      "id": "7876",
      "geometry": {
        "type": "Point",
        "coordinates": [
          -8.411353,
          38.55402
        ]
      },
      "properties": {
        "label": "Entrectinib",
        "level": 5,
        "pos": "-16208.663,212954.54",
        "src_id": "9651",
        "weight": "0.0"
      }
    },
    {
      "type": "Feature",
      "id": "7854",
      "geometry": {
        "type": "Point",
        "coordinates": [
          -7.934956,
          39.017172
        ]
      },
      "properties": {
        "label": "Verubecestat",
        "level": 5,
        "pos": "-13835.001,216044.85700000002",
        "src_id": "9943",
        "weight": "0.0"
      }
    },
    {
      "type": "Feature",
      "id": "2075",
      "geometry": {
        "type": "Point",
        "coordinates": [
          -12.141367,
          38.838525
        ]
      },
      "properties": {
        "label": "Drug level",
        "level": 5,
        "pos": "-34793.546,214850.484",
        "src_id": "175379",
        "weight": "17769.0"
      }
    },
    {
      "type": "Feature",
      "id": "5366",
      "geometry": {
        "type": "Point",
        "coordinates": [
          -11.255236,
          39.579237
        ]
      },
      "properties": {
        "label": "Alisma",
        "level": 5,
        "pos": "-30378.381,219822.491",
        "src_id": "239961",
        "weight": "0.0"
      }
    },
    {
      "type": "Feature",
      "id": "8745",
      "geometry": {
        "type": "Point",
        "coordinates": [
          -9.574109,
          36.67887
        ]
      },
      "properties": {
        "label": "Lercanidipine",
        "level": 5,
        "pos": "-22002.119,200641.028",
        "src_id": "515",
        "weight": "0.0"
      }
    },
    {
      "type": "Feature",
      "id": "535",
      "geometry": {
        "type": "Point",
        "coordinates": [
          -1.58607,
          33.758221
        ]
      },
      "properties": {
        "label": "Blood methanol",
        "level": 3,
        "pos": "17798.485,182043.096",
        "src_id": "172270",
        "weight": "283470.0"
      }
    },
    {
      "type": "Feature",
      "id": "353",
      "geometry": {
        "type": "Point",
        "coordinates": [
          -4.504012,
          34.250754
        ]
      },
      "properties": {
        "label": "Carbamazepine",
        "level": 4,
        "pos": "3259.769,185133.23500000002",
        "src_id": "551",
        "weight": "44415.0"
      }
    },
    {
      "type": "Feature",
      "id": "3938",
      "geometry": {
        "type": "Point",
        "coordinates": [
          -6.402902,
          33.934173
        ]
      },
      "properties": {
        "label": "Electrophoresis",
        "level": 5,
        "pos": "-6201.5,183144.958",
        "src_id": "175755",
        "weight": "8885.0"
      }
    },
    {
      "type": "Feature",
      "id": "5330",
      "geometry": {
        "type": "Point",
        "coordinates": [
          -5.412912,
          36.546866
        ]
      },
      "properties": {
        "label": "Columba",
        "level": 6,
        "pos": "-1268.8500000000001,199785.699",
        "src_id": "240163",
        "weight": "0.0"
      }
    },
    {
      "type": "Feature",
      "id": "5204",
      "geometry": {
        "type": "Point",
        "coordinates": [
          -5.099852,
          35.701378
        ]
      },
      "properties": {
        "label": "Zanthoxylum",
        "level": 6,
        "pos": "290.977,194341.496",
        "src_id": "240903",
        "weight": "0.0"
      }
    },
    {
      "type": "Feature",
      "id": "8060",
      "geometry": {
        "type": "Point",
        "coordinates": [
          -9.976028,
          35.612631
        ]
      },
      "properties": {
        "label": "Lacidipine",
        "level": 5,
        "pos": "-24004.687,193773.41999999998",
        "src_id": "8176",
        "weight": "0.0"
      }
    },
    {
      "type": "Feature",
      "id": "7779",
      "geometry": {
        "type": "Point",
        "coordinates": [
          -10.700066,
          40.153935
        ]
      },
      "properties": {
        "label": "Anethole trithione",
        "level": 5,
        "pos": "-27612.229,223716.84",
        "src_id": "10897",
        "weight": "0.0"
      }
    },
    {
      "type": "Feature",
      "id": "5299",
      "geometry": {
        "type": "Point",
        "coordinates": [
          -12.727014,
          39.804407
        ]
      },
      "properties": {
        "label": "Fritillaria",
        "level": 5,
        "pos": "-37711.551,221344.44199999998",
        "src_id": "240322",
        "weight": "0.0"
      }
    },
    {
      "type": "Feature",
      "id": "3325",
      "geometry": {
        "type": "Point",
        "coordinates": [
          -3.513109,
          32.831322
        ]
      },
      "properties": {
        "label": "pH body fluid",
        "level": 5,
        "pos": "8196.973,176275.427",
        "src_id": "183313",
        "weight": "17768.0"
      }
    },
    {
      "type": "Feature",
      "id": "5360",
      "geometry": {
        "type": "Point",
        "coordinates": [
          -3.460192,
          35.627819
        ]
      },
      "properties": {
        "label": "Archangelica",
        "level": 5,
        "pos": "8460.627,193870.586",
        "src_id": "239995",
        "weight": "0.0"
      }
    },
    {
      "type": "Feature",
      "id": "5270",
      "geometry": {
        "type": "Point",
        "coordinates": [
          -3.651813,
          36.090941
        ]
      },
      "properties": {
        "label": "Medicago",
        "level": 5,
        "pos": "7505.874000000001,196842.657",
        "src_id": "240508",
        "weight": "0.0"
      }
    },
    {
      "type": "Feature",
      "id": "7096",
      "geometry": {
        "type": "Point",
        "coordinates": [
          -8.189442,
          35.243505
        ]
      },
      "properties": {
        "label": "Device pacing issue",
        "level": 5,
        "pos": "-15102.983,191417.319",
        "src_id": "175109",
        "weight": "0.0"
      }
    },
    {
      "type": "Feature",
      "id": "6970",
      "geometry": {
        "type": "Point",
        "coordinates": [
          -9.858906,
          34.780685
        ]
      },
      "properties": {
        "label": "Eosinophilic pustular folliculitis",
        "level": 5,
        "pos": "-23421.129,188478.28100000002",
        "src_id": "176046",
        "weight": "0.0"
      }
    },
    {
      "type": "Feature",
      "id": "6805",
      "geometry": {
        "type": "Point",
        "coordinates": [
          -7.796982,
          34.772281
        ]
      },
      "properties": {
        "label": "Glomerulonephritis membranous",
        "level": 5,
        "pos": "-13147.537,188425.067",
        "src_id": "177410",
        "weight": "0.0"
      }
    },
    {
      "type": "Feature",
      "id": "6325",
      "geometry": {
        "type": "Point",
        "coordinates": [
          -5.299992,
          34.704976
        ]
      },
      "properties": {
        "label": "Morton's neuralgia",
        "level": 5,
        "pos": "-706.216,187999.08099999998",
        "src_id": "181129",
        "weight": "0.0"
      }
    },
    {
      "type": "Feature",
      "id": "6151",
      "geometry": {
        "type": "Point",
        "coordinates": [
          -6.036704,
          35.13833
        ]
      },
      "properties": {
        "label": "Oral lichen planus",
        "level": 5,
        "pos": "-4376.907,190747.966",
        "src_id": "182310",
        "weight": "0.0"
      }
    },
    {
      "type": "Feature",
      "id": "8400",
      "geometry": {
        "type": "Point",
        "coordinates": [
          -4.918163,
          31.676884
        ]
      },
      "properties": {
        "label": "Cibacron Blue",
        "level": 5,
        "pos": "1196.247,169175.34100000001",
        "src_id": "2494",
        "weight": "0.0"
      }
    },
    {
      "type": "Feature",
      "id": "8884",
      "geometry": {
        "type": "Point",
        "coordinates": [
          -3.713724,
          -9.261802
        ]
      },
      "properties": {
        "label": "Leuprolide",
        "level": 5,
        "pos": "7197.397,-53057.613000000005",
        "src_id": "7",
        "weight": "0.0"
      }
    },
    {
      "type": "Feature",
      "id": "4775",
      "geometry": {
        "type": "Point",
        "coordinates": [
          -2.71166,
          -9.46073
        ]
      },
      "properties": {
        "label": "D-Tryptophan",
        "level": 5,
        "pos": "12190.213,-54106.214",
        "src_id": "3045",
        "weight": "8885.0"
      }
    },
    {
      "type": "Feature",
      "id": "5040",
      "geometry": {
        "type": "Point",
        "coordinates": [
          -2.57396,
          -9.860296
        ]
      },
      "properties": {
        "label": "Gonadorelin",
        "level": 5,
        "pos": "12876.302000000001,-56214.269",
        "src_id": "631",
        "weight": "17768.0"
      }
    },
    {
      "type": "Feature",
      "id": "1710",
      "geometry": {
        "type": "Point",
        "coordinates": [
          -4.945673,
          -8.748574
        ]
      },
      "properties": {
        "label": "Oophorectomy bilateral",
        "level": 3,
        "pos": "1059.1779999999999,-50354.962",
        "src_id": "182230",
        "weight": "538499.0"
      }
    },
    {
      "type": "Feature",
      "id": "3397",
      "geometry": {
        "type": "Point",
        "coordinates": [
          -7.552169,
          -8.546687
        ]
      },
      "properties": {
        "label": "Oestrogen replacement therapy",
        "level": 3,
        "pos": "-11927.754,-49292.856999999996",
        "src_id": "182179",
        "weight": "503253.0"
      }
    },
    {
      "type": "Feature",
      "id": "8883",
      "geometry": {
        "type": "Point",
        "coordinates": [
          42.84849,
          44.25662
        ]
      },
      "properties": {
        "label": "Alteplase",
        "level": 5,
        "pos": "239194.832,252539.74099999998",
        "src_id": "9",
        "weight": "0.0"
      }
    },
    {
      "type": "Feature",
      "id": "1647",
      "geometry": {
        "type": "Point",
        "coordinates": [
          42.33652,
          42.555835
        ]
      },
      "properties": {
        "label": "Plasminogen",
        "level": 4,
        "pos": "236643.931,240362.48",
        "src_id": "183569",
        "weight": "79901.0"
      }
    },
    {
      "type": "Feature",
      "id": "1381",
      "geometry": {
        "type": "Point",
        "coordinates": [
          43.01174,
          44.873481
        ]
      },
      "properties": {
        "label": "Urokinase",
        "level": 4,
        "pos": "240008.234,257043.012",
        "src_id": "13",
        "weight": "62164.0"
      }
    },
    {
      "type": "Feature",
      "id": "2804",
      "geometry": {
        "type": "Point",
        "coordinates": [
          42.858629,
          41.230726
        ]
      },
      "properties": {
        "label": "Serine",
        "level": 4,
        "pos": "239245.34600000002,231103.403",
        "src_id": "125",
        "weight": "97635.0"
      }
    },
    {
      "type": "Feature",
      "id": "1080",
      "geometry": {
        "type": "Point",
        "coordinates": [
          42.460608,
          42.247081
        ]
      },
      "properties": {
        "label": "Brain natriuretic peptide",
        "level": 4,
        "pos": "237262.201,238187.818",
        "src_id": "172605",
        "weight": "35533.0"
      }
    },
    {
      "type": "Feature",
      "id": "6056",
      "geometry": {
        "type": "Point",
        "coordinates": [
          42.671826,
          44.544636
        ]
      },
      "properties": {
        "label": "Peripheral nerve neurostimulation",
        "level": 5,
        "pos": "238314.595,254636.397",
        "src_id": "183188",
        "weight": "0.0"
      }
    },
    {
      "type": "Feature",
      "id": "5529",
      "geometry": {
        "type": "Point",
        "coordinates": [
          43.601471,
          45.222918
        ]
      },
      "properties": {
        "label": "Troponin T",
        "level": 5,
        "pos": "242946.57799999998,259615.42700000003",
        "src_id": "187460",
        "weight": "0.0"
      }
    },
    {
      "type": "Feature",
      "id": "225",
      "geometry": {
        "type": "Point",
        "coordinates": [
          41.67196,
          38.506044
        ]
      },
      "properties": {
        "label": "L-Glutamine",
        "level": 1,
        "pos": "233332.74399999998,212635.56900000002",
        "src_id": "122",
        "weight": "5928716.0"
      }
    },
    {
      "type": "Feature",
      "id": "8332",
      "geometry": {
        "type": "Point",
        "coordinates": [
          43.228488,
          42.643262
        ]
      },
      "properties": {
        "label": "Norvaline",
        "level": 5,
        "pos": "241088.18099999998,240980.21",
        "src_id": "3944",
        "weight": "0.0"
      }
    },
    {
      "type": "Feature",
      "id": "6275",
      "geometry": {
        "type": "Point",
        "coordinates": [
          44.09681,
          46.180455
        ]
      },
      "properties": {
        "label": "N-terminal prohormone brain natriuretic peptide",
        "level": 5,
        "pos": "245414.625,266746.61600000004",
        "src_id": "181434",
        "weight": "0.0"
      }
    },
    {
      "type": "Feature",
      "id": "2966",
      "geometry": {
        "type": "Point",
        "coordinates": [
          43.047939,
          43.687432
        ]
      },
      "properties": {
        "label": "Troponin",
        "level": 5,
        "pos": "240188.59100000001,248426.219",
        "src_id": "187455",
        "weight": "8885.0"
      }
    },
    {
      "type": "Feature",
      "id": "5530",
      "geometry": {
        "type": "Point",
        "coordinates": [
          43.860649,
          45.858267
        ]
      },
      "properties": {
        "label": "Troponin I",
        "level": 5,
        "pos": "244237.93800000002,264333.482",
        "src_id": "187456",
        "weight": "0.0"
      }
    },
    {
      "type": "Feature",
      "id": "5177",
      "geometry": {
        "type": "Point",
        "coordinates": [
          42.149902,
          40.403603
        ]
      },
      "properties": {
        "label": "L-Arginine",
        "level": 1,
        "pos": "235714.101,225418.934",
        "src_id": "117",
        "weight": "5733320.0"
      }
    },
    {
      "type": "Feature",
      "id": "1370",
      "geometry": {
        "type": "Point",
        "coordinates": [
          44.276033,
          43.038829
        ]
      },
      "properties": {
        "label": "Glycine",
        "level": 4,
        "pos": "246307.602,243786.067",
        "src_id": "137",
        "weight": "221572.0"
      }
    },
    {
      "type": "Feature",
      "id": "582",
      "geometry": {
        "type": "Point",
        "coordinates": [
          44.769056,
          42.043536
        ]
      },
      "properties": {
        "label": "Amino acids",
        "level": 4,
        "pos": "248764.105,236759.996",
        "src_id": "8309",
        "weight": "204030.0"
      }
    },
    {
      "type": "Feature",
      "id": "2404",
      "geometry": {
        "type": "Point",
        "coordinates": [
          43.359213,
          41.944512
        ]
      },
      "properties": {
        "label": "Ammonia",
        "level": 3,
        "pos": "241739.515,236067.02899999998",
        "src_id": "9063",
        "weight": "398141.0"
      }
    },
    {
      "type": "Feature",
      "id": "665",
      "geometry": {
        "type": "Point",
        "coordinates": [
          -35.204268,
          -48.493623
        ]
      },
      "properties": {
        "label": "Darbepoetin alfa",
        "level": 3,
        "pos": "-149705.045,-293854.271",
        "src_id": "12",
        "weight": "564853.0"
      }
    },
    {
      "type": "Feature",
      "id": "8869",
      "geometry": {
        "type": "Point",
        "coordinates": [
          -35.326652,
          -48.819418
        ]
      },
      "properties": {
        "label": "Alefacept",
        "level": 5,
        "pos": "-150314.83299999998,-296419.448",
        "src_id": "87",
        "weight": "0.0"
      }
    },
    {
      "type": "Feature",
      "id": "5184",
      "geometry": {
        "type": "Point",
        "coordinates": [
          -32.66101,
          -49.637949
        ]
      },
      "properties": {
        "label": "Efalizumab",
        "level": 5,
        "pos": "-137033.19999999998,-302938.717",
        "src_id": "90",
        "weight": "8885.0"
      }
    },
    {
      "type": "Feature",
      "id": "8802",
      "geometry": {
        "type": "Point",
        "coordinates": [
          -34.142981,
          -49.113327
        ]
      },
      "properties": {
        "label": "Pimecrolimus",
        "level": 5,
        "pos": "-144417.16400000002,-298747.918",
        "src_id": "327",
        "weight": "0.0"
      }
    },
    {
      "type": "Feature",
      "id": "1332",
      "geometry": {
        "type": "Point",
        "coordinates": [
          -35.487922,
          -49.215619
        ]
      },
      "properties": {
        "label": "Imatinib",
        "level": 3,
        "pos": "-151118.36299999998,-299561.549",
        "src_id": "606",
        "weight": "521889.0"
      }
    },
    {
      "type": "Feature",
      "id": "4732",
      "geometry": {
        "type": "Point",
        "coordinates": [
          -32.536186,
          -47.440929
        ]
      },
      "properties": {
        "label": "Ximelagatran",
        "level": 3,
        "pos": "-136411.25600000002,-285676.62",
        "src_id": "4620",
        "weight": "573365.0"
      }
    },
    {
      "type": "Feature",
      "id": "8833",
      "geometry": {
        "type": "Point",
        "coordinates": [
          -34.556374,
          -49.60439
        ]
      },
      "properties": {
        "label": "Eletriptan",
        "level": 5,
        "pos": "-146476.901,-302669.30000000005",
        "src_id": "207",
        "weight": "0.0"
      }
    },
    {
      "type": "Feature",
      "id": "2811",
      "geometry": {
        "type": "Point",
        "coordinates": [
          -33.598512,
          -51.078807
        ]
      },
      "properties": {
        "label": "Alemtuzumab",
        "level": 4,
        "pos": "-141704.335,-314686.29199999996",
        "src_id": "82",
        "weight": "97635.0"
      }
    },
    {
      "type": "Feature",
      "id": "2658",
      "geometry": {
        "type": "Point",
        "coordinates": [
          -36.004027,
          -52.217946
        ]
      },
      "properties": {
        "label": "Rosuvastatin",
        "level": 4,
        "pos": "-153689.86899999998,-324235.471",
        "src_id": "1082",
        "weight": "239219.0"
      }
    },
    {
      "type": "Feature",
      "id": "573",
      "geometry": {
        "type": "Point",
        "coordinates": [
          -35.127237,
          -48.07765
        ]
      },
      "properties": {
        "label": "Thrombin",
        "level": 3,
        "pos": "-149321.24,-290602.909",
        "src_id": "9184",
        "weight": "617389.0"
      }
    },
    {
      "type": "Feature",
      "id": "2772",
      "geometry": {
        "type": "Point",
        "coordinates": [
          -31.817205,
          -51.345793
        ]
      },
      "properties": {
        "label": "Gefitinib",
        "level": 4,
        "pos": "-132828.92,-316902.973",
        "src_id": "308",
        "weight": "79907.0"
      }
    },
    {
      "type": "Feature",
      "id": "8608",
      "geometry": {
        "type": "Point",
        "coordinates": [
          -33.329416,
          -51.479426
        ]
      },
      "properties": {
        "label": "Doxorubicin",
        "level": 5,
        "pos": "-140363.549,-318017.32700000005",
        "src_id": "983",
        "weight": "0.0"
      }
    },
    {
      "type": "Feature",
      "id": "1366",
      "geometry": {
        "type": "Point",
        "coordinates": [
          -35.576182,
          -52.521673
        ]
      },
      "properties": {
        "label": "Bortezomib",
        "level": 4,
        "pos": "-151558.121,-326822.772",
        "src_id": "179",
        "weight": "221572.0"
      }
    },
    {
      "type": "Feature",
      "id": "8458",
      "geometry": {
        "type": "Point",
        "coordinates": [
          -34.487758,
          -52.014286
        ]
      },
      "properties": {
        "label": "Lopinavir",
        "level": 5,
        "pos": "-146135.017,-322510.479",
        "src_id": "1533",
        "weight": "0.0"
      }
    },
    {
      "type": "Feature",
      "id": "8866",
      "geometry": {
        "type": "Point",
        "coordinates": [
          -36.077139,
          -49.744932
        ]
      },
      "properties": {
        "label": "Becaplermin",
        "level": 5,
        "pos": "-154054.146,-303798.858",
        "src_id": "95",
        "weight": "0.0"
      }
    },
    {
      "type": "Feature",
      "id": "291",
      "geometry": {
        "type": "Point",
        "coordinates": [
          -31.719196,
          -44.450361
        ]
      },
      "properties": {
        "label": "Bleeding time",
        "level": 3,
        "pos": "-132340.588,-263299.60799999995",
        "src_id": "171874",
        "weight": "740338.0"
      }
    },
    {
      "type": "Feature",
      "id": "7442",
      "geometry": {
        "type": "Point",
        "coordinates": [
          -37.803691,
          -49.39353
        ]
      },
      "properties": {
        "label": "Blood thrombin increased",
        "level": 5,
        "pos": "-162656.745,-300980.678",
        "src_id": "172386",
        "weight": "0.0"
      }
    },
    {
      "type": "Feature",
      "id": "3116",
      "geometry": {
        "type": "Point",
        "coordinates": [
          -36.132045,
          -50.864847
        ]
      },
      "properties": {
        "label": "Shock hypoglycaemic",
        "level": 5,
        "pos": "-154327.71600000001,-312919.067",
        "src_id": "185828",
        "weight": "8885.0"
      }
    },
    {
      "type": "Feature",
      "id": "5182",
      "geometry": {
        "type": "Point",
        "coordinates": [
          -32.613149,
          -50.202699
        ]
      },
      "properties": {
        "label": "Enfuvirtide",
        "level": 5,
        "pos": "-136794.733,-307500.857",
        "src_id": "102",
        "weight": "8885.0"
      }
    },
    {
      "type": "Feature",
      "id": "8765",
      "geometry": {
        "type": "Point",
        "coordinates": [
          -32.995116,
          -51.792389
        ]
      },
      "properties": {
        "label": "Lenalidomide",
        "level": 5,
        "pos": "-138697.886,-320639.952",
        "src_id": "469",
        "weight": "0.0"
      }
    },
    {
      "type": "Feature",
      "id": "8584",
      "geometry": {
        "type": "Point",
        "coordinates": [
          -33.680186,
          -52.313947
        ]
      },
      "properties": {
        "label": "Atazanavir",
        "level": 5,
        "pos": "-142111.266,-325051.325",
        "src_id": "1056",
        "weight": "0.0"
      }
    },
    {
      "type": "Feature",
      "id": "3301",
      "geometry": {
        "type": "Point",
        "coordinates": [
          -30.907919,
          -47.127439
        ]
      },
      "properties": {
        "label": "Platelet aggregation",
        "level": 5,
        "pos": "-128298.385,-283273.06",
        "src_id": "183586",
        "weight": "17768.0"
      }
    },
    {
      "type": "Feature",
      "id": "420",
      "geometry": {
        "type": "Point",
        "coordinates": [
          -30.515257,
          -40.497373
        ]
      },
      "properties": {
        "label": "Platelet count",
        "level": 3,
        "pos": "-126341.927,-235410.467",
        "src_id": "183593",
        "weight": "783278.0"
      }
    },
    {
      "type": "Feature",
      "id": "2339",
      "geometry": {
        "type": "Point",
        "coordinates": [
          -32.765409,
          -48.388904
        ]
      },
      "properties": {
        "label": "Activated partial thromboplastin time",
        "level": 4,
        "pos": "-137553.367,-293033.258",
        "src_id": "169717",
        "weight": "62159.0"
      }
    },
    {
      "type": "Feature",
      "id": "7517",
      "geometry": {
        "type": "Point",
        "coordinates": [
          -32.706872,
          -48.072935
        ]
      },
      "properties": {
        "label": "Bleeding time prolonged",
        "level": 5,
        "pos": "-137261.70500000002,-290566.201",
        "src_id": "171877",
        "weight": "0.0"
      }
    },
    {
      "type": "Feature",
      "id": "6022",
      "geometry": {
        "type": "Point",
        "coordinates": [
          -34.749543,
          -47.775519
        ]
      },
      "properties": {
        "label": "Platelet adhesiveness",
        "level": 5,
        "pos": "-147439.368,-288257.80700000003",
        "src_id": "183581",
        "weight": "0.0"
      }
    },
    {
      "type": "Feature",
      "id": "7231",
      "geometry": {
        "type": "Point",
        "coordinates": [
          -36.559792,
          -50.319922
        ]
      },
      "properties": {
        "label": "Compression fracture",
        "level": 5,
        "pos": "-156458.979,-308454.551",
        "src_id": "174029",
        "weight": "0.0"
      }
    },
    {
      "type": "Feature",
      "id": "7360",
      "geometry": {
        "type": "Point",
        "coordinates": [
          45.445713,
          47.534685
        ]
      },
      "properties": {
        "label": "Cardiac function disturbance postoperative",
        "level": 5,
        "pos": "252135.56,277047.598",
        "src_id": "173043",
        "weight": "0.0"
      }
    },
    {
      "type": "Feature",
      "id": "2821",
      "geometry": {
        "type": "Point",
        "coordinates": [
          -2.704278,
          -8.439054
        ]
      },
      "properties": {
        "label": "Goserelin",
        "level": 3,
        "pos": "12226.991,-48726.848",
        "src_id": "14",
        "weight": "309909.0"
      }
    },
    {
      "type": "Feature",
      "id": "2729",
      "geometry": {
        "type": "Point",
        "coordinates": [
          -5.187815,
          -8.29814
        ]
      },
      "properties": {
        "label": "Nafarelin",
        "level": 4,
        "pos": "-147.30499999999998,-47986.057",
        "src_id": "653",
        "weight": "265680.0"
      }
    },
    {
      "type": "Feature",
      "id": "4667",
      "geometry": {
        "type": "Point",
        "coordinates": [
          -1.864019,
          -8.83882
        ]
      },
      "properties": {
        "label": "Triptorelin",
        "level": 5,
        "pos": "16413.604,-50829.917",
        "src_id": "5877",
        "weight": "26649.0"
      }
    },
    {
      "type": "Feature",
      "id": "1107",
      "geometry": {
        "type": "Point",
        "coordinates": [
          -6.535847,
          -7.957055
        ]
      },
      "properties": {
        "label": "Artificial menopause",
        "level": 2,
        "pos": "-6863.905,-46194.056000000004",
        "src_id": "170979",
        "weight": "2987569.0"
      }
    },
    {
      "type": "Feature",
      "id": "596",
      "geometry": {
        "type": "Point",
        "coordinates": [
          -3.597748,
          -8.702486
        ]
      },
      "properties": {
        "label": "Histrelin",
        "level": 4,
        "pos": "7775.249,-50112.448000000004",
        "src_id": "5844",
        "weight": "124036.5"
      }
    },
    {
      "type": "Feature",
      "id": "5014",
      "geometry": {
        "type": "Point",
        "coordinates": [
          -0.936674,
          -9.651965
        ]
      },
      "properties": {
        "label": "Norethisterone",
        "level": 5,
        "pos": "21034.118,-55114.832",
        "src_id": "703",
        "weight": "17768.0"
      }
    },
    {
      "type": "Feature",
      "id": "3919",
      "geometry": {
        "type": "Point",
        "coordinates": [
          -3.703348,
          -7.990594
        ]
      },
      "properties": {
        "label": "Endometriosis",
        "level": 2,
        "pos": "7249.096,-46370.199",
        "src_id": "175911",
        "weight": "2157335.0"
      }
    },
    {
      "type": "Feature",
      "id": "699",
      "geometry": {
        "type": "Point",
        "coordinates": [
          -10.992526,
          -8.330809
        ]
      },
      "properties": {
        "label": "Uterine haemorrhage",
        "level": 2,
        "pos": "-29069.423,-48157.783",
        "src_id": "188098",
        "weight": "4643225.0"
      }
    },
    {
      "type": "Feature",
      "id": "5159",
      "geometry": {
        "type": "Point",
        "coordinates": [
          -0.74936,
          -10.367771
        ]
      },
      "properties": {
        "label": "Vidarabine",
        "level": 5,
        "pos": "21967.420000000002,-58895.350999999995",
        "src_id": "185",
        "weight": "0.0"
      }
    },
    {
      "type": "Feature",
      "id": "565",
      "geometry": {
        "type": "Point",
        "coordinates": [
          -0.129301,
          -10.66263
        ]
      },
      "properties": {
        "label": "Lactitol",
        "level": 4,
        "pos": "25056.878,-60455.123999999996",
        "src_id": "10571",
        "weight": "124036.5"
      }
    },
    {
      "type": "Feature",
      "id": "2782",
      "geometry": {
        "type": "Point",
        "coordinates": [
          -2.171044,
          -8.907927
        ]
      },
      "properties": {
        "label": "Isradipine",
        "level": 5,
        "pos": "14883.836000000001,-51193.697",
        "src_id": "261",
        "weight": "8886.0"
      }
    },
    {
      "type": "Feature",
      "id": "2469",
      "geometry": {
        "type": "Point",
        "coordinates": [
          -3.149109,
          -8.863404
        ]
      },
      "properties": {
        "label": "Quinagolide",
        "level": 4,
        "pos": "10010.614,-50959.322",
        "src_id": "8042",
        "weight": "212688.0"
      }
    },
    {
      "type": "Feature",
      "id": "4954",
      "geometry": {
        "type": "Point",
        "coordinates": [
          1.306457,
          -11.034301
        ]
      },
      "properties": {
        "label": "Norgestimate",
        "level": 5,
        "pos": "32210.577999999998,-62423.376",
        "src_id": "943",
        "weight": "8885.0"
      }
    },
    {
      "type": "Feature",
      "id": "2040",
      "geometry": {
        "type": "Point",
        "coordinates": [
          -2.128399,
          -8.644028
        ]
      },
      "properties": {
        "label": "Endometrial hyperplasia",
        "level": 2,
        "pos": "15096.315,-49804.886000000006",
        "src_id": "175903",
        "weight": "2151157.0"
      }
    },
    {
      "type": "Feature",
      "id": "2263",
      "geometry": {
        "type": "Point",
        "coordinates": [
          -11.012257,
          -7.827728
        ]
      },
      "properties": {
        "label": "Biopsy endometrium",
        "level": 4,
        "pos": "-29167.726,-45514.989",
        "src_id": "171604",
        "weight": "79911.0"
      }
    },
    {
      "type": "Feature",
      "id": "998",
      "geometry": {
        "type": "Point",
        "coordinates": [
          -8.133277,
          -9.407964
        ]
      },
      "properties": {
        "label": "Endometrial ablation",
        "level": 3,
        "pos": "-14823.142,-53828.009",
        "src_id": "175890",
        "weight": "1704388.0"
      }
    },
    {
      "type": "Feature",
      "id": "2934",
      "geometry": {
        "type": "Point",
        "coordinates": [
          -11.576798,
          -8.945212
        ]
      },
      "properties": {
        "label": "Vaginal infection",
        "level": 2,
        "pos": "-31980.572,-51390.004",
        "src_id": "188217",
        "weight": "4541464.0"
      }
    },
    {
      "type": "Feature",
      "id": "8058",
      "geometry": {
        "type": "Point",
        "coordinates": [
          -0.245591,
          -10.079478
        ]
      },
      "properties": {
        "label": "Niguldipine",
        "level": 5,
        "pos": "24477.459,-57371.735",
        "src_id": "8179",
        "weight": "0.0"
      }
    },
    {
      "type": "Feature",
      "id": "976",
      "geometry": {
        "type": "Point",
        "coordinates": [
          -3.264139,
          -9.917964
        ]
      },
      "properties": {
        "label": "Female sexual arousal disorder",
        "level": 3,
        "pos": "9437.468,-56518.727",
        "src_id": "176645",
        "weight": "494985.0"
      }
    },
    {
      "type": "Feature",
      "id": "3955",
      "geometry": {
        "type": "Point",
        "coordinates": [
          -0.032679,
          -9.689897
        ]
      },
      "properties": {
        "label": "Dysmenorrhoea",
        "level": 2,
        "pos": "25538.296,-55314.962999999996",
        "src_id": "175486",
        "weight": "2109473.0"
      }
    },
    {
      "type": "Feature",
      "id": "2039",
      "geometry": {
        "type": "Point",
        "coordinates": [
          -5.015676,
          -10.644277
        ]
      },
      "properties": {
        "label": "Endometritis",
        "level": 3,
        "pos": "710.386,-60357.988",
        "src_id": "175913",
        "weight": "1646343.0"
      }
    },
    {
      "type": "Feature",
      "id": "3395",
      "geometry": {
        "type": "Point",
        "coordinates": [
          -6.20323,
          -10.176787
        ]
      },
      "properties": {
        "label": "Oligomenorrhoea",
        "level": 5,
        "pos": "-5206.626,-57885.846",
        "src_id": "182202",
        "weight": "8885.0"
      }
    },
    {
      "type": "Feature",
      "id": "2063",
      "geometry": {
        "type": "Point",
        "coordinates": [
          -12.74316,
          -7.621766
        ]
      },
      "properties": {
        "label": "Dysuria",
        "level": 2,
        "pos": "-37792.003000000004,-44433.962999999996",
        "src_id": "175513",
        "weight": "5401219.0"
      }
    },
    {
      "type": "Feature",
      "id": "362",
      "geometry": {
        "type": "Point",
        "coordinates": [
          19.67451,
          2.948736
        ]
      },
      "properties": {
        "label": "Reteplase",
        "level": 5,
        "pos": "123729.87700000001,10667.994",
        "src_id": "15",
        "weight": "0.0"
      }
    },
    {
      "type": "Feature",
      "id": "358",
      "geometry": {
        "type": "Point",
        "coordinates": [
          25.711709,
          2.317671
        ]
      },
      "properties": {
        "label": "Dexrazoxane",
        "level": 5,
        "pos": "153810.375,7382.298",
        "src_id": "370",
        "weight": "0.0"
      }
    },
    {
      "type": "Feature",
      "id": "343",
      "geometry": {
        "type": "Point",
        "coordinates": [
          24.746779,
          2.233341
        ]
      },
      "properties": {
        "label": "Formoterol",
        "level": 5,
        "pos": "149002.589,6943.349",
        "src_id": "969",
        "weight": "0.0"
      }
    },
    {
      "type": "Feature",
      "id": "218",
      "geometry": {
        "type": "Point",
        "coordinates": [
          18.138607,
          2.58265
        ]
      },
      "properties": {
        "label": "Iloprost",
        "level": 4,
        "pos": "116077.199,8761.733",
        "src_id": "1072",
        "weight": "53280.0"
      }
    },
    {
      "type": "Feature",
      "id": "326",
      "geometry": {
        "type": "Point",
        "coordinates": [
          24.292943,
          2.782609
        ]
      },
      "properties": {
        "label": "Tanomastat",
        "level": 5,
        "pos": "146741.342,9802.875",
        "src_id": "5530",
        "weight": "0.0"
      }
    },
    {
      "type": "Feature",
      "id": "324",
      "geometry": {
        "type": "Point",
        "coordinates": [
          26.817634,
          2.223904
        ]
      },
      "properties": {
        "label": "Semaxanib",
        "level": 5,
        "pos": "159320.679,6894.229",
        "src_id": "5601",
        "weight": "0.0"
      }
    },
    {
      "type": "Feature",
      "id": "323",
      "geometry": {
        "type": "Point",
        "coordinates": [
          22.570979,
          2.875141
        ]
      },
      "properties": {
        "label": "Ravuconazole",
        "level": 5,
        "pos": "138161.611,10284.716",
        "src_id": "5604",
        "weight": "0.0"
      }
    },
    {
      "type": "Feature",
      "id": "2712",
      "geometry": {
        "type": "Point",
        "coordinates": [
          15.646792,
          2.41133
        ]
      },
      "properties": {
        "label": "Alprostadil",
        "level": 4,
        "pos": "103661.667,7869.835",
        "src_id": "756",
        "weight": "71031.0"
      }
    },
    {
      "type": "Feature",
      "id": "5171",
      "geometry": {
        "type": "Point",
        "coordinates": [
          16.186049,
          1.974296
        ]
      },
      "properties": {
        "label": "Dihomo-gamma-linolenic acid",
        "level": 4,
        "pos": "106348.53300000001,5595.1269999999995",
        "src_id": "146",
        "weight": "79893.0"
      }
    },
    {
      "type": "Feature",
      "id": "7592",
      "geometry": {
        "type": "Point",
        "coordinates": [
          20.176071,
          2.669635
        ]
      },
      "properties": {
        "label": "Arterial insufficiency",
        "level": 5,
        "pos": "126228.917,9214.622000000001",
        "src_id": "170882",
        "weight": "0.0"
      }
    },
    {
      "type": "Feature",
      "id": "1380",
      "geometry": {
        "type": "Point",
        "coordinates": [
          -28.396847,
          20.620062
        ]
      },
      "properties": {
        "label": "Erythropoietin",
        "level": 5,
        "pos": "-115786.896,104963.689",
        "src_id": "16",
        "weight": "26652.0"
      }
    },
    {
      "type": "Feature",
      "id": "7242",
      "geometry": {
        "type": "Point",
        "coordinates": [
          -33.225567,
          23.979755
        ]
      },
      "properties": {
        "label": "Coagulopathy",
        "level": 5,
        "pos": "-139846.117,123853.75899999999",
        "src_id": "173874",
        "weight": "0.0"
      }
    },
    {
      "type": "Feature",
      "id": "6608",
      "geometry": {
        "type": "Point",
        "coordinates": [
          -30.368929,
          22.460239
        ]
      },
      "properties": {
        "label": "Hysterotomy",
        "level": 5,
        "pos": "-125612.852,115253.745",
        "src_id": "178692",
        "weight": "0.0"
      }
    },
    {
      "type": "Feature",
      "id": "1883",
      "geometry": {
        "type": "Point",
        "coordinates": [
          -24.02149,
          16.43038
        ]
      },
      "properties": {
        "label": "Iron deficiency",
        "level": 4,
        "pos": "-93986.568,81975.836",
        "src_id": "179432",
        "weight": "44409.0"
      }
    },
    {
      "type": "Feature",
      "id": "6245",
      "geometry": {
        "type": "Point",
        "coordinates": [
          -31.097791,
          23.100469
        ]
      },
      "properties": {
        "label": "Nephrogenic anaemia",
        "level": 5,
        "pos": "-129244.41500000001,118865.35399999999",
        "src_id": "181659",
        "weight": "0.0"
      }
    },
    {
      "type": "Feature",
      "id": "7557",
      "geometry": {
        "type": "Point",
        "coordinates": [
          -25.193829,
          18.093938
        ]
      },
      "properties": {
        "label": "Azotaemia",
        "level": 5,
        "pos": "-99827.77500000001,91036.579",
        "src_id": "171178",
        "weight": "0.0"
      }
    },
    {
      "type": "Feature",
      "id": "3336",
      "geometry": {
        "type": "Point",
        "coordinates": [
          -23.565982,
          16.002498
        ]
      },
      "properties": {
        "label": "Periodic limb movement disorder",
        "level": 4,
        "pos": "-91716.993,79658.193",
        "src_id": "183150",
        "weight": "53280.0"
      }
    },
    {
      "type": "Feature",
      "id": "374",
      "geometry": {
        "type": "Point",
        "coordinates": [
          -21.541955,
          14.312511
        ]
      },
      "properties": {
        "label": "Venous insufficiency",
        "level": 4,
        "pos": "-81632.218,70551.292",
        "src_id": "188388",
        "weight": "115400.0"
      }
    },
    {
      "type": "Feature",
      "id": "895",
      "geometry": {
        "type": "Point",
        "coordinates": [
          -20.13684,
          15.268272
        ]
      },
      "properties": {
        "label": "Klippel-Trenaunay syndrome",
        "level": 4,
        "pos": "-74631.202,75692.666",
        "src_id": "179621",
        "weight": "221697.0"
      }
    },
    {
      "type": "Feature",
      "id": "4293",
      "geometry": {
        "type": "Point",
        "coordinates": [
          -22.363829,
          14.799913
        ]
      },
      "properties": {
        "label": "Arteriovenous fistula",
        "level": 5,
        "pos": "-85727.233,73170.37299999999",
        "src_id": "170916",
        "weight": "26649.0"
      }
    },
    {
      "type": "Feature",
      "id": "2820",
      "geometry": {
        "type": "Point",
        "coordinates": [
          16.144136,
          -18.686003
        ]
      },
      "properties": {
        "label": "Salmon Calcitonin",
        "level": 3,
        "pos": "106139.70000000001,-103632.324",
        "src_id": "17",
        "weight": "1362488.0"
      }
    },
    {
      "type": "Feature",
      "id": "1182",
      "geometry": {
        "type": "Point",
        "coordinates": [
          17.949438,
          -21.253613
        ]
      },
      "properties": {
        "label": "Salmon",
        "level": 3,
        "pos": "115134.66,-117842.424",
        "src_id": "8996",
        "weight": "1319999.0"
      }
    },
    {
      "type": "Feature",
      "id": "2377",
      "geometry": {
        "type": "Point",
        "coordinates": [
          17.49697,
          -19.654439
        ]
      },
      "properties": {
        "label": "Piritramide",
        "level": 5,
        "pos": "112880.231,-108964.99",
        "src_id": "10144",
        "weight": "26651.0"
      }
    },
    {
      "type": "Feature",
      "id": "1083",
      "geometry": {
        "type": "Point",
        "coordinates": [
          15.562118,
          -18.262923
        ]
      },
      "properties": {
        "label": "Brachial plexopathy",
        "level": 3,
        "pos": "103239.779,-101312.292",
        "src_id": "172558",
        "weight": "1414079.0"
      }
    },
    {
      "type": "Feature",
      "id": "1412",
      "geometry": {
        "type": "Point",
        "coordinates": [
          18.957268,
          -24.088419
        ]
      },
      "properties": {
        "label": "Soybean",
        "level": 3,
        "pos": "120156.201,-133823.21",
        "src_id": "239894",
        "weight": "1255019.0"
      }
    },
    {
      "type": "Feature",
      "id": "7987",
      "geometry": {
        "type": "Point",
        "coordinates": [
          18.684635,
          -22.883259
        ]
      },
      "properties": {
        "label": "Atlantic salmon",
        "level": 5,
        "pos": "118797.799,-126988.779",
        "src_id": "8671",
        "weight": "0.0"
      }
    },
    {
      "type": "Feature",
      "id": "3585",
      "geometry": {
        "type": "Point",
        "coordinates": [
          17.145078,
          -19.994216
        ]
      },
      "properties": {
        "label": "Leg amputation",
        "level": 4,
        "pos": "111126.92,-110843.522",
        "src_id": "179847",
        "weight": "44405.0"
      }
    },
    {
      "type": "Feature",
      "id": "8760",
      "geometry": {
        "type": "Point",
        "coordinates": [
          18.549533,
          -21.96483
        ]
      },
      "properties": {
        "label": "Nabilone",
        "level": 5,
        "pos": "118124.65000000001,-121821.173",
        "src_id": "475",
        "weight": "0.0"
      }
    },
    {
      "type": "Feature",
      "id": "5074",
      "geometry": {
        "type": "Point",
        "coordinates": [
          18.781995,
          -22.432977
        ]
      },
      "properties": {
        "label": "Levallorphan",
        "level": 5,
        "pos": "119282.905,-124450.95999999999",
        "src_id": "493",
        "weight": "8885.0"
      }
    },
    {
      "type": "Feature",
      "id": "3316",
      "geometry": {
        "type": "Point",
        "coordinates": [
          21.767174,
          -20.495333
        ]
      },
      "properties": {
        "label": "Phrenic nerve paralysis",
        "level": 5,
        "pos": "134156.62699999998,-113621.477",
        "src_id": "183455",
        "weight": "8885.0"
      }
    },
    {
      "type": "Feature",
      "id": "3202",
      "geometry": {
        "type": "Point",
        "coordinates": [
          19.33551,
          -20.820111
        ]
      },
      "properties": {
        "label": "Radial nerve palsy",
        "level": 5,
        "pos": "122040.803,-115426.736",
        "src_id": "184684",
        "weight": "17768.0"
      }
    },
    {
      "type": "Feature",
      "id": "401",
      "geometry": {
        "type": "Point",
        "coordinates": [
          8.912324,
          -16.022235
        ]
      },
      "properties": {
        "label": "Sialoadenitis",
        "level": 3,
        "pos": "70107.00799999999,-89115.618",
        "src_id": "185852",
        "weight": "1434926.0"
      }
    },
    {
      "type": "Feature",
      "id": "4574",
      "geometry": {
        "type": "Point",
        "coordinates": [
          20.423121,
          -24.77198
        ]
      },
      "properties": {
        "label": "Soybean",
        "level": 3,
        "pos": "127459.848,-137728.099",
        "src_id": "8637",
        "weight": "459368.0"
      }
    },
    {
      "type": "Feature",
      "id": "1188",
      "geometry": {
        "type": "Point",
        "coordinates": [
          16.551632,
          -20.890978
        ]
      },
      "properties": {
        "label": "Rice",
        "level": 3,
        "pos": "108170.05500000001,-115821.172",
        "src_id": "8633",
        "weight": "784473.0"
      }
    },
    {
      "type": "Feature",
      "id": "803",
      "geometry": {
        "type": "Point",
        "coordinates": [
          19.924097,
          -24.138042
        ]
      },
      "properties": {
        "label": "Phantom pain",
        "level": 4,
        "pos": "124973.45300000001,-134105.981",
        "src_id": "183343",
        "weight": "35533.0"
      }
    },
    {
      "type": "Feature",
      "id": "8652",
      "geometry": {
        "type": "Point",
        "coordinates": [
          19.614519,
          -22.926419
        ]
      },
      "properties": {
        "label": "Levorphanol",
        "level": 5,
        "pos": "123430.972,-127232.471",
        "src_id": "840",
        "weight": "0.0"
      }
    },
    {
      "type": "Feature",
      "id": "5807",
      "geometry": {
        "type": "Point",
        "coordinates": [
          24.269421,
          -20.987785
        ]
      },
      "properties": {
        "label": "Rotator cuff syndrome",
        "level": 6,
        "pos": "146624.143,-116360.26599999999",
        "src_id": "185413",
        "weight": "0.0"
      }
    },
    {
      "type": "Feature",
      "id": "3330",
      "geometry": {
        "type": "Point",
        "coordinates": [
          18.545844,
          -20.394706
        ]
      },
      "properties": {
        "label": "Peripheral nerve lesion",
        "level": 5,
        "pos": "118106.273,-113062.925",
        "src_id": "183187",
        "weight": "8885.0"
      }
    },
    {
      "type": "Feature",
      "id": "1031",
      "geometry": {
        "type": "Point",
        "coordinates": [
          12.202987,
          -17.998884
        ]
      },
      "properties": {
        "label": "Conjunctival oedema",
        "level": 4,
        "pos": "86502.817,-99867.26",
        "src_id": "174314",
        "weight": "93115.0"
      }
    },
    {
      "type": "Feature",
      "id": "813",
      "geometry": {
        "type": "Point",
        "coordinates": [
          8.494787,
          -15.423219
        ]
      },
      "properties": {
        "label": "Paracentesis",
        "level": 3,
        "pos": "68026.622,-85878.986",
        "src_id": "182774",
        "weight": "1552016.0"
      }
    },
    {
      "type": "Feature",
      "id": "3143",
      "geometry": {
        "type": "Point",
        "coordinates": [
          13.110099,
          -18.682623
        ]
      },
      "properties": {
        "label": "Salivary gland enlargement",
        "level": 5,
        "pos": "91022.534,-103613.76",
        "src_id": "185474",
        "weight": "0.0"
      }
    },
    {
      "type": "Feature",
      "id": "6449",
      "geometry": {
        "type": "Point",
        "coordinates": [
          14.334959,
          -17.847057
        ]
      },
      "properties": {
        "label": "Local swelling",
        "level": 6,
        "pos": "97125.425,-99037.323",
        "src_id": "180105",
        "weight": "0.0"
      }
    },
    {
      "type": "Feature",
      "id": "4155",
      "geometry": {
        "type": "Point",
        "coordinates": [
          17.121538,
          -21.66113
        ]
      },
      "properties": {
        "label": "Calcium deficiency",
        "level": 3,
        "pos": "111009.627,-120119.795",
        "src_id": "172886",
        "weight": "573365.0"
      }
    },
    {
      "type": "Feature",
      "id": "7335",
      "geometry": {
        "type": "Point",
        "coordinates": [
          19.073022,
          -24.993804
        ]
      },
      "properties": {
        "label": "Cavernous sinus thrombosis",
        "level": 5,
        "pos": "120732.94799999999,-138999.877",
        "src_id": "173263",
        "weight": "0.0"
      }
    },
    {
      "type": "Feature",
      "id": "3573",
      "geometry": {
        "type": "Point",
        "coordinates": [
          20.037094,
          -23.731551
        ]
      },
      "properties": {
        "label": "Limb amputation",
        "level": 5,
        "pos": "125536.461,-131792.881",
        "src_id": "179975",
        "weight": "8885.0"
      }
    },
    {
      "type": "Feature",
      "id": "6231",
      "geometry": {
        "type": "Point",
        "coordinates": [
          19.171179,
          -23.358026
        ]
      },
      "properties": {
        "label": "Neuroma",
        "level": 6,
        "pos": "121222.02,-129673.726",
        "src_id": "181751",
        "weight": "0.0"
      }
    },
    {
      "type": "Feature",
      "id": "6057",
      "geometry": {
        "type": "Point",
        "coordinates": [
          20.018493,
          -21.428516
        ]
      },
      "properties": {
        "label": "Peripheral nerve injury",
        "level": 6,
        "pos": "125443.78,-118819.06999999999",
        "src_id": "183186",
        "weight": "0.0"
      }
    },
    {
      "type": "Feature",
      "id": "5685",
      "geometry": {
        "type": "Point",
        "coordinates": [
          11.487374,
          -19.846665
        ]
      },
      "properties": {
        "label": "Splenic haemorrhage",
        "level": 6,
        "pos": "82937.25600000001,-110027.258",
        "src_id": "186286",
        "weight": "0.0"
      }
    },
    {
      "type": "Feature",
      "id": "8882",
      "geometry": {
        "type": "Point",
        "coordinates": [
          7.488647,
          -34.396267
        ]
      },
      "properties": {
        "label": "Pegfilgrastim",
        "level": 5,
        "pos": "63013.5,-195400.273",
        "src_id": "19",
        "weight": "0.0"
      }
    },
    {
      "type": "Feature",
      "id": "4817",
      "geometry": {
        "type": "Point",
        "coordinates": [
          6.320502,
          -32.974148
        ]
      },
      "properties": {
        "label": "Etoricoxib",
        "level": 5,
        "pos": "57193.193999999996,-186510.837",
        "src_id": "1559",
        "weight": "8885.0"
      }
    },
    {
      "type": "Feature",
      "id": "5201",
      "geometry": {
        "type": "Point",
        "coordinates": [
          5.709969,
          -29.440109
        ]
      },
      "properties": {
        "label": "Anakinra",
        "level": 5,
        "pos": "54151.193,-165014.541",
        "src_id": "26",
        "weight": "17768.0"
      }
    },
    {
      "type": "Feature",
      "id": "5193",
      "geometry": {
        "type": "Point",
        "coordinates": [
          5.243187,
          -27.602819
        ]
      },
      "properties": {
        "label": "Drotrecogin alfa",
        "level": 5,
        "pos": "51825.436,-154138.06199999998",
        "src_id": "54",
        "weight": "26649.0"
      }
    },
    {
      "type": "Feature",
      "id": "1217",
      "geometry": {
        "type": "Point",
        "coordinates": [
          4.290664,
          -24.185723
        ]
      },
      "properties": {
        "label": "Lanthanum carbonate",
        "level": 4,
        "pos": "47079.47,-134377.77500000002",
        "src_id": "5847",
        "weight": "53289.0"
      }
    },
    {
      "type": "Feature",
      "id": "2819",
      "geometry": {
        "type": "Point",
        "coordinates": [
          9.121054,
          5.367773
        ]
      },
      "properties": {
        "label": "Sargramostim",
        "level": 5,
        "pos": "71147.007,23283.68",
        "src_id": "20",
        "weight": "0.0"
      }
    },
    {
      "type": "Feature",
      "id": "208",
      "geometry": {
        "type": "Point",
        "coordinates": [
          10.354777,
          1.991336
        ]
      },
      "properties": {
        "label": "gallium maltolate",
        "level": 5,
        "pos": "77294.066,5683.812",
        "src_id": "5046",
        "weight": "11841.999999997131"
      }
    },
    {
      "type": "Feature",
      "id": "204",
      "geometry": {
        "type": "Point",
        "coordinates": [
          7.553333,
          5.254576
        ]
      },
      "properties": {
        "label": "Exisulind",
        "level": 5,
        "pos": "63335.797,22692.398",
        "src_id": "5508",
        "weight": "11841.999999997131"
      }
    },
    {
      "type": "Feature",
      "id": "203",
      "geometry": {
        "type": "Point",
        "coordinates": [
          6.361955,
          5.758514
        ]
      },
      "properties": {
        "label": "Repifermin",
        "level": 5,
        "pos": "57399.729999999996,25325.574",
        "src_id": "5599",
        "weight": "11841.999999997131"
      }
    },
    {
      "type": "Feature",
      "id": "2540",
      "geometry": {
        "type": "Point",
        "coordinates": [
          8.994702,
          4.915702
        ]
      },
      "properties": {
        "label": "Binodenoson",
        "level": 5,
        "pos": "70517.461,20922.927",
        "src_id": "4575",
        "weight": "0.0"
      }
    },
    {
      "type": "Feature",
      "id": "1239",
      "geometry": {
        "type": "Point",
        "coordinates": [
          12.043351,
          -0.084675
        ]
      },
      "properties": {
        "label": "Garenoxacin",
        "level": 4,
        "pos": "85707.435,-5115.722",
        "src_id": "5447",
        "weight": "62153.0"
      }
    },
    {
      "type": "Feature",
      "id": "2494",
      "geometry": {
        "type": "Point",
        "coordinates": [
          7.62756,
          4.46581
        ]
      },
      "properties": {
        "label": "Ganirelix",
        "level": 5,
        "pos": "63705.638999999996,18575.146",
        "src_id": "5841",
        "weight": "0.0"
      }
    },
    {
      "type": "Feature",
      "id": "2353",
      "geometry": {
        "type": "Point",
        "coordinates": [
          9.403182,
          3.767881
        ]
      },
      "properties": {
        "label": "Estradiol acetate",
        "level": 5,
        "pos": "72552.716,14935.774",
        "src_id": "10984",
        "weight": "0.0"
      }
    },
    {
      "type": "Feature",
      "id": "4447",
      "geometry": {
        "type": "Point",
        "coordinates": [
          12.627141,
          -1.735157
        ]
      },
      "properties": {
        "label": "Sitafloxacin",
        "level": 4,
        "pos": "88616.183,-13701.339",
        "src_id": "10819",
        "weight": "71024.0"
      }
    },
    {
      "type": "Feature",
      "id": "2818",
      "geometry": {
        "type": "Point",
        "coordinates": [
          -50.401125,
          5.261827
        ]
      },
      "properties": {
        "label": "Secretin",
        "level": 3,
        "pos": "-225423.783,22730.274",
        "src_id": "21",
        "weight": "887877.0"
      }
    },
    {
      "type": "Feature",
      "id": "361",
      "geometry": {
        "type": "Point",
        "coordinates": [
          -45.445273,
          3.540335
        ]
      },
      "properties": {
        "label": "Pentagastrin",
        "level": 3,
        "pos": "-200731.11599999998,13749.879",
        "src_id": "174",
        "weight": "1021777.0"
      }
    },
    {
      "type": "Feature",
      "id": "4467",
      "geometry": {
        "type": "Point",
        "coordinates": [
          -50.933963,
          4.534762
        ]
      },
      "properties": {
        "label": "Pancreatic Polypeptide",
        "level": 5,
        "pos": "-228078.656,18934.882",
        "src_id": "10456",
        "weight": "8885.0"
      }
    },
    {
      "type": "Feature",
      "id": "3965",
      "geometry": {
        "type": "Point",
        "coordinates": [
          -51.098313,
          5.35649
        ]
      },
      "properties": {
        "label": "Duodenal sphincterotomy",
        "level": 3,
        "pos": "-228897.541,23224.745",
        "src_id": "175441",
        "weight": "890223.0"
      }
    },
    {
      "type": "Feature",
      "id": "1345",
      "geometry": {
        "type": "Point",
        "coordinates": [
          -47.350772,
          5.148841
        ]
      },
      "properties": {
        "label": "Ceruletide",
        "level": 3,
        "pos": "-210225.321,22140.188",
        "src_id": "392",
        "weight": "547479.0"
      }
    },
    {
      "type": "Feature",
      "id": "5030",
      "geometry": {
        "type": "Point",
        "coordinates": [
          -47.146456,
          1.623755
        ]
      },
      "properties": {
        "label": "Pirenzepine",
        "level": 5,
        "pos": "-209207.31399999998,3771.047",
        "src_id": "656",
        "weight": "8885.0"
      }
    },
    {
      "type": "Feature",
      "id": "4801",
      "geometry": {
        "type": "Point",
        "coordinates": [
          -48.654737,
          6.26218
        ]
      },
      "properties": {
        "label": "Butenoic Acid",
        "level": 3,
        "pos": "-216722.364,27959.652",
        "src_id": "1972",
        "weight": "525415.0"
      }
    },
    {
      "type": "Feature",
      "id": "4161",
      "geometry": {
        "type": "Point",
        "coordinates": [
          -45.831262,
          0.177588
        ]
      },
      "properties": {
        "label": "Bronchitis chronic",
        "level": 5,
        "pos": "-202654.32200000001,-3751.668",
        "src_id": "172752",
        "weight": "8885.0"
      }
    },
    {
      "type": "Feature",
      "id": "3340",
      "geometry": {
        "type": "Point",
        "coordinates": [
          -47.06687,
          3.604584
        ]
      },
      "properties": {
        "label": "Peptic ulcer",
        "level": 4,
        "pos": "-208810.775,14084.69",
        "src_id": "183057",
        "weight": "44405.0"
      }
    },
    {
      "type": "Feature",
      "id": "8274",
      "geometry": {
        "type": "Point",
        "coordinates": [
          -48.452493,
          3.702357
        ]
      },
      "properties": {
        "label": "AC162352",
        "level": 5,
        "pos": "-215714.674,14594.251999999999",
        "src_id": "4708",
        "weight": "0.0"
      }
    },
    {
      "type": "Feature",
      "id": "2087",
      "geometry": {
        "type": "Point",
        "coordinates": [
          -53.101504,
          4.913037
        ]
      },
      "properties": {
        "label": "Diathermy",
        "level": 3,
        "pos": "-238878.487,20909.018",
        "src_id": "175209",
        "weight": "906551.0"
      }
    },
    {
      "type": "Feature",
      "id": "2487",
      "geometry": {
        "type": "Point",
        "coordinates": [
          -53.257684,
          8.105689
        ]
      },
      "properties": {
        "label": "Cholecystokinin",
        "level": 3,
        "pos": "-239656.65999999997,37624.128",
        "src_id": "7823",
        "weight": "476981.0"
      }
    },
    {
      "type": "Feature",
      "id": "8410",
      "geometry": {
        "type": "Point",
        "coordinates": [
          -49.499488,
          4.949132
        ]
      },
      "properties": {
        "label": "Quinaldic Acid",
        "level": 5,
        "pos": "-220931.354,21097.448",
        "src_id": "2304",
        "weight": "0.0"
      }
    },
    {
      "type": "Feature",
      "id": "4446",
      "geometry": {
        "type": "Point",
        "coordinates": [
          -48.92846,
          5.713295
        ]
      },
      "properties": {
        "label": "Deanol",
        "level": 4,
        "pos": "-218086.186,25089.198",
        "src_id": "10832",
        "weight": "44405.0"
      }
    },
    {
      "type": "Feature",
      "id": "8782",
      "geometry": {
        "type": "Point",
        "coordinates": [
          -46.329531,
          1.166781
        ]
      },
      "properties": {
        "label": "Carbachol",
        "level": 5,
        "pos": "-205136.95799999998,1393.594",
        "src_id": "400",
        "weight": "0.0"
      }
    },
    {
      "type": "Feature",
      "id": "4212",
      "geometry": {
        "type": "Point",
        "coordinates": [
          -45.817409,
          5.548725
        ]
      },
      "properties": {
        "label": "Blood gastrin",
        "level": 3,
        "pos": "-202585.296,24229.108",
        "src_id": "172144",
        "weight": "522685.0"
      }
    },
    {
      "type": "Feature",
      "id": "6335",
      "geometry": {
        "type": "Point",
        "coordinates": [
          -48.293896,
          2.07589
        ]
      },
      "properties": {
        "label": "Mini mental status examination",
        "level": 5,
        "pos": "-214924.462,6123.858",
        "src_id": "181015",
        "weight": "0.0"
      }
    },
    {
      "type": "Feature",
      "id": "959",
      "geometry": {
        "type": "Point",
        "coordinates": [
          -47.418708,
          4.195927
        ]
      },
      "properties": {
        "label": "Gastritis",
        "level": 4,
        "pos": "-210563.806,17167.451",
        "src_id": "177126",
        "weight": "35533.0"
      }
    },
    {
      "type": "Feature",
      "id": "7004",
      "geometry": {
        "type": "Point",
        "coordinates": [
          -55.709015,
          4.936883
        ]
      },
      "properties": {
        "label": "Electromagnetic interference",
        "level": 5,
        "pos": "-251870.479,21033.499",
        "src_id": "175727",
        "weight": "0.0"
      }
    },
    {
      "type": "Feature",
      "id": "1691",
      "geometry": {
        "type": "Point",
        "coordinates": [
          -53.755002,
          5.401646
        ]
      },
      "properties": {
        "label": "Pain in jaw",
        "level": 3,
        "pos": "-242134.56300000002,23460.643",
        "src_id": "182633",
        "weight": "922405.0"
      }
    },
    {
      "type": "Feature",
      "id": "7837",
      "geometry": {
        "type": "Point",
        "coordinates": [
          -57.274637,
          9.821075
        ]
      },
      "properties": {
        "label": "Pimonidazole",
        "level": 5,
        "pos": "-259671.225,46656.602999999996",
        "src_id": "10138",
        "weight": "0.0"
      }
    },
    {
      "type": "Feature",
      "id": "4932",
      "geometry": {
        "type": "Point",
        "coordinates": [
          -48.764361,
          5.317267
        ]
      },
      "properties": {
        "label": "Ergoloid mesylate",
        "level": 4,
        "pos": "-217268.562,23019.849000000002",
        "src_id": "1034",
        "weight": "35528.0"
      }
    },
    {
      "type": "Feature",
      "id": "3700",
      "geometry": {
        "type": "Point",
        "coordinates": [
          -42.863219,
          3.486463
        ]
      },
      "properties": {
        "label": "Hypergastrinaemia",
        "level": 3,
        "pos": "-187865.97,13469.162",
        "src_id": "178455",
        "weight": "521802.0"
      }
    },
    {
      "type": "Feature",
      "id": "7043",
      "geometry": {
        "type": "Point",
        "coordinates": [
          -48.686571,
          4.170684
        ]
      },
      "properties": {
        "label": "Dyspepsia",
        "level": 5,
        "pos": "-216880.971,17035.806999999997",
        "src_id": "175492",
        "weight": "0.0"
      }
    },
    {
      "type": "Feature",
      "id": "3717",
      "geometry": {
        "type": "Point",
        "coordinates": [
          -48.763094,
          3.002816
        ]
      },
      "properties": {
        "label": "Hospice care",
        "level": 5,
        "pos": "-217262.253,10949.642000000002",
        "src_id": "178310",
        "weight": "8885.0"
      }
    },
    {
      "type": "Feature",
      "id": "6194",
      "geometry": {
        "type": "Point",
        "coordinates": [
          -47.089052,
          3.180669
        ]
      },
      "properties": {
        "label": "Occult blood",
        "level": 5,
        "pos": "-208921.294,11876.008",
        "src_id": "182002",
        "weight": "0.0"
      }
    },
    {
      "type": "Feature",
      "id": "6918",
      "geometry": {
        "type": "Point",
        "coordinates": [
          -55.183159,
          5.616994
        ]
      },
      "properties": {
        "label": "Eye pain",
        "level": 5,
        "pos": "-249250.394,24585.868000000002",
        "src_id": "176431",
        "weight": "0.0"
      }
    },
    {
      "type": "Feature",
      "id": "3575",
      "geometry": {
        "type": "Point",
        "coordinates": [
          -48.144649,
          5.306647
        ]
      },
      "properties": {
        "label": "Ligament sprain",
        "level": 3,
        "pos": "-214180.83,22964.384",
        "src_id": "179965",
        "weight": "929881.0"
      }
    },
    {
      "type": "Feature",
      "id": "5202",
      "geometry": {
        "type": "Point",
        "coordinates": [
          -16.736948,
          9.633957
        ]
      },
      "properties": {
        "label": "Asparaginase Escherichia coli",
        "level": 3,
        "pos": "-57691.153,45669.193",
        "src_id": "23",
        "weight": "1671349.0"
      }
    },
    {
      "type": "Feature",
      "id": "1301",
      "geometry": {
        "type": "Point",
        "coordinates": [
          -17.898901,
          10.062317
        ]
      },
      "properties": {
        "label": "Mercaptopurine",
        "level": 3,
        "pos": "-63480.61,47930.441",
        "src_id": "1018",
        "weight": "1697968.0"
      }
    },
    {
      "type": "Feature",
      "id": "5119",
      "geometry": {
        "type": "Point",
        "coordinates": [
          -19.603384,
          10.090502
        ]
      },
      "properties": {
        "label": "Tioguanine",
        "level": 5,
        "pos": "-71973.235,48079.327999999994",
        "src_id": "342",
        "weight": "8885.0"
      }
    },
    {
      "type": "Feature",
      "id": "8610",
      "geometry": {
        "type": "Point",
        "coordinates": [
          -18.167722,
          9.614942
        ]
      },
      "properties": {
        "label": "Azathioprine",
        "level": 5,
        "pos": "-64820.02300000001,45568.876000000004",
        "src_id": "979",
        "weight": "0.0"
      }
    },
    {
      "type": "Feature",
      "id": "3701",
      "geometry": {
        "type": "Point",
        "coordinates": [
          -17.764631,
          8.725208
        ]
      },
      "properties": {
        "label": "Hypergammaglobulinaemia",
        "level": 3,
        "pos": "-62811.605,40881.368",
        "src_id": "178453",
        "weight": "1698061.0"
      }
    },
    {
      "type": "Feature",
      "id": "7719",
      "geometry": {
        "type": "Point",
        "coordinates": [
          -17.9056,
          10.960315
        ]
      },
      "properties": {
        "label": "Acute promyelocytic leukaemia",
        "level": 5,
        "pos": "-63513.988,52680.736000000004",
        "src_id": "169771",
        "weight": "0.0"
      }
    },
    {
      "type": "Feature",
      "id": "3120",
      "geometry": {
        "type": "Point",
        "coordinates": [
          -15.967796,
          10.148652
        ]
      },
      "properties": {
        "label": "Serum sickness",
        "level": 3,
        "pos": "-53858.834,48386.547",
        "src_id": "185800",
        "weight": "1703774.0"
      }
    },
    {
      "type": "Feature",
      "id": "1667",
      "geometry": {
        "type": "Point",
        "coordinates": [
          -14.659317,
          11.142723
        ]
      },
      "properties": {
        "label": "Periorbital oedema",
        "level": 3,
        "pos": "-47339.301,53647.382",
        "src_id": "183166",
        "weight": "1718180.0"
      }
    },
    {
      "type": "Feature",
      "id": "4651",
      "geometry": {
        "type": "Point",
        "coordinates": [
          -35.295076,
          8.113923
        ]
      },
      "properties": {
        "label": "Asparaginase Erwinia chrysanthemi",
        "level": 3,
        "pos": "-150157.497,37667.39",
        "src_id": "7845",
        "weight": "1666746.0"
      }
    },
    {
      "type": "Feature",
      "id": "950",
      "geometry": {
        "type": "Point",
        "coordinates": [
          -31.92396,
          5.445888
        ]
      },
      "properties": {
        "label": "Glucose tolerance impaired",
        "level": 3,
        "pos": "-133360.829,23691.775",
        "src_id": "177436",
        "weight": "1671306.0"
      }
    },
    {
      "type": "Feature",
      "id": "8432",
      "geometry": {
        "type": "Point",
        "coordinates": [
          -34.739203,
          8.577123
        ]
      },
      "properties": {
        "label": "Phosphoenolpyruvate",
        "level": 5,
        "pos": "-147387.845,40102.311",
        "src_id": "1735",
        "weight": "0.0"
      }
    },
    {
      "type": "Feature",
      "id": "3796",
      "geometry": {
        "type": "Point",
        "coordinates": [
          -34.656865,
          6.925226
        ]
      },
      "properties": {
        "label": "Glucose tolerance test",
        "level": 5,
        "pos": "-146977.595,31431.171",
        "src_id": "177439",
        "weight": "8885.0"
      }
    },
    {
      "type": "Feature",
      "id": "244",
      "geometry": {
        "type": "Point",
        "coordinates": [
          -28.857742,
          2.765148
        ]
      },
      "properties": {
        "label": "Reproductive tract hypoplasia, male",
        "level": 2,
        "pos": "-118083.321,9711.953",
        "src_id": "185115",
        "weight": "2174317.0"
      }
    },
    {
      "type": "Feature",
      "id": "7476",
      "geometry": {
        "type": "Point",
        "coordinates": [
          -33.198657,
          6.402452
        ]
      },
      "properties": {
        "label": "Blood glucose",
        "level": 5,
        "pos": "-139712.044,28693.69",
        "src_id": "172153",
        "weight": "0.0"
      }
    },
    {
      "type": "Feature",
      "id": "2005",
      "geometry": {
        "type": "Point",
        "coordinates": [
          -31.389077,
          -1.144229
        ]
      },
      "properties": {
        "label": "Foot deformity",
        "level": 4,
        "pos": "-130695.761,-10626.91",
        "src_id": "176849",
        "weight": "44409.0"
      }
    },
    {
      "type": "Feature",
      "id": "1872",
      "geometry": {
        "type": "Point",
        "coordinates": [
          -29.587585,
          1.640774
        ]
      },
      "properties": {
        "label": "Knee deformity",
        "level": 3,
        "pos": "-121719.776,3859.5989999999997",
        "src_id": "179625",
        "weight": "731441.0"
      }
    },
    {
      "type": "Feature",
      "id": "1870",
      "geometry": {
        "type": "Point",
        "coordinates": [
          -30.53618,
          5.857639
        ]
      },
      "properties": {
        "label": "Kyphosis",
        "level": 2,
        "pos": "-126446.17700000001,25843.781",
        "src_id": "179643",
        "weight": "1139244.0"
      }
    },
    {
      "type": "Feature",
      "id": "1849",
      "geometry": {
        "type": "Point",
        "coordinates": [
          -30.853527,
          4.260909
        ]
      },
      "properties": {
        "label": "Lordosis",
        "level": 3,
        "pos": "-128027.368,17506.347999999998",
        "src_id": "180123",
        "weight": "679879.0"
      }
    },
    {
      "type": "Feature",
      "id": "1803",
      "geometry": {
        "type": "Point",
        "coordinates": [
          -31.306014,
          4.90585
        ]
      },
      "properties": {
        "label": "Micropenis",
        "level": 4,
        "pos": "-130281.89800000002,20871.5",
        "src_id": "180967",
        "weight": "71031.0"
      }
    },
    {
      "type": "Feature",
      "id": "664",
      "geometry": {
        "type": "Point",
        "coordinates": [
          33.115974,
          32.637256
        ]
      },
      "properties": {
        "label": "Thyrotropin Alfa",
        "level": 4,
        "pos": "190702.315,175075.516",
        "src_id": "24",
        "weight": "124244.0"
      }
    },
    {
      "type": "Feature",
      "id": "8874",
      "geometry": {
        "type": "Point",
        "coordinates": [
          32.669717,
          35.4586
        ]
      },
      "properties": {
        "label": "Somatotropin",
        "level": 5,
        "pos": "188478.83,192788.941",
        "src_id": "51",
        "weight": "0.0"
      }
    },
    {
      "type": "Feature",
      "id": "7473",
      "geometry": {
        "type": "Point",
        "coordinates": [
          32.536367,
          33.190405
        ]
      },
      "properties": {
        "label": "Blood growth hormone increased",
        "level": 5,
        "pos": "187814.412,178502.577",
        "src_id": "172176",
        "weight": "0.0"
      }
    },
    {
      "type": "Feature",
      "id": "1484",
      "geometry": {
        "type": "Point",
        "coordinates": [
          31.860783,
          32.892665
        ]
      },
      "properties": {
        "label": "Thyroid function test normal",
        "level": 4,
        "pos": "184448.3,176655.258",
        "src_id": "187027",
        "weight": "88769.0"
      }
    },
    {
      "type": "Feature",
      "id": "388",
      "geometry": {
        "type": "Point",
        "coordinates": [
          35.014441,
          27.533994
        ]
      },
      "properties": {
        "label": "Thyroxine",
        "level": 3,
        "pos": "200161.481,144383.611",
        "src_id": "187061",
        "weight": "1454272.0"
      }
    },
    {
      "type": "Feature",
      "id": "5541",
      "geometry": {
        "type": "Point",
        "coordinates": [
          33.410947,
          29.581359
        ]
      },
      "properties": {
        "label": "Tri-iodothyronine decreased",
        "level": 5,
        "pos": "192172.03,156508.073",
        "src_id": "187386",
        "weight": "0.0"
      }
    },
    {
      "type": "Feature",
      "id": "2279",
      "geometry": {
        "type": "Point",
        "coordinates": [
          31.903996,
          37.458219
        ]
      },
      "properties": {
        "label": "Autoimmune thyroiditis",
        "level": 4,
        "pos": "184663.612,205721.154",
        "src_id": "171148",
        "weight": "71036.0"
      }
    },
    {
      "type": "Feature",
      "id": "6945",
      "geometry": {
        "type": "Point",
        "coordinates": [
          30.970352,
          37.026275
        ]
      },
      "properties": {
        "label": "Euthyroid sick syndrome",
        "level": 5,
        "pos": "180011.704,202899.124",
        "src_id": "176231",
        "weight": "0.0"
      }
    },
    {
      "type": "Feature",
      "id": "1356",
      "geometry": {
        "type": "Point",
        "coordinates": [
          32.708805,
          30.430202
        ]
      },
      "properties": {
        "label": "Liothyronine",
        "level": 3,
        "pos": "188673.588,161606.30599999998",
        "src_id": "270",
        "weight": "1482103.0"
      }
    },
    {
      "type": "Feature",
      "id": "1981",
      "geometry": {
        "type": "Point",
        "coordinates": [
          35.678273,
          24.848056
        ]
      },
      "properties": {
        "label": "Globulin",
        "level": 3,
        "pos": "203469.035,128813.368",
        "src_id": "177393",
        "weight": "1320728.0"
      }
    },
    {
      "type": "Feature",
      "id": "3685",
      "geometry": {
        "type": "Point",
        "coordinates": [
          32.661672,
          28.022573
        ]
      },
      "properties": {
        "label": "Hyperthyroidism",
        "level": 5,
        "pos": "188438.75499999998,147255.741",
        "src_id": "178535",
        "weight": "8885.0"
      }
    },
    {
      "type": "Feature",
      "id": "3659",
      "geometry": {
        "type": "Point",
        "coordinates": [
          32.545914,
          28.977673
        ]
      },
      "properties": {
        "label": "Hypothyroidism",
        "level": 5,
        "pos": "187861.97699999998,152908.364",
        "src_id": "178664",
        "weight": "8885.0"
      }
    },
    {
      "type": "Feature",
      "id": "1121",
      "geometry": {
        "type": "Point",
        "coordinates": [
          30.64876,
          39.860646
        ]
      },
      "properties": {
        "label": "Anti-thyroid antibody",
        "level": 4,
        "pos": "178409.363,221725.341",
        "src_id": "170549",
        "weight": "44413.0"
      }
    },
    {
      "type": "Feature",
      "id": "4254",
      "geometry": {
        "type": "Point",
        "coordinates": [
          30.844472,
          39.386891
        ]
      },
      "properties": {
        "label": "Basedow's disease",
        "level": 5,
        "pos": "179384.501,218526.317",
        "src_id": "171305",
        "weight": "8885.0"
      }
    },
    {
      "type": "Feature",
      "id": "1275",
      "geometry": {
        "type": "Point",
        "coordinates": [
          31.810909,
          31.271772
        ]
      },
      "properties": {
        "label": "Thyroglobulin",
        "level": 3,
        "pos": "184199.796,166704.848",
        "src_id": "1518",
        "weight": "1514847.0"
      }
    },
    {
      "type": "Feature",
      "id": "407",
      "geometry": {
        "type": "Point",
        "coordinates": [
          31.238172,
          34.6424
        ]
      },
      "properties": {
        "label": "Reverse tri-iodothyronine",
        "level": 4,
        "pos": "181346.116,187603.337",
        "src_id": "185312",
        "weight": "35533.0"
      }
    },
    {
      "type": "Feature",
      "id": "5580",
      "geometry": {
        "type": "Point",
        "coordinates": [
          31.675305,
          32.361558
        ]
      },
      "properties": {
        "label": "Thyroxine decreased",
        "level": 5,
        "pos": "183524.149,173375.349",
        "src_id": "187063",
        "weight": "0.0"
      }
    },
    {
      "type": "Feature",
      "id": "4721",
      "geometry": {
        "type": "Point",
        "coordinates": [
          35.442222,
          22.350837
        ]
      },
      "properties": {
        "label": "Prasterone sulfate",
        "level": 3,
        "pos": "202292.90800000002,114638.27399999999",
        "src_id": "5262",
        "weight": "1250157.0"
      }
    },
    {
      "type": "Feature",
      "id": "2621",
      "geometry": {
        "type": "Point",
        "coordinates": [
          34.995184,
          26.583912
        ]
      },
      "properties": {
        "label": "Androstenedione",
        "level": 4,
        "pos": "200065.529,138834.709",
        "src_id": "1470",
        "weight": "71031.0"
      }
    },
    {
      "type": "Feature",
      "id": "5585",
      "geometry": {
        "type": "Point",
        "coordinates": [
          32.429961,
          28.518006
        ]
      },