{
  "type": "FeatureCollection",
  "features": [
    {
      "type": "Feature",
      "id": "1462",
      "geometry": {
        "type": "Point",
        "coordinates": [
          -20.956907,
          18.46975
        ]
      },
      "properties": {
        "label": "Etanercept",
        "level": 3,
        "pos": "-53528.579999999994,138207.78999999998",
        "src_id": "5",
        "weight": "0.0"
      }
    },
    {
      "type": "Feature",
      "id": "1133",
      "geometry": {
        "type": "Point",
        "coordinates": [
          -27.027784,
          22.019886
        ]
      },
      "properties": {
        "label": "Water",
        "level": 3,
        "pos": "-79293.7,154013.06199999998",
        "src_id": "8089",
        "weight": "1790.0"
      }
    },
    {
      "type": "Feature",
      "id": "195",
      "geometry": {
        "type": "Point",
        "coordinates": [
          -15.772071,
          15.972787
        ]
      },
      "properties": {
        "label": "Injection",
        "level": 3,
        "pos": "-31523.864,127289.684",
        "src_id": "179084",
        "weight": "1824.0"
      }
    },
    {
      "type": "Feature",
      "id": "1791",
      "geometry": {
        "type": "Point",
        "coordinates": [
          -27.390696,
          24.99519
        ]
      },
      "properties": {
        "label": "Interferon beta-1a",
        "level": 3,
        "pos": "-80833.92000000001,167564.965",
        "src_id": "59",
        "weight": "0.0"
      }
    },
    {
      "type": "Feature",
      "id": "607",
      "geometry": {
        "type": "Point",
        "coordinates": [
          -7.879944,
          11.885091
        ]
      },
      "properties": {
        "label": "Adalimumab",
        "level": 3,
        "pos": "1970.745,109697.552",
        "src_id": "50",
        "weight": "0.0"
      }
    },
    {
      "type": "Feature",
      "id": "951",
      "geometry": {
        "type": "Point",
        "coordinates": [
          -21.662681,
          19.646984
        ]
      },
      "properties": {
        "label": "Glatiramer Acetate",
        "level": 4,
        "pos": "-56523.916999999994,143409.299",
        "src_id": "4930",
        "weight": "0.0"
      }
    },
    {
      "type": "Feature",
      "id": "696",
      "geometry": {
        "type": "Point",
        "coordinates": [
          -21.908321,
          19.033265
        ]
      },
      "properties": {
        "label": "Hydrocortisone",
        "level": 3,
        "pos": "-57566.426999999996,140693.026",
        "src_id": "727",
        "weight": "1790.0"
      }
    },
    {
      "type": "Feature",
      "id": "1439",
      "geometry": {
        "type": "Point",
        "coordinates": [
          -19.578781,
          19.100717
        ]
      },
      "properties": {
        "label": "Enoxaparin",
        "level": 4,
        "pos": "-47679.743,140991.06900000002",
        "src_id": "1209",
        "weight": "0.0"
      }
    },
    {
      "type": "Feature",
      "id": "1429",
      "geometry": {
        "type": "Point",
        "coordinates": [
          -19.253816,
          20.185541
        ]
      },
      "properties": {
        "label": "Hyaluronic acid",
        "level": 4,
        "pos": "-46300.565,145801.468",
        "src_id": "7794",
        "weight": "0.0"
      }
    },
    {
      "type": "Feature",
      "id": "1266",
      "geometry": {
        "type": "Point",
        "coordinates": [
          -11.113311,
          17.438622
        ]
      },
      "properties": {
        "label": "Tocilizumab",
        "level": 3,
        "pos": "-11751.84,133681.16499999998",
        "src_id": "5528",
        "weight": "0.0"
      }
    },
    {
      "type": "Feature",
      "id": "1011",
      "geometry": {
        "type": "Point",
        "coordinates": [
          -13.682214,
          14.831966
        ]
      },
      "properties": {
        "label": "Crohn's disease",
        "level": 3,
        "pos": "-22654.403,122347.875",
        "src_id": "174559",
        "weight": "0.0"
      }
    },
    {
      "type": "Feature",
      "id": "720",
      "geometry": {
        "type": "Point",
        "coordinates": [
          -7.573278,
          10.744411
        ]
      },
      "properties": {
        "label": "Varicella",
        "level": 2,
        "pos": "3272.2509999999997,104839.406",
        "src_id": "188263",
        "weight": "0.0"
      }
    },
    {
      "type": "Feature",
      "id": "1739",
      "geometry": {
        "type": "Point",
        "coordinates": [
          -25.268845,
          24.542994
        ]
      },
      "properties": {
        "label": "Phenol",
        "level": 4,
        "pos": "-71828.671,165485.193",
        "src_id": "3075",
        "weight": "0.0"
      }
    },
    {
      "type": "Feature",
      "id": "1230",
      "geometry": {
        "type": "Point",
        "coordinates": [
          -19.439358,
          16.373541
        ]
      },
      "properties": {
        "label": "Colitis ulcerative",
        "level": 4,
        "pos": "-47088.02,129032.24599999998",
        "src_id": "173909",
        "weight": "0.0"
      }
    },
    {
      "type": "Feature",
      "id": "555",
      "geometry": {
        "type": "Point",
        "coordinates": [
          -8.252331,
          17.698412
        ]
      },
      "properties": {
        "label": "Tonsillitis",
        "level": 2,
        "pos": "390.307,134819.165",
        "src_id": "187154",
        "weight": "0.0"
      }
    },
    {
      "type": "Feature",
      "id": "997",
      "geometry": {
        "type": "Point",
        "coordinates": [
          -10.999743,
          13.07198
        ]
      },
      "properties": {
        "label": "Herpes zoster",
        "level": 4,
        "pos": "-11269.846,114774.182",
        "src_id": "178112",
        "weight": "0.0"
      }
    },
    {
      "type": "Feature",
      "id": "1098",
      "geometry": {
        "type": "Point",
        "coordinates": [
          -9.967661,
          11.894026
        ]
      },
      "properties": {
        "label": "Hepatitis B",
        "level": 2,
        "pos": "-6889.6410000000005,109735.67599999999",
        "src_id": "177942",
        "weight": "0.0"
      }
    },
    {
      "type": "Feature",
      "id": "1461",
      "geometry": {
        "type": "Point",
        "coordinates": [
          -33.792012,
          -20.212438
        ]
      },
      "properties": {
        "label": "Leuprolide",
        "level": 3,
        "pos": "-108001.442,-26513.175",
        "src_id": "7",
        "weight": "0.0"
      }
    },
    {
      "type": "Feature",
      "id": "102",
      "geometry": {
        "type": "Point",
        "coordinates": [
          -30.251738,
          -21.852582
        ]
      },
      "properties": {
        "label": "Endometriosis",
        "level": 2,
        "pos": "-92976.33399999999,-33851.869",
        "src_id": "175911",
        "weight": "5584.0"
      }
    },
    {
      "type": "Feature",
      "id": "67",
      "geometry": {
        "type": "Point",
        "coordinates": [
          -24.469734,
          -18.682014
        ]
      },
      "properties": {
        "label": "Asthma",
        "level": 1,
        "pos": "-68437.196,-19734.982",
        "src_id": "171037",
        "weight": "16863.583333333336"
      }
    },
    {
      "type": "Feature",
      "id": "234",
      "geometry": {
        "type": "Point",
        "coordinates": [
          -35.024456,
          -23.597342
        ]
      },
      "properties": {
        "label": "Pancreatitis",
        "level": 2,
        "pos": "-113232.001,-41751.880999999994",
        "src_id": "182725",
        "weight": "2477.916666666667"
      }
    },
    {
      "type": "Feature",
      "id": "1246",
      "geometry": {
        "type": "Point",
        "coordinates": [
          -30.307856,
          -21.285079
        ]
      },
      "properties": {
        "label": "Adenomyosis",
        "level": 4,
        "pos": "-93214.504,-31303.442",
        "src_id": "169800",
        "weight": "0.0"
      }
    },
    {
      "type": "Feature",
      "id": "210",
      "geometry": {
        "type": "Point",
        "coordinates": [
          -18.424542,
          -15.331174
        ]
      },
      "properties": {
        "label": "Anaemia",
        "level": 1,
        "pos": "-42781.085,-5099.037",
        "src_id": "170190",
        "weight": "380.5"
      }
    },
    {
      "type": "Feature",
      "id": "1772",
      "geometry": {
        "type": "Point",
        "coordinates": [
          -25.387121,
          -22.468977
        ]
      },
      "properties": {
        "label": "Montelukast",
        "level": 4,
        "pos": "-72330.637,-36631.359000000004",
        "src_id": "460",
        "weight": "0.0"
      }
    },
    {
      "type": "Feature",
      "id": "1639",
      "geometry": {
        "type": "Point",
        "coordinates": [
          -29.472273,
          -22.37252
        ]
      },
      "properties": {
        "label": "Emphysema",
        "level": 4,
        "pos": "-89668.244,-36195.601",
        "src_id": "175786",
        "weight": "0.0"
      }
    },
    {
      "type": "Feature",
      "id": "1529",
      "geometry": {
        "type": "Point",
        "coordinates": [
          -26.597323,
          -16.527738
        ]
      },
      "properties": {
        "label": "Pulmonary function test",
        "level": 4,
        "pos": "-77466.805,-10295.714",
        "src_id": "184512",
        "weight": "0.0"
      }
    },
    {
      "type": "Feature",
      "id": "801",
      "geometry": {
        "type": "Point",
        "coordinates": [
          -21.083185,
          -15.80206
        ]
      },
      "properties": {
        "label": "Cardiomyopathy",
        "level": 4,
        "pos": "-54064.507,-7140.411",
        "src_id": "173135",
        "weight": "0.0"
      }
    },
    {
      "type": "Feature",
      "id": "992",
      "geometry": {
        "type": "Point",
        "coordinates": [
          -15.967422,
          -13.276651
        ]
      },
      "properties": {
        "label": "Iron deficiency",
        "level": 4,
        "pos": "-32352.941000000003,3755.9629999999997",
        "src_id": "179432",
        "weight": "0.0"
      }
    },
    {
      "type": "Feature",
      "id": "1",
      "geometry": {
        "type": "Point",
        "coordinates": [
          -26.878502,
          -51.396688
        ]
      },
      "properties": {
        "label": "Pain",
        "level": 1,
        "pos": "-78660.144,-191336.61000000002",
        "src_id": "182630",
        "weight": "335698.9589285715"
      }
    },
    {
      "type": "Feature",
      "id": "1148",
      "geometry": {
        "type": "Point",
        "coordinates": [
          -26.729034,
          -54.441057
        ]
      },
      "properties": {
        "label": "Polymyxin B Sulfate",
        "level": 2,
        "pos": "-78025.79400000001,-212433.76799999998",
        "src_id": "767",
        "weight": "3577.999999999999"
      }
    },
    {
      "type": "Feature",
      "id": "4",
      "geometry": {
        "type": "Point",
        "coordinates": [
          -26.562981,
          -60.402326
        ]
      },
      "properties": {
        "label": "Surgery",
        "level": 1,
        "pos": "-77321.05,-258791.90999999997",
        "src_id": "186589",
        "weight": "143757.50073529413"
      }
    },
    {
      "type": "Feature",
      "id": "3",
      "geometry": {
        "type": "Point",
        "coordinates": [
          -24.980422,
          -41.718424
        ]
      },
      "properties": {
        "label": "Depression",
        "level": 1,
        "pos": "-70604.585,-132330.551",
        "src_id": "175023",
        "weight": "144683.2980859012"
      }
    },
    {
      "type": "Feature",
      "id": "1736",
      "geometry": {
        "type": "Point",
        "coordinates": [
          -29.730217,
          -54.75318
        ]
      },
      "properties": {
        "label": "Arachidonic Acid",
        "level": 4,
        "pos": "-90762.974,-214683.77000000002",
        "src_id": "4289",
        "weight": "0.0"
      }
    },
    {
      "type": "Feature",
      "id": "1727",
      "geometry": {
        "type": "Point",
        "coordinates": [
          -20.873937,
          -54.336386
        ]
      },
      "properties": {
        "label": "Dimethyl fumarate",
        "level": 4,
        "pos": "-53176.449,-211683.068",
        "src_id": "7867",
        "weight": "0.0"
      }
    },
    {
      "type": "Feature",
      "id": "1210",
      "geometry": {
        "type": "Point",
        "coordinates": [
          -34.104541,
          -53.976215
        ]
      },
      "properties": {
        "label": "Hypermobility syndrome",
        "level": 3,
        "pos": "-109327.832,-209114.43099999998",
        "src_id": "178486",
        "weight": "769.7058823529406"
      }
    },
    {
      "type": "Feature",
      "id": "1678",
      "geometry": {
        "type": "Point",
        "coordinates": [
          -25.712939,
          -54.975925
        ]
      },
      "properties": {
        "label": "Arthroscopic surgery",
        "level": 4,
        "pos": "-73713.425,-216300.096",
        "src_id": "170964",
        "weight": "0.0"
      }
    },
    {
      "type": "Feature",
      "id": "1674",
      "geometry": {
        "type": "Point",
        "coordinates": [
          -34.537504,
          -53.102013
        ]
      },
      "properties": {
        "label": "Autoimmune arthritis",
        "level": 4,
        "pos": "-111165.346,-202970.88400000002",
        "src_id": "171134",
        "weight": "0.0"
      }
    },
    {
      "type": "Feature",
      "id": "1669",
      "geometry": {
        "type": "Point",
        "coordinates": [
          -33.669516,
          -52.026806
        ]
      },
      "properties": {
        "label": "Blood count",
        "level": 4,
        "pos": "-107481.55900000001,-195583.601",
        "src_id": "172065",
        "weight": "0.0"
      }
    },
    {
      "type": "Feature",
      "id": "1666",
      "geometry": {
        "type": "Point",
        "coordinates": [
          -34.460809,
          -52.396205
        ]
      },
      "properties": {
        "label": "Brain oedema",
        "level": 4,
        "pos": "-110839.855,-198101.233",
        "src_id": "172613",
        "weight": "0.0"
      }
    },
    {
      "type": "Feature",
      "id": "1665",
      "geometry": {
        "type": "Point",
        "coordinates": [
          -32.870171,
          -52.732873
        ]
      },
      "properties": {
        "label": "Breakthrough pain",
        "level": 4,
        "pos": "-104089.097,-200414.20299999998",
        "src_id": "172640",
        "weight": "0.0"
      }
    },
    {
      "type": "Feature",
      "id": "1320",
      "geometry": {
        "type": "Point",
        "coordinates": [
          -31.520973,
          -53.192765
        ]
      },
      "properties": {
        "label": "Seasonal allergy",
        "level": 4,
        "pos": "-98363.03,-203602.785",
        "src_id": "185647",
        "weight": "0.0"
      }
    },
    {
      "type": "Feature",
      "id": "1630",
      "geometry": {
        "type": "Point",
        "coordinates": [
          -26.033958,
          -53.956748
        ]
      },
      "properties": {
        "label": "Flank pain",
        "level": 4,
        "pos": "-75075.852,-208976.228",
        "src_id": "176738",
        "weight": "0.0"
      }
    },
    {
      "type": "Feature",
      "id": "1629",
      "geometry": {
        "type": "Point",
        "coordinates": [
          -23.809268,
          -54.220738
        ]
      },
      "properties": {
        "label": "Flea infestation",
        "level": 4,
        "pos": "-65634.152,-210855.856",
        "src_id": "176749",
        "weight": "0.0"
      }
    },
    {
      "type": "Feature",
      "id": "1627",
      "geometry": {
        "type": "Point",
        "coordinates": [
          -22.586958,
          -55.055508
        ]
      },
      "properties": {
        "label": "Gallbladder pain",
        "level": 4,
        "pos": "-60446.6,-216879.761",
        "src_id": "177017",
        "weight": "0.0"
      }
    },
    {
      "type": "Feature",
      "id": "1617",
      "geometry": {
        "type": "Point",
        "coordinates": [
          -25.405005,
          -55.747548
        ]
      },
      "properties": {
        "label": "Haematemesis",
        "level": 4,
        "pos": "-72406.544,-221969.635",
        "src_id": "177585",
        "weight": "0.0"
      }
    },
    {
      "type": "Feature",
      "id": "1608",
      "geometry": {
        "type": "Point",
        "coordinates": [
          -32.243157,
          -55.081213
        ]
      },
      "properties": {
        "label": "Hyperaesthesia",
        "level": 4,
        "pos": "-101428.016,-217067.239",
        "src_id": "178414",
        "weight": "0.0"
      }
    },
    {
      "type": "Feature",
      "id": "1597",
      "geometry": {
        "type": "Point",
        "coordinates": [
          -25.599814,
          -55.379079
        ]
      },
      "properties": {
        "label": "Intervertebral disc degeneration",
        "level": 4,
        "pos": "-73233.324,-219248.49699999997",
        "src_id": "179257",
        "weight": "0.0"
      }
    },
    {
      "type": "Feature",
      "id": "1578",
      "geometry": {
        "type": "Point",
        "coordinates": [
          -22.603805,
          -54.656238
        ]
      },
      "properties": {
        "label": "Medial tibial stress syndrome",
        "level": 4,
        "pos": "-60518.099,-213983.10499999998",
        "src_id": "180624",
        "weight": "0.0"
      }
    },
    {
      "type": "Feature",
      "id": "1576",
      "geometry": {
        "type": "Point",
        "coordinates": [
          -33.664674,
          -54.302022
        ]
      },
      "properties": {
        "label": "Menorrhagia",
        "level": 4,
        "pos": "-107461.005,-211437.034",
        "src_id": "180772",
        "weight": "0.0"
      }
    },
    {
      "type": "Feature",
      "id": "1568",
      "geometry": {
        "type": "Point",
        "coordinates": [
          -30.508726,
          -54.335895
        ]
      },
      "properties": {
        "label": "Musculoskeletal chest pain",
        "level": 4,
        "pos": "-94066.997,-211679.549",
        "src_id": "181281",
        "weight": "0.0"
      }
    },
    {
      "type": "Feature",
      "id": "1563",
      "geometry": {
        "type": "Point",
        "coordinates": [
          -30.888094,
          -53.766719
        ]
      },
      "properties": {
        "label": "Nerve compression",
        "level": 4,
        "pos": "-95677.061,-207630.559",
        "src_id": "181678",
        "weight": "0.0"
      }
    },
    {
      "type": "Feature",
      "id": "1546",
      "geometry": {
        "type": "Point",
        "coordinates": [
          -32.55006,
          -54.688008
        ]
      },
      "properties": {
        "label": "Plantar fasciitis",
        "level": 4,
        "pos": "-102730.53,-214212.537",
        "src_id": "183542",
        "weight": "0.0"
      }
    },
    {
      "type": "Feature",
      "id": "1500",
      "geometry": {
        "type": "Point",
        "coordinates": [
          -21.137167,
          -55.428008
        ]
      },
      "properties": {
        "label": "Therapeutic procedure",
        "level": 4,
        "pos": "-54293.611,-219608.376",
        "src_id": "186884",
        "weight": "0.0"
      }
    },
    {
      "type": "Feature",
      "id": "1490",
      "geometry": {
        "type": "Point",
        "coordinates": [
          -23.089586,
          -55.792906
        ]
      },
      "properties": {
        "label": "Victim of abuse",
        "level": 4,
        "pos": "-62579.782,-222306.383",
        "src_id": "188522",
        "weight": "0.0"
      }
    },
    {
      "type": "Feature",
      "id": "1291",
      "geometry": {
        "type": "Point",
        "coordinates": [
          -26.185412,
          -53.612364
        ]
      },
      "properties": {
        "label": "Gramicidin D",
        "level": 3,
        "pos": "-75718.63399999999,-206541.99399999998",
        "src_id": "27",
        "weight": "0.0"
      }
    },
    {
      "type": "Feature",
      "id": "1275",
      "geometry": {
        "type": "Point",
        "coordinates": [
          -26.171885,
          -58.482776
        ]
      },
      "properties": {
        "label": "Neomycin",
        "level": 3,
        "pos": "-75661.21800000001,-243019.297",
        "src_id": "980",
        "weight": "0.0"
      }
    },
    {
      "type": "Feature",
      "id": "1453",
      "geometry": {
        "type": "Point",
        "coordinates": [
          -26.019472,
          -57.791414
        ]
      },
      "properties": {
        "label": "Bacitracin",
        "level": 3,
        "pos": "-75014.367,-237549.72100000002",
        "src_id": "613",
        "weight": "1789.9999999999998"
      }
    },
    {
      "type": "Feature",
      "id": "36",
      "geometry": {
        "type": "Point",
        "coordinates": [
          -34.359715,
          -62.394579
        ]
      },
      "properties": {
        "label": "Injury",
        "level": 2,
        "pos": "-110410.797,-276178.345",
        "src_id": "179153",
        "weight": "6318.785014005603"
      }
    },
    {
      "type": "Feature",
      "id": "1222",
      "geometry": {
        "type": "Point",
        "coordinates": [
          -28.927633,
          -63.51371
        ]
      },
      "properties": {
        "label": "Dental operation",
        "level": 4,
        "pos": "-87356.764,-286458.195",
        "src_id": "175001",
        "weight": "0.0"
      }
    },
    {
      "type": "Feature",
      "id": "1304",
      "geometry": {
        "type": "Point",
        "coordinates": [
          -33.012771,
          -61.687432
        ]
      },
      "properties": {
        "label": "Wisdom teeth removal",
        "level": 4,
        "pos": "-104694.3,-269879.192",
        "src_id": "188871",
        "weight": "0.0"
      }
    },
    {
      "type": "Feature",
      "id": "1014",
      "geometry": {
        "type": "Point",
        "coordinates": [
          -23.242781,
          -63.754936
        ]
      },
      "properties": {
        "label": "Cleft lip",
        "level": 4,
        "pos": "-63229.945,-288726.614",
        "src_id": "173778",
        "weight": "0.0"
      }
    },
    {
      "type": "Feature",
      "id": "1686",
      "geometry": {
        "type": "Point",
        "coordinates": [
          -19.613793,
          -59.713022
        ]
      },
      "properties": {
        "label": "Aneurysm",
        "level": 4,
        "pos": "-47828.328,-253024.349",
        "src_id": "170319",
        "weight": "0.0"
      }
    },
    {
      "type": "Feature",
      "id": "1684",
      "geometry": {
        "type": "Point",
        "coordinates": [
          -19.176875,
          -60.075422
        ]
      },
      "properties": {
        "label": "Ankle fracture",
        "level": 4,
        "pos": "-45974.032,-256041.605",
        "src_id": "170418",
        "weight": "0.0"
      }
    },
    {
      "type": "Feature",
      "id": "1349",
      "geometry": {
        "type": "Point",
        "coordinates": [
          -30.131631,
          -60.430277
        ]
      },
      "properties": {
        "label": "Hip arthroplasty",
        "level": 4,
        "pos": "-92466.59300000001,-259028.34100000001",
        "src_id": "178152",
        "weight": "0.0"
      }
    },
    {
      "type": "Feature",
      "id": "996",
      "geometry": {
        "type": "Point",
        "coordinates": [
          -33.987565,
          -60.027755
        ]
      },
      "properties": {
        "label": "Hip dysplasia",
        "level": 3,
        "pos": "-108831.37700000001,-255642.857",
        "src_id": "178155",
        "weight": "64.95588235294117"
      }
    },
    {
      "type": "Feature",
      "id": "1174",
      "geometry": {
        "type": "Point",
        "coordinates": [
          -31.453999,
          -62.603676
        ]
      },
      "properties": {
        "label": "Social phobia",
        "level": 4,
        "pos": "-98078.791,-278069.413",
        "src_id": "186090",
        "weight": "0.0"
      }
    },
    {
      "type": "Feature",
      "id": "1118",
      "geometry": {
        "type": "Point",
        "coordinates": [
          -33.905919,
          -60.94212
        ]
      },
      "properties": {
        "label": "Appendicitis",
        "level": 4,
        "pos": "-108484.865,-263394.37700000004",
        "src_id": "170775",
        "weight": "0.0"
      }
    },
    {
      "type": "Feature",
      "id": "1406",
      "geometry": {
        "type": "Point",
        "coordinates": [
          -19.355082,
          -61.638271
        ]
      },
      "properties": {
        "label": "Arthrogram",
        "level": 4,
        "pos": "-46730.347,-269446.665",
        "src_id": "170954",
        "weight": "0.0"
      }
    },
    {
      "type": "Feature",
      "id": "1405",
      "geometry": {
        "type": "Point",
        "coordinates": [
          -21.316255,
          -61.853287
        ]
      },
      "properties": {
        "label": "Arthroscopy",
        "level": 4,
        "pos": "-55053.669,-271343.50899999996",
        "src_id": "170965",
        "weight": "0.0"
      }
    },
    {
      "type": "Feature",
      "id": "1116",
      "geometry": {
        "type": "Point",
        "coordinates": [
          -33.405758,
          -61.281578
        ]
      },
      "properties": {
        "label": "Atrophy",
        "level": 4,
        "pos": "-106362.162,-266328.82999999996",
        "src_id": "171099",
        "weight": "0.0"
      }
    },
    {
      "type": "Feature",
      "id": "1238",
      "geometry": {
        "type": "Point",
        "coordinates": [
          -29.899174,
          -63.786724
        ]
      },
      "properties": {
        "label": "Blood pressure decreased",
        "level": 4,
        "pos": "-91480.03300000001,-289026.98199999996",
        "src_id": "172312",
        "weight": "0.0"
      }
    },
    {
      "type": "Feature",
      "id": "1667",
      "geometry": {
        "type": "Point",
        "coordinates": [
          -21.512391,
          -61.585119
        ]
      },
      "properties": {
        "label": "Bone graft",
        "level": 4,
        "pos": "-55886.076,-268979.79",
        "src_id": "172483",
        "weight": "0.0"
      }
    },
    {
      "type": "Feature",
      "id": "1399",
      "geometry": {
        "type": "Point",
        "coordinates": [
          -20.984334,
          -62.162018
        ]
      },
      "properties": {
        "label": "Bone pain",
        "level": 4,
        "pos": "-53644.981,-274090.51499999996",
        "src_id": "172523",
        "weight": "0.0"
      }
    },
    {
      "type": "Feature",
      "id": "1664",
      "geometry": {
        "type": "Point",
        "coordinates": [
          -18.588918,
          -61.040948
        ]
      },
      "properties": {
        "label": "Bunion",
        "level": 4,
        "pos": "-43478.710999999996,-264245.445",
        "src_id": "172809",
        "weight": "0.0"
      }
    },
    {
      "type": "Feature",
      "id": "1659",
      "geometry": {
        "type": "Point",
        "coordinates": [
          -20.963453,
          -60.856255
        ]
      },
      "properties": {
        "label": "Cholecystectomy",
        "level": 4,
        "pos": "-53556.355,-262657.07800000004",
        "src_id": "173591",
        "weight": "0.0"
      }
    },
    {
      "type": "Feature",
      "id": "1658",
      "geometry": {
        "type": "Point",
        "coordinates": [
          -18.290517,
          -60.676586
        ]
      },
      "properties": {
        "label": "Chronic sinusitis",
        "level": 4,
        "pos": "-42212.275,-261120.702",
        "src_id": "173733",
        "weight": "0.0"
      }
    },
    {
      "type": "Feature",
      "id": "1657",
      "geometry": {
        "type": "Point",
        "coordinates": [
          -20.740942,
          -60.529891
        ]
      },
      "properties": {
        "label": "Circumcision",
        "level": 4,
        "pos": "-52612.015,-259872.633",
        "src_id": "173760",
        "weight": "0.0"
      }
    },
    {
      "type": "Feature",
      "id": "1211",
      "geometry": {
        "type": "Point",
        "coordinates": [
          -31.057168,
          -62.91434
        ]
      },
      "properties": {
        "label": "Hydrocephalus",
        "level": 4,
        "pos": "-96394.624,-280903.78099999996",
        "src_id": "178376",
        "weight": "0.0"
      }
    },
    {
      "type": "Feature",
      "id": "1650",
      "geometry": {
        "type": "Point",
        "coordinates": [
          -21.264236,
          -60.253648
        ]
      },
      "properties": {
        "label": "Dental care",
        "level": 4,
        "pos": "-54832.898,-257537.648",
        "src_id": "174985",
        "weight": "0.0"
      }
    },
    {
      "type": "Feature",
      "id": "868",
      "geometry": {
        "type": "Point",
        "coordinates": [
          -33.251964,
          -59.592333
        ]
      },
      "properties": {
        "label": "Hernia",
        "level": 4,
        "pos": "-105709.44799999999,-252026.77800000002",
        "src_id": "178084",
        "weight": "0.0"
      }
    },
    {
      "type": "Feature",
      "id": "1377",
      "geometry": {
        "type": "Point",
        "coordinates": [
          -22.857386,
          -63.500272
        ]
      },
      "properties": {
        "label": "Dysplasia",
        "level": 4,
        "pos": "-61594.314,-286332.397",
        "src_id": "175498",
        "weight": "0.0"
      }
    },
    {
      "type": "Feature",
      "id": "1641",
      "geometry": {
        "type": "Point",
        "coordinates": [
          -18.794627,
          -61.987386
        ]
      },
      "properties": {
        "label": "Ectopic pregnancy",
        "level": 4,
        "pos": "-44351.755,-272533.273",
        "src_id": "175604",
        "weight": "0.0"
      }
    },
    {
      "type": "Feature",
      "id": "1375",
      "geometry": {
        "type": "Point",
        "coordinates": [
          -26.362988,
          -63.543537
        ]
      },
      "properties": {
        "label": "Emergency care",
        "level": 4,
        "pos": "-76472.272,-286737.635",
        "src_id": "175775",
        "weight": "0.0"
      }
    },
    {
      "type": "Feature",
      "id": "1374",
      "geometry": {
        "type": "Point",
        "coordinates": [
          -26.667963,
          -62.32259
        ]
      },
      "properties": {
        "label": "Endotracheal intubation",
        "level": 4,
        "pos": "-77766.596,-275530.334",
        "src_id": "175952",
        "weight": "0.0"
      }
    },
    {
      "type": "Feature",
      "id": "1293",
      "geometry": {
        "type": "Point",
        "coordinates": [
          -32.311835,
          -58.506223
        ]
      },
      "properties": {
        "label": "Hippocampus",
        "level": 4,
        "pos": "-101719.486,-243206.67",
        "src_id": "240385",
        "weight": "0.0"
      }
    },
    {
      "type": "Feature",
      "id": "1370",
      "geometry": {
        "type": "Point",
        "coordinates": [
          -26.541765,
          -61.779001
        ]
      },
      "properties": {
        "label": "Facial asymmetry",
        "level": 4,
        "pos": "-77231.014,-270686.674",
        "src_id": "176483",
        "weight": "0.0"
      }
    },
    {
      "type": "Feature",
      "id": "1169",
      "geometry": {
        "type": "Point",
        "coordinates": [
          -33.078734,
          -62.052508
        ]
      },
      "properties": {
        "label": "Traction",
        "level": 4,
        "pos": "-104974.248,-273112.92500000005",
        "src_id": "187287",
        "weight": "0.0"
      }
    },
    {
      "type": "Feature",
      "id": "1626",
      "geometry": {
        "type": "Point",
        "coordinates": [
          -19.05387,
          -62.271135
        ]
      },
      "properties": {
        "label": "Gastric bypass",
        "level": 4,
        "pos": "-45451.986,-275068.11",
        "src_id": "177066",
        "weight": "0.0"
      }
    },
    {
      "type": "Feature",
      "id": "1354",
      "geometry": {
        "type": "Point",
        "coordinates": [
          -28.702292,
          -62.649447
        ]
      },
      "properties": {
        "label": "Groin pain",
        "level": 4,
        "pos": "-86400.401,-278485.13100000005",
        "src_id": "177544",
        "weight": "0.0"
      }
    },
    {
      "type": "Feature",
      "id": "1615",
      "geometry": {
        "type": "Point",
        "coordinates": [
          -18.588143,
          -62.821527
        ]
      },
      "properties": {
        "label": "Haemostasis",
        "level": 4,
        "pos": "-43475.415,-280053.86199999996",
        "src_id": "177719",
        "weight": "0.0"
      }
    },
    {
      "type": "Feature",
      "id": "1353",
      "geometry": {
        "type": "Point",
        "coordinates": [
          -30.354983,
          -60.84012
        ]
      },
      "properties": {
        "label": "Hand fracture",
        "level": 4,
        "pos": "-93414.50600000001,-262518.745",
        "src_id": "177751",
        "weight": "0.0"
      }
    },
    {
      "type": "Feature",
      "id": "1348",
      "geometry": {
        "type": "Point",
        "coordinates": [
          -32.50482,
          -60.321953
        ]
      },
      "properties": {
        "label": "Hip fracture",
        "level": 4,
        "pos": "-102538.52500000001,-258113.16900000002",
        "src_id": "178156",
        "weight": "0.0"
      }
    },
    {
      "type": "Feature",
      "id": "1213",
      "geometry": {
        "type": "Point",
        "coordinates": [
          -30.963357,
          -63.252843
        ]
      },
      "properties": {
        "label": "Histology",
        "level": 4,
        "pos": "-95996.485,-284026.55700000003",
        "src_id": "178172",
        "weight": "0.0"
      }
    },
    {
      "type": "Feature",
      "id": "1596",
      "geometry": {
        "type": "Point",
        "coordinates": [
          -21.430111,
          -62.996901
        ]
      },
      "properties": {
        "label": "Intestinal obstruction",
        "level": 4,
        "pos": "-55536.88,-281662.075",
        "src_id": "179287",
        "weight": "0.0"
      }
    },
    {
      "type": "Feature",
      "id": "1592",
      "geometry": {
        "type": "Point",
        "coordinates": [
          -19.998477,
          -62.537124
        ]
      },
      "properties": {
        "label": "Knee arthroplasty",
        "level": 4,
        "pos": "-49460.947,-277466.067",
        "src_id": "179624",
        "weight": "0.0"
      }
    },
    {
      "type": "Feature",
      "id": "1590",
      "geometry": {
        "type": "Point",
        "coordinates": [
          -21.438968,
          -63.252019
        ]
      },
      "properties": {
        "label": "Leg amputation",
        "level": 4,
        "pos": "-55574.468,-284018.914",
        "src_id": "179847",
        "weight": "0.0"
      }
    },
    {
      "type": "Feature",
      "id": "1589",
      "geometry": {
        "type": "Point",
        "coordinates": [
          -24.343856,
          -62.684777
        ]
      },
      "properties": {
        "label": "Leiomyosarcoma",
        "level": 4,
        "pos": "-67902.967,-278806.45800000004",
        "src_id": "179853",
        "weight": "0.0"
      }
    },
    {
      "type": "Feature",
      "id": "1340",
      "geometry": {
        "type": "Point",
        "coordinates": [
          -33.868745,
          -60.620133
        ]
      },
      "properties": {
        "label": "Local anaesthesia",
        "level": 4,
        "pos": "-108327.09599999999,-260639.73099999997",
        "src_id": "180103",
        "weight": "0.0"
      }
    },
    {
      "type": "Feature",
      "id": "1577",
      "geometry": {
        "type": "Point",
        "coordinates": [
          -24.950166,
          -62.984241
        ]
      },
      "properties": {
        "label": "Medulloblastoma",
        "level": 4,
        "pos": "-70476.183,-281545.665",
        "src_id": "180665",
        "weight": "0.0"
      }
    },
    {
      "type": "Feature",
      "id": "1338",
      "geometry": {
        "type": "Point",
        "coordinates": [
          -32.543757,
          -62.337435
        ]
      },
      "properties": {
        "label": "Meniscus lesion",
        "level": 4,
        "pos": "-102703.779,-275663.83",
        "src_id": "180761",
        "weight": "0.0"
      }
    },
    {
      "type": "Feature",
      "id": "1557",
      "geometry": {
        "type": "Point",
        "coordinates": [
          -23.962869,
          -62.119173
        ]
      },
      "properties": {
        "label": "Oral pain",
        "level": 4,
        "pos": "-66286.04,-273707.618",
        "src_id": "182321",
        "weight": "0.0"
      }
    },
    {
      "type": "Feature",
      "id": "1556",
      "geometry": {
        "type": "Point",
        "coordinates": [
          -25.588671,
          -62.065174
        ]
      },
      "properties": {
        "label": "Osteotomy",
        "level": 4,
        "pos": "-73186.02900000001,-273225.82",
        "src_id": "182467",
        "weight": "0.0"
      }
    },
    {
      "type": "Feature",
      "id": "1555",
      "geometry": {
        "type": "Point",
        "coordinates": [
          -25.237512,
          -61.487874
        ]
      },
      "properties": {
        "label": "Otoplasty",
        "level": 4,
        "pos": "-71695.69099999999,-268127.7",
        "src_id": "182490",
        "weight": "0.0"
      }
    },
    {
      "type": "Feature",
      "id": "1324",
      "geometry": {
        "type": "Point",
        "coordinates": [
          -32.920651,
          -58.865752
        ]
      },
      "properties": {
        "label": "Peripheral nerve decompression",
        "level": 4,
        "pos": "-104303.341,-246095.59999999998",
        "src_id": "183182",
        "weight": "0.0"
      }
    },
    {
      "type": "Feature",
      "id": "1553",
      "geometry": {
        "type": "Point",
        "coordinates": [
          -27.858122,
          -61.289775
        ]
      },
      "properties": {
        "label": "Peroneal nerve palsy",
        "level": 4,
        "pos": "-82817.69799999999,-266400.082",
        "src_id": "183290",
        "weight": "0.0"
      }
    },
    {
      "type": "Feature",
      "id": "1544",
      "geometry": {
        "type": "Point",
        "coordinates": [
          -29.018228,
          -61.568509
        ]
      },
      "properties": {
        "label": "Plica syndrome",
        "level": 4,
        "pos": "-87741.249,-268834.059",
        "src_id": "183665",
        "weight": "0.0"
      }
    },
    {
      "type": "Feature",
      "id": "1535",
      "geometry": {
        "type": "Point",
        "coordinates": [
          -18.268105,
          -60.367283
        ]
      },
      "properties": {
        "label": "Procedural pain",
        "level": 4,
        "pos": "-42117.161,-258495.768",
        "src_id": "184110",
        "weight": "0.0"
      }
    },
    {
      "type": "Feature",
      "id": "1533",
      "geometry": {
        "type": "Point",
        "coordinates": [
          -19.853815,
          -61.308149
        ]
      },
      "properties": {
        "label": "Psoriatic arthropathy",
        "level": 4,
        "pos": "-48846.997,-266559.862",
        "src_id": "184426",
        "weight": "0.0"
      }
    },
    {
      "type": "Feature",
      "id": "1530",
      "geometry": {
        "type": "Point",
        "coordinates": [
          -23.239815,
          -62.420103
        ]
      },
      "properties": {
        "label": "Pulmonary embolism",
        "level": 4,
        "pos": "-63217.362,-276408.47000000003",
        "src_id": "184505",
        "weight": "0.0"
      }
    },
    {
      "type": "Feature",
      "id": "1524",
      "geometry": {
        "type": "Point",
        "coordinates": [
          -24.537966,
          -63.257676
        ]
      },
      "properties": {
        "label": "Retinopathy",
        "level": 4,
        "pos": "-68726.777,-284071.40900000004",
        "src_id": "185266",
        "weight": "0.0"
      }
    },
    {
      "type": "Feature",
      "id": "1511",
      "geometry": {
        "type": "Point",
        "coordinates": [
          -25.96439,
          -63.807489
        ]
      },
      "properties": {
        "label": "Skin cosmetic procedure",
        "level": 4,
        "pos": "-74780.60100000001,-289223.366",
        "src_id": "185929",
        "weight": "0.0"
      }
    },
    {
      "type": "Feature",
      "id": "2",
      "geometry": {
        "type": "Point",
        "coordinates": [
          -25.003426,
          -42.153445
        ]
      },
      "properties": {
        "label": "Anxiety",
        "level": 1,
        "pos": "-70702.219,-134772.72999999998",
        "src_id": "170661",
        "weight": "103563.787570028"
      }
    },
    {
      "type": "Feature",
      "id": "17",
      "geometry": {
        "type": "Point",
        "coordinates": [
          -25.03787,
          -42.826544
        ]
      },
      "properties": {
        "label": "Insomnia",
        "level": 1,
        "pos": "-70848.40199999999,-138584.794",
        "src_id": "179162",
        "weight": "19686.716666666678"
      }
    },
    {
      "type": "Feature",
      "id": "42",
      "geometry": {
        "type": "Point",
        "coordinates": [
          -26.435593,
          -39.160438
        ]
      },
      "properties": {
        "label": "Completed suicide",
        "level": 1,
        "pos": "-76780.41100000001,-118291.955",
        "src_id": "174010",
        "weight": "18884.833333333332"
      }
    },
    {
      "type": "Feature",
      "id": "1435",
      "geometry": {
        "type": "Point",
        "coordinates": [
          -31.774245,
          -43.763048
        ]
      },
      "properties": {
        "label": "Propericiazine",
        "level": 4,
        "pos": "-99437.926,-143958.375",
        "src_id": "1540",
        "weight": "0.0"
      }
    },
    {
      "type": "Feature",
      "id": "1688",
      "geometry": {
        "type": "Point",
        "coordinates": [
          -30.733044,
          -44.692249
        ]
      },
      "properties": {
        "label": "Affect lability",
        "level": 4,
        "pos": "-95019.024,-149373.863",
        "src_id": "169892",
        "weight": "0.0"
      }
    },
    {
      "type": "Feature",
      "id": "1662",
      "geometry": {
        "type": "Point",
        "coordinates": [
          -22.104537,
          -43.790087
        ]
      },
      "properties": {
        "label": "Cancer pain",
        "level": 4,
        "pos": "-58399.18,-144114.774",
        "src_id": "172918",
        "weight": "0.0"
      }
    },
    {
      "type": "Feature",
      "id": "1636",
      "geometry": {
        "type": "Point",
        "coordinates": [
          -30.227285,
          -45.255577
        ]
      },
      "properties": {
        "label": "Exhibitionism",
        "level": 4,
        "pos": "-92872.54699999999,-152699.368",
        "src_id": "176271",
        "weight": "0.0"
      }
    },
    {
      "type": "Feature",
      "id": "1514",
      "geometry": {
        "type": "Point",
        "coordinates": [
          -30.775532,
          -44.255027
        ]
      },
      "properties": {
        "label": "Self-injurious ideation",
        "level": 4,
        "pos": "-95199.342,-146815.02699999997",
        "src_id": "185697",
        "weight": "0.0"
      }
    },
    {
      "type": "Feature",
      "id": "216",
      "geometry": {
        "type": "Point",
        "coordinates": [
          -33.273894,
          -64.772804
        ]
      },
      "properties": {
        "label": "Contusion",
        "level": 3,
        "pos": "-105802.516,-298517.091",
        "src_id": "174362",
        "weight": "1790.0"
      }
    },
    {
      "type": "Feature",
      "id": "177",
      "geometry": {
        "type": "Point",
        "coordinates": [
          -38.627185,
          -64.223331
        ]
      },
      "properties": {
        "label": "Wound",
        "level": 3,
        "pos": "-128522.17400000001,-293187.14999999997",
        "src_id": "188883",
        "weight": "0.0"
      }
    },
    {
      "type": "Feature",
      "id": "139",
      "geometry": {
        "type": "Point",
        "coordinates": [
          -39.750333,
          -64.090806
        ]
      },
      "properties": {
        "label": "Accident",
        "level": 3,
        "pos": "-133288.86800000002,-291917.51",
        "src_id": "169612",
        "weight": "0.0"
      }
    },
    {
      "type": "Feature",
      "id": "1024",
      "geometry": {
        "type": "Point",
        "coordinates": [
          -40.653423,
          -63.36844
        ]
      },
      "properties": {
        "label": "Alcohol poisoning",
        "level": 3,
        "pos": "-137121.628,-285101.356",
        "src_id": "169959",
        "weight": "704.7499999999994"
      }
    },
    {
      "type": "Feature",
      "id": "1412",
      "geometry": {
        "type": "Point",
        "coordinates": [
          -40.699464,
          -63.06892
        ]
      },
      "properties": {
        "label": "Airway complication of anaesthesia",
        "level": 4,
        "pos": "-137317.033,-282325.31",
        "src_id": "169923",
        "weight": "0.0"
      }
    },
    {
      "type": "Feature",
      "id": "1372",
      "geometry": {
        "type": "Point",
        "coordinates": [
          -36.539805,
          -65.557503
        ]
      },
      "properties": {
        "label": "Epicondylitis",
        "level": 4,
        "pos": "-119663.22,-306320.041",
        "src_id": "176057",
        "weight": "0.0"
      }
    },
    {
      "type": "Feature",
      "id": "1635",
      "geometry": {
        "type": "Point",
        "coordinates": [
          -33.050138,
          -65.018304
        ]
      },
      "properties": {
        "label": "Exophthalmos",
        "level": 4,
        "pos": "-104852.894,-300933.589",
        "src_id": "176276",
        "weight": "0.0"
      }
    },
    {
      "type": "Feature",
      "id": "1363",
      "geometry": {
        "type": "Point",
        "coordinates": [
          -34.302767,
          -65.513113
        ]
      },
      "properties": {
        "label": "Foreign body",
        "level": 4,
        "pos": "-110169.113,-305872.413",
        "src_id": "176862",
        "weight": "0.0"
      }
    },
    {
      "type": "Feature",
      "id": "1586",
      "geometry": {
        "type": "Point",
        "coordinates": [
          -34.933324,
          -65.251046
        ]
      },
      "properties": {
        "label": "Lip injury",
        "level": 4,
        "pos": "-112845.228,-303245.118",
        "src_id": "180013",
        "weight": "0.0"
      }
    },
    {
      "type": "Feature",
      "id": "1308",
      "geometry": {
        "type": "Point",
        "coordinates": [
          -36.766548,
          -65.308286
        ]
      },
      "properties": {
        "label": "Tracheostomy",
        "level": 4,
        "pos": "-120625.532,-303816.726",
        "src_id": "187282",
        "weight": "0.0"
      }
    },
    {
      "type": "Feature",
      "id": "1162",
      "geometry": {
        "type": "Point",
        "coordinates": [
          -37.564734,
          -65.073907
        ]
      },
      "properties": {
        "label": "Wrist fracture",
        "level": 4,
        "pos": "-124013.06700000001,-301483.992",
        "src_id": "188907",
        "weight": "0.0"
      }
    },
    {
      "type": "Feature",
      "id": "752",
      "geometry": {
        "type": "Point",
        "coordinates": [
          -23.31651,
          -66.438219
        ]
      },
      "properties": {
        "label": "Plastic surgery",
        "level": 4,
        "pos": "-63542.863,-315362.945",
        "src_id": "183578",
        "weight": "0.0"
      }
    },
    {
      "type": "Feature",
      "id": "1389",
      "geometry": {
        "type": "Point",
        "coordinates": [
          -23.033995,
          -66.203287
        ]
      },
      "properties": {
        "label": "Cleft lip repair",
        "level": 4,
        "pos": "-62343.848,-312920.035",
        "src_id": "173780",
        "weight": "0.0"
      }
    },
    {
      "type": "Feature",
      "id": "1232",
      "geometry": {
        "type": "Point",
        "coordinates": [
          -25.631536,
          -66.618472
        ]
      },
      "properties": {
        "label": "Cleft palate",
        "level": 4,
        "pos": "-73367.948,-317252.915",
        "src_id": "173781",
        "weight": "0.0"
      }
    },
    {
      "type": "Feature",
      "id": "164",
      "geometry": {
        "type": "Point",
        "coordinates": [
          -25.663395,
          -46.157276
        ]
      },
      "properties": {
        "label": "Panic attack",
        "level": 3,
        "pos": "-73503.162,-158091.821",
        "src_id": "182745",
        "weight": "0.0"
      }
    },
    {
      "type": "Feature",
      "id": "1752",
      "geometry": {
        "type": "Point",
        "coordinates": [
          -25.305258,
          -43.749834
        ]
      },
      "properties": {
        "label": "Atorvastatin",
        "level": 4,
        "pos": "-71983.208,-143881.976",
        "src_id": "1060",
        "weight": "0.0"
      }
    },
    {
      "type": "Feature",
      "id": "1264",
      "geometry": {
        "type": "Point",
        "coordinates": [
          -25.632,
          -45.702289
        ]
      },
      "properties": {
        "label": "Bisacodyl",
        "level": 4,
        "pos": "-73369.921,-155359.97900000002",
        "src_id": "7970",
        "weight": "0.0"
      }
    },
    {
      "type": "Feature",
      "id": "1198",
      "geometry": {
        "type": "Point",
        "coordinates": [
          -25.438822,
          -44.847949
        ]
      },
      "properties": {
        "label": "Mutism",
        "level": 4,
        "pos": "-72550.06400000001,-150289.74500000002",
        "src_id": "181288",
        "weight": "0.0"
      }
    },
    {
      "type": "Feature",
      "id": "1517",
      "geometry": {
        "type": "Point",
        "coordinates": [
          -25.354372,
          -44.147184
        ]
      },
      "properties": {
        "label": "Schizophrenia, paranoid type",
        "level": 4,
        "pos": "-72191.65,-146186.80599999998",
        "src_id": "185578",
        "weight": "0.0"
      }
    },
    {
      "type": "Feature",
      "id": "135",
      "geometry": {
        "type": "Point",
        "coordinates": [
          -25.427797,
          -45.314569
        ]
      },
      "properties": {
        "label": "Restlessness",
        "level": 3,
        "pos": "-72503.27,-153049.51700000002",
        "src_id": "185171",
        "weight": "0.0"
      }
    },
    {
      "type": "Feature",
      "id": "1002",
      "geometry": {
        "type": "Point",
        "coordinates": [
          -23.68796,
          -45.7179
        ]
      },
      "properties": {
        "label": "Gastric ulcer",
        "level": 3,
        "pos": "-65119.31199999999,-155453.337",
        "src_id": "177111",
        "weight": "683.42731092437"
      }
    },
    {
      "type": "Feature",
      "id": "1318",
      "geometry": {
        "type": "Point",
        "coordinates": [
          -25.550316,
          -47.048793
        ]
      },
      "properties": {
        "label": "Sleep disorder",
        "level": 4,
        "pos": "-73023.247,-163510.962",
        "src_id": "186000",
        "weight": "0.0"
      }
    },
    {
      "type": "Feature",
      "id": "1567",
      "geometry": {
        "type": "Point",
        "coordinates": [
          -25.562482,
          -47.441557
        ]
      },
      "properties": {
        "label": "Mydriasis",
        "level": 4,
        "pos": "-73074.883,-165927.132",
        "src_id": "181328",
        "weight": "0.0"
      }
    },
    {
      "type": "Feature",
      "id": "37",
      "geometry": {
        "type": "Point",
        "coordinates": [
          -21.369157,
          -37.882378
        ]
      },
      "properties": {
        "label": "Decreased appetite",
        "level": 1,
        "pos": "-55278.193999999996,-111469.646",
        "src_id": "174910",
        "weight": "7919.516666666668"
      }
    },
    {
      "type": "Feature",
      "id": "1394",
      "geometry": {
        "type": "Point",
        "coordinates": [
          -22.225047,
          -42.410774
        ]
      },
      "properties": {
        "label": "Carbon monoxide poisoning",
        "level": 4,
        "pos": "-58910.634,-136225.256",
        "src_id": "172983",
        "weight": "0.0"
      }
    },
    {
      "type": "Feature",
      "id": "1344",
      "geometry": {
        "type": "Point",
        "coordinates": [
          -22.67124,
          -43.33417
        ]
      },
      "properties": {
        "label": "Intentional self-injury",
        "level": 4,
        "pos": "-60804.299,-141487.226",
        "src_id": "179209",
        "weight": "0.0"
      }
    },
    {
      "type": "Feature",
      "id": "1325",
      "geometry": {
        "type": "Point",
        "coordinates": [
          -23.361354,
          -42.835391
        ]
      },
      "properties": {
        "label": "Pain in jaw",
        "level": 4,
        "pos": "-63733.179,-138635.171",
        "src_id": "182633",
        "weight": "0.0"
      }
    },
    {
      "type": "Feature",
      "id": "1460",
      "geometry": {
        "type": "Point",
        "coordinates": [
          -8.120238,
          -37.648678
        ]
      },
      "properties": {
        "label": "Insulin Lispro",
        "level": 3,
        "pos": "950.918,-110235.06999999999",
        "src_id": "45",
        "weight": "0.0"
      }
    },
    {
      "type": "Feature",
      "id": "342",
      "geometry": {
        "type": "Point",
        "coordinates": [
          -11.968888,
          -35.038727
        ]
      },
      "properties": {
        "label": "Blood insulin",
        "level": 3,
        "pos": "-15382.954,-96700.885",
        "src_id": "172218",
        "weight": "0.0"
      }
    },
    {
      "type": "Feature",
      "id": "52",
      "geometry": {
        "type": "Point",
        "coordinates": [
          -23.376486,
          -33.888215
        ]
      },
      "properties": {
        "label": "Diabetes mellitus",
        "level": 1,
        "pos": "-63797.401999999995,-90873.2",
        "src_id": "175126",
        "weight": "28284.45"
      }
    },
    {
      "type": "Feature",
      "id": "421",
      "geometry": {
        "type": "Point",
        "coordinates": [
          -7.275018,
          -38.108664
        ]
      },
      "properties": {
        "label": "Glucose",
        "level": 3,
        "pos": "4538.0779999999995,-112668.801",
        "src_id": "8280",
        "weight": "0.0"
      }
    },
    {
      "type": "Feature",
      "id": "1270",
      "geometry": {
        "type": "Point",
        "coordinates": [
          -8.736939,
          -37.143564
        ]
      },
      "properties": {
        "label": "Insulin Aspart",
        "level": 4,
        "pos": "-1666.386,-107579.869",
        "src_id": "1280",
        "weight": "0.0"
      }
    },
    {
      "type": "Feature",
      "id": "1792",
      "geometry": {
        "type": "Point",
        "coordinates": [
          -15.607615,
          -33.760319
        ]
      },
      "properties": {
        "label": "Insulin Glargine",
        "level": 3,
        "pos": "-30825.896,-90230.269",
        "src_id": "46",
        "weight": "0.0"
      }
    },
    {
      "type": "Feature",
      "id": "12",
      "geometry": {
        "type": "Point",
        "coordinates": [
          -34.683325,
          -41.018
        ]
      },
      "properties": {
        "label": "Neoplasm malignant",
        "level": 1,
        "pos": "-111784.22399999999,-128432.88699999999",
        "src_id": "181636",
        "weight": "80595.30952380953"
      }
    },
    {
      "type": "Feature",
      "id": "175",
      "geometry": {
        "type": "Point",
        "coordinates": [
          -25.063096,
          -35.96143
        ]
      },
      "properties": {
        "label": "Obesity",
        "level": 1,
        "pos": "-70955.46299999999,-101434.14300000001",
        "src_id": "181982",
        "weight": "1963.0"
      }
    },
    {
      "type": "Feature",
      "id": "92",
      "geometry": {
        "type": "Point",
        "coordinates": [
          -23.109482,
          -27.65863
        ]
      },
      "properties": {
        "label": "Impaired gastric emptying",
        "level": 1,
        "pos": "-62664.221,-60568.731",
        "src_id": "178795",
        "weight": "4477.666666666666"
      }
    },
    {
      "type": "Feature",
      "id": "1289",
      "geometry": {
        "type": "Point",
        "coordinates": [
          -13.513237,
          -33.286932
        ]
      },
      "properties": {
        "label": "Metformin",
        "level": 3,
        "pos": "-21937.252999999997,-87858.87",
        "src_id": "321",
        "weight": "1790.0"
      }
    },
    {
      "type": "Feature",
      "id": "1679",
      "geometry": {
        "type": "Point",
        "coordinates": [
          -18.497343,
          -33.429028
        ]
      },
      "properties": {
        "label": "Arteriosclerosis",
        "level": 4,
        "pos": "-43090.058,-88569.329",
        "src_id": "170910",
        "weight": "0.0"
      }
    },
    {
      "type": "Feature",
      "id": "1668",
      "geometry": {
        "type": "Point",
        "coordinates": [
          -18.054359,
          -34.11605
        ]
      },
      "properties": {
        "label": "Blood glucose",
        "level": 4,
        "pos": "-41210.005000000005,-92020.911",
        "src_id": "172153",
        "weight": "0.0"
      }
    },
    {
      "type": "Feature",
      "id": "1357",
      "geometry": {
        "type": "Point",
        "coordinates": [
          -12.629772,
          -34.264291
        ]
      },
      "properties": {
        "label": "Glucose tolerance impaired",
        "level": 4,
        "pos": "-18187.783,-92769.326",
        "src_id": "177436",
        "weight": "0.0"
      }
    },
    {
      "type": "Feature",
      "id": "1582",
      "geometry": {
        "type": "Point",
        "coordinates": [
          -20.85594,
          -33.656832
        ]
      },
      "properties": {
        "label": "Liver injury",
        "level": 4,
        "pos": "-53100.068999999996,-89710.74799999999",
        "src_id": "180088",
        "weight": "0.0"
      }
    },
    {
      "type": "Feature",
      "id": "1541",
      "geometry": {
        "type": "Point",
        "coordinates": [
          -13.829788,
          -34.734615
        ]
      },
      "properties": {
        "label": "Porphyria",
        "level": 4,
        "pos": "-23280.714,-95152.616",
        "src_id": "183819",
        "weight": "0.0"
      }
    },
    {
      "type": "Feature",
      "id": "1494",
      "geometry": {
        "type": "Point",
        "coordinates": [
          -17.024664,
          -32.595936
        ]
      },
      "properties": {
        "label": "Type 1 diabetes mellitus",
        "level": 4,
        "pos": "-36839.926,-84420.32",
        "src_id": "187539",
        "weight": "0.0"
      }
    },
    {
      "type": "Feature",
      "id": "1464",
      "geometry": {
        "type": "Point",
        "coordinates": [
          -15.835175,
          -33.117126
        ]
      },
      "properties": {
        "label": "Vicia",
        "level": 4,
        "pos": "-31791.679,-87011.384",
        "src_id": "240879",
        "weight": "0.0"
      }
    },
    {
      "type": "Feature",
      "id": "644",
      "geometry": {
        "type": "Point",
        "coordinates": [
          -0.685013,
          -41.304661
        ]
      },
      "properties": {
        "label": "Fructose",
        "level": 3,
        "pos": "32506.414,-130023.01499999998",
        "src_id": "3934",
        "weight": "1790.0"
      }
    },
    {
      "type": "Feature",
      "id": "401",
      "geometry": {
        "type": "Point",
        "coordinates": [
          -0.386557,
          -40.269404
        ]
      },
      "properties": {
        "label": "Drug tolerance",
        "level": 3,
        "pos": "33773.066,-124312.695",
        "src_id": "175408",
        "weight": "18.0"
      }
    },
    {
      "type": "Feature",
      "id": "1433",
      "geometry": {
        "type": "Point",
        "coordinates": [
          -1.981754,
          -41.313297
        ]
      },
      "properties": {
        "label": "Maltose",
        "level": 4,
        "pos": "27002.97,-130071.02",
        "src_id": "3139",
        "weight": "0.0"
      }
    },
    {
      "type": "Feature",
      "id": "988",
      "geometry": {
        "type": "Point",
        "coordinates": [
          -1.27764,
          -40.847263
        ]
      },
      "properties": {
        "label": "Metabolic syndrome",
        "level": 4,
        "pos": "29991.27,-127489.089",
        "src_id": "180825",
        "weight": "0.0"
      }
    },
    {
      "type": "Feature",
      "id": "1257",
      "geometry": {
        "type": "Point",
        "coordinates": [
          -5.328996,
          -38.09126
        ]
      },
      "properties": {
        "label": "Insulin Degludec",
        "level": 4,
        "pos": "12797.099,-112576.44399999999",
        "src_id": "8370",
        "weight": "0.0"
      }
    },
    {
      "type": "Feature",
      "id": "1785",
      "geometry": {
        "type": "Point",
        "coordinates": [
          -39.399812,
          -41.980014
        ]
      },
      "properties": {
        "label": "Pyrimethamine",
        "level": 3,
        "pos": "-131801.242,-133797.098",
        "src_id": "196",
        "weight": "0.0"
      }
    },
    {
      "type": "Feature",
      "id": "93",
      "geometry": {
        "type": "Point",
        "coordinates": [
          -40.283274,
          -44.348935
        ]
      },
      "properties": {
        "label": "Childhood",
        "level": 2,
        "pos": "-135550.704,-147363.01499999998",
        "src_id": "173551",
        "weight": "1855.5"
      }
    },
    {
      "type": "Feature",
      "id": "353",
      "geometry": {
        "type": "Point",
        "coordinates": [
          -39.628454,
          -45.587864
        ]
      },
      "properties": {
        "label": "Chemotherapy",
        "level": 4,
        "pos": "-132771.611,-154676.448",
        "src_id": "173517",
        "weight": "0.0"
      }
    },
    {
      "type": "Feature",
      "id": "1771",
      "geometry": {
        "type": "Point",
        "coordinates": [
          -35.70483,
          -41.672184
        ]
      },
      "properties": {
        "label": "Cisplatin",
        "level": 4,
        "pos": "-116119.54400000001,-132071.938",
        "src_id": "502",
        "weight": "0.0"
      }
    },
    {
      "type": "Feature",
      "id": "1753",
      "geometry": {
        "type": "Point",
        "coordinates": [
          -38.390932,
          -42.701592
        ]
      },
      "properties": {
        "label": "Doxorubicin",
        "level": 4,
        "pos": "-127519.50499999999,-137874.02",
        "src_id": "983",
        "weight": "0.0"
      }
    },
    {
      "type": "Feature",
      "id": "1729",
      "geometry": {
        "type": "Point",
        "coordinates": [
          -36.125293,
          -43.860805
        ]
      },
      "properties": {
        "label": "Ellagic Acid",
        "level": 4,
        "pos": "-117904.015,-144524.122",
        "src_id": "7816",
        "weight": "0.0"
      }
    },
    {
      "type": "Feature",
      "id": "1252",
      "geometry": {
        "type": "Point",
        "coordinates": [
          -41.773261,
          -40.478623
        ]
      },
      "properties": {
        "label": "Ammonia",
        "level": 4,
        "pos": "-141874.276,-125459.576",
        "src_id": "9063",
        "weight": "0.0"
      }
    },
    {
      "type": "Feature",
      "id": "1691",
      "geometry": {
        "type": "Point",
        "coordinates": [
          -35.054932,
          -42.537487
        ]
      },
      "properties": {
        "label": "Acute lymphocytic leukaemia",
        "level": 4,
        "pos": "-113361.339,-136942.702",
        "src_id": "169754",
        "weight": "0.0"
      }
    },
    {
      "type": "Feature",
      "id": "1680",
      "geometry": {
        "type": "Point",
        "coordinates": [
          -37.045812,
          -41.217771
        ]
      },
      "properties": {
        "label": "Apoptosis",
        "level": 4,
        "pos": "-121810.741,-129540.29",
        "src_id": "170769",
        "weight": "0.0"
      }
    },
    {
      "type": "Feature",
      "id": "1114",
      "geometry": {
        "type": "Point",
        "coordinates": [
          -36.178278,
          -45.848391
        ]
      },
      "properties": {
        "label": "Bone neoplasm malignant",
        "level": 4,
        "pos": "-118128.884,-156234.772",
        "src_id": "172521",
        "weight": "0.0"
      }
    },
    {
      "type": "Feature",
      "id": "1661",
      "geometry": {
        "type": "Point",
        "coordinates": [
          -36.459799,
          -44.31181
        ]
      },
      "properties": {
        "label": "Cell death",
        "level": 4,
        "pos": "-119323.667,-147146.272",
        "src_id": "173279",
        "weight": "0.0"
      }
    },
    {
      "type": "Feature",
      "id": "1653",
      "geometry": {
        "type": "Point",
        "coordinates": [
          -36.921834,
          -42.124762
        ]
      },
      "properties": {
        "label": "Colorectal cancer",
        "level": 4,
        "pos": "-121284.565,-134611.185",
        "src_id": "173947",
        "weight": "0.0"
      }
    },
    {
      "type": "Feature",
      "id": "1328",
      "geometry": {
        "type": "Point",
        "coordinates": [
          -38.914304,
          -45.175159
        ]
      },
      "properties": {
        "label": "Organ failure",
        "level": 4,
        "pos": "-129740.72000000002,-152222.62900000002",
        "src_id": "182351",
        "weight": "0.0"
      }
    },
    {
      "type": "Feature",
      "id": "1642",
      "geometry": {
        "type": "Point",
        "coordinates": [
          -39.466734,
          -46.064464
        ]
      },
      "properties": {
        "label": "Economic problem",
        "level": 4,
        "pos": "-132085.262,-157532.72699999998",
        "src_id": "175590",
        "weight": "0.0"
      }
    },
    {
      "type": "Feature",
      "id": "1625",
      "geometry": {
        "type": "Point",
        "coordinates": [
          -40.626969,
          -44.75189
        ]
      },
      "properties": {
        "label": "Gastrointestinal carcinoma",
        "level": 4,
        "pos": "-137009.355,-149724.405",
        "src_id": "177182",
        "weight": "0.0"
      }
    },
    {
      "type": "Feature",
      "id": "1623",
      "geometry": {
        "type": "Point",
        "coordinates": [
          -37.407054,
          -44.757405
        ]
      },
      "properties": {
        "label": "Glioma",
        "level": 4,
        "pos": "-123343.867,-149756.832",
        "src_id": "177386",
        "weight": "0.0"
      }
    },
    {
      "type": "Feature",
      "id": "1622",
      "geometry": {
        "type": "Point",
        "coordinates": [
          -38.574884,
          -44.316102
        ]
      },
      "properties": {
        "label": "Glossectomy",
        "level": 4,
        "pos": "-128300.196,-147171.324",
        "src_id": "177419",
        "weight": "0.0"
      }
    },
    {
      "type": "Feature",
      "id": "1609",
      "geometry": {
        "type": "Point",
        "coordinates": [
          -43.047041,
          -43.414705
        ]
      },
      "properties": {
        "label": "Hodgkin's disease",
        "level": 4,
        "pos": "-147280.275,-141949.929",
        "src_id": "178228",
        "weight": "0.0"
      }
    },
    {
      "type": "Feature",
      "id": "1173",
      "geometry": {
        "type": "Point",
        "coordinates": [
          -31.214405,
          -41.122462
        ]
      },
      "properties": {
        "label": "Squamous cell carcinoma",
        "level": 4,
        "pos": "-97061.941,-129011.538",
        "src_id": "186342",
        "weight": "0.0"
      }
    },
    {
      "type": "Feature",
      "id": "1574",
      "geometry": {
        "type": "Point",
        "coordinates": [
          -41.857095,
          -43.863331
        ]
      },
      "properties": {
        "label": "Mesothelioma",
        "level": 4,
        "pos": "-142230.08,-144538.75",
        "src_id": "180809",
        "weight": "0.0"
      }
    },
    {
      "type": "Feature",
      "id": "1337",
      "geometry": {
        "type": "Point",
        "coordinates": [
          -36.883194,
          -45.454326
        ]
      },
      "properties": {
        "label": "Metastasis",
        "level": 4,
        "pos": "-121120.575,-153880.505",
        "src_id": "180907",
        "weight": "0.0"
      }
    },
    {
      "type": "Feature",
      "id": "1560",
      "geometry": {
        "type": "Point",
        "coordinates": [
          -42.848733,
          -44.346884
        ]
      },
      "properties": {
        "label": "Non-Hodgkin's lymphoma",
        "level": 4,
        "pos": "-146438.643,-147351.033",
        "src_id": "181884",
        "weight": "0.0"
      }
    },
    {
      "type": "Feature",
      "id": "1558",
      "geometry": {
        "type": "Point",
        "coordinates": [
          -39.103935,
          -43.866028
        ]
      },
      "properties": {
        "label": "Oesophageal carcinoma",
        "level": 4,
        "pos": "-130545.52,-144554.365",
        "src_id": "182083",
        "weight": "0.0"
      }
    },
    {
      "type": "Feature",
      "id": "1540",
      "geometry": {
        "type": "Point",
        "coordinates": [
          -39.330242,
          -43.384356
        ]
      },
      "properties": {
        "label": "Positron emission tomogram",
        "level": 4,
        "pos": "-131505.978,-141775.49300000002",
        "src_id": "183853",
        "weight": "0.0"
      }
    },
    {
      "type": "Feature",
      "id": "1523",
      "geometry": {
        "type": "Point",
        "coordinates": [
          -41.887326,
          -42.229403
        ]
      },
      "properties": {
        "label": "Rhabdomyosarcoma",
        "level": 4,
        "pos": "-142358.378,-135200.867",
        "src_id": "185324",
        "weight": "0.0"
      }
    },
    {
      "type": "Feature",
      "id": "1520",
      "geometry": {
        "type": "Point",
        "coordinates": [
          -40.62979,
          -42.78117
        ]
      },
      "properties": {
        "label": "Sarcoma",
        "level": 4,
        "pos": "-137021.33000000002,-138326.52",
        "src_id": "185514",
        "weight": "0.0"
      }
    },
    {
      "type": "Feature",
      "id": "1499",
      "geometry": {
        "type": "Point",
        "coordinates": [
          -42.484543,
          -42.890481
        ]
      },
      "properties": {
        "label": "Thyroid cancer",
        "level": 4,
        "pos": "-144892.996,-138949.044",
        "src_id": "187010",
        "weight": "0.0"
      }
    },
    {
      "type": "Feature",
      "id": "22",
      "geometry": {
        "type": "Point",
        "coordinates": [
          -20.530857,
          -34.187644
        ]
      },
      "properties": {
        "label": "Exercise adequate",
        "level": 1,
        "pos": "-51720.402,-92382.202",
        "src_id": "176259",
        "weight": "10374.750000000002"
      }
    },
    {
      "type": "Feature",
      "id": "223",
      "geometry": {
        "type": "Point",
        "coordinates": [
          -24.150143,
          -35.274816
        ]
      },
      "properties": {
        "label": "Overweight",
        "level": 3,
        "pos": "-67080.83899999999,-97906.809",
        "src_id": "182592",
        "weight": "3.0"
      }
    },
    {
      "type": "Feature",
      "id": "33",
      "geometry": {
        "type": "Point",
        "coordinates": [
          -28.967911,
          -26.909126
        ]
      },
      "properties": {
        "label": "Nausea",
        "level": 2,
        "pos": "-87527.699,-57046.843",
        "src_id": "181546",
        "weight": "9882.499999999996"
      }
    },
    {
      "type": "Feature",
      "id": "98",
      "geometry": {
        "type": "Point",
        "coordinates": [
          -20.592244,
          -21.29292
        ]
      },
      "properties": {
        "label": "Autonomic nervous system imbalance",
        "level": 1,
        "pos": "-51980.926,-31338.584000000003",
        "src_id": "171159",
        "weight": "8189.333333333333"
      }
    },
    {
      "type": "Feature",
      "id": "40",
      "geometry": {
        "type": "Point",
        "coordinates": [
          -28.568695,
          -28.779638
        ]
      },
      "properties": {
        "label": "Migraine",
        "level": 2,
        "pos": "-85833.40800000001,-65881.806",
        "src_id": "180996",
        "weight": "10223.1875"
      }
    },
    {
      "type": "Feature",
      "id": "166",
      "geometry": {
        "type": "Point",
        "coordinates": [
          -20.395347,
          -28.059112
        ]
      },
      "properties": {
        "label": "Syncope",
        "level": 3,
        "pos": "-51145.293000000005,-62460.454",
        "src_id": "186636",
        "weight": "44.0"
      }
    },
    {
      "type": "Feature",
      "id": "1373",
      "geometry": {
        "type": "Point",
        "coordinates": [
          -20.85898,
          -22.413729
        ]
      },
      "properties": {
        "label": "Enteral nutrition",
        "level": 4,
        "pos": "-53112.968,-36381.734000000004",
        "src_id": "175965",
        "weight": "0.0"
      }
    },
    {
      "type": "Feature",
      "id": "1182",
      "geometry": {
        "type": "Point",
        "coordinates": [
          -23.257685,
          -22.442838
        ]
      },
      "properties": {
        "label": "Pyloroplasty",
        "level": 4,
        "pos": "-63293.202,-36513.236",
        "src_id": "184643",
        "weight": "0.0"
      }
    },
    {
      "type": "Feature",
      "id": "1747",
      "geometry": {
        "type": "Point",
        "coordinates": [
          -10.910618,
          -35.489747
        ]
      },
      "properties": {
        "label": "Sitagliptin",
        "level": 3,
        "pos": "-10891.595000000001,-99007.717",
        "src_id": "1244",
        "weight": "0.0"
      }
    },
    {
      "type": "Feature",
      "id": "1740",
      "geometry": {
        "type": "Point",
        "coordinates": [
          4.554821,
          -44.154302
        ]
      },
      "properties": {
        "label": "Sucrose",
        "level": 4,
        "pos": "54744.534999999996,-146228.241",
        "src_id": "2619",
        "weight": "0.0"
      }
    },
    {
      "type": "Feature",
      "id": "171",
      "geometry": {
        "type": "Point",
        "coordinates": [
          -45.436771,
          -46.862938
        ]
      },
      "properties": {
        "label": "Flashback",
        "level": 3,
        "pos": "-157422.408,-162373.83500000002",
        "src_id": "176739",
        "weight": "0.0"
      }
    },
    {
      "type": "Feature",
      "id": "745",
      "geometry": {
        "type": "Point",
        "coordinates": [
          -46.583637,
          -46.183706
        ]
      },
      "properties": {
        "label": "Sepia",
        "level": 4,
        "pos": "-162289.77000000002,-158251.195",
        "src_id": "240755",
        "weight": "0.0"
      }
    },
    {
      "type": "Feature",
      "id": "666",
      "geometry": {
        "type": "Point",
        "coordinates": [
          -45.189695,
          -47.257683
        ]
      },
      "properties": {
        "label": "Flounder",
        "level": 2,
        "pos": "-156373.806,-164793.755",
        "src_id": "8601",
        "weight": "1937.8083333333323"
      }
    },
    {
      "type": "Feature",
      "id": "1656",
      "geometry": {
        "type": "Point",
        "coordinates": [
          -44.969133,
          -47.744498
        ]
      },
      "properties": {
        "label": "Clang associations",
        "level": 4,
        "pos": "-155437.728,-167803.081",
        "src_id": "173773",
        "weight": "0.0"
      }
    },
    {
      "type": "Feature",
      "id": "1331",
      "geometry": {
        "type": "Point",
        "coordinates": [
          -44.302548,
          -48.123787
        ]
      },
      "properties": {
        "label": "Neuroblastoma",
        "level": 4,
        "pos": "-152608.708,-170167.273",
        "src_id": "181713",
        "weight": "0.0"
      }
    },
    {
      "type": "Feature",
      "id": "861",
      "geometry": {
        "type": "Point",
        "coordinates": [
          -43.178144,
          -47.273971
        ]
      },
      "properties": {
        "label": "Radiotherapy",
        "level": 4,
        "pos": "-147836.677,-164894.003",
        "src_id": "184752",
        "weight": "0.0"
      }
    },
    {
      "type": "Feature",
      "id": "1398",
      "geometry": {
        "type": "Point",
        "coordinates": [
          -43.184751,
          -49.136595
        ]
      },
      "properties": {
        "label": "Bone sarcoma",
        "level": 4,
        "pos": "-147864.723,-176567.204",
        "src_id": "172526",
        "weight": "0.0"
      }
    },
    {
      "type": "Feature",
      "id": "1206",
      "geometry": {
        "type": "Point",
        "coordinates": [
          -30.425171,
          -42.441879
        ]
      },
      "properties": {
        "label": "Lip and/or oral cavity cancer",
        "level": 4,
        "pos": "-93712.394,-136401.24",
        "src_id": "179997",
        "weight": "0.0"
      }
    },
    {
      "type": "Feature",
      "id": "8",
      "geometry": {
        "type": "Point",
        "coordinates": [
          -15.259268,
          -35.213356
        ]
      },
      "properties": {
        "label": "Weight",
        "level": 1,
        "pos": "-29347.503,-97592.545",
        "src_id": "188818",
        "weight": "61216.34166666666"
      }
    },
    {
      "type": "Feature",
      "id": "30",
      "geometry": {
        "type": "Point",
        "coordinates": [
          -13.250431,
          -35.596227
        ]
      },
      "properties": {
        "label": "Thermal burn",
        "level": 2,
        "pos": "-20821.888000000003,-99554.21800000001",
        "src_id": "186899",
        "weight": "9329.625"
      }
    },
    {
      "type": "Feature",
      "id": "170",
      "geometry": {
        "type": "Point",
        "coordinates": [
          -16.472314,
          -34.646182
        ]
      },
      "properties": {
        "label": "Hyperhidrosis",
        "level": 3,
        "pos": "-34495.725999999995,-94703.46800000001",
        "src_id": "178464",
        "weight": "1791.5"
      }
    },
    {
      "type": "Feature",
      "id": "1637",
      "geometry": {
        "type": "Point",
        "coordinates": [
          -26.458097,
          -36.817265
        ]
      },
      "properties": {
        "label": "Exercise lack of",
        "level": 4,
        "pos": "-76875.921,-105874.056",
        "src_id": "176263",
        "weight": "0.0"
      }
    },
    {
      "type": "Feature",
      "id": "1600",
      "geometry": {
        "type": "Point",
        "coordinates": [
          -26.042356,
          -37.338885
        ]
      },
      "properties": {
        "label": "Impatience",
        "level": 4,
        "pos": "-75111.485,-108604.477",
        "src_id": "178801",
        "weight": "0.0"
      }
    },
    {
      "type": "Feature",
      "id": "1301",
      "geometry": {
        "type": "Point",
        "coordinates": [
          -15.088026,
          -34.770202
        ]
      },
      "properties": {
        "label": "Hoodia",
        "level": 4,
        "pos": "-28620.743000000002,-95333.503",
        "src_id": "239827",
        "weight": "0.0"
      }
    },
    {
      "type": "Feature",
      "id": "79",
      "geometry": {
        "type": "Point",
        "coordinates": [
          -35.961174,
          -27.316844
        ]
      },
      "properties": {
        "label": "Dizziness",
        "level": 2,
        "pos": "-117207.482,-58959.744",
        "src_id": "175317",
        "weight": "1923.5"
      }
    },
    {
      "type": "Feature",
      "id": "1409",
      "geometry": {
        "type": "Point",
        "coordinates": [
          -35.772793,
          -25.031065
        ]
      },
      "properties": {
        "label": "Aphagia",
        "level": 4,
        "pos": "-116407.98,-48322.311",
        "src_id": "170723",
        "weight": "0.0"
      }
    },
    {
      "type": "Feature",
      "id": "1395",
      "geometry": {
        "type": "Point",
        "coordinates": [
          -33.774418,
          -25.517199
        ]
      },
      "properties": {
        "label": "Burning sensation",
        "level": 4,
        "pos": "-107926.77,-50567.394",
        "src_id": "172834",
        "weight": "0.0"
      }
    },
    {
      "type": "Feature",
      "id": "1648",
      "geometry": {
        "type": "Point",
        "coordinates": [
          -32.475464,
          -31.693772
        ]
      },
      "properties": {
        "label": "Disorientation",
        "level": 4,
        "pos": "-102413.936,-79970.56999999999",
        "src_id": "175277",
        "weight": "0.0"
      }
    },
    {
      "type": "Feature",
      "id": "1634",
      "geometry": {
        "type": "Point",
        "coordinates": [
          -33.218152,
          -30.737691
        ]
      },
      "properties": {
        "label": "Eye irritation",
        "level": 4,
        "pos": "-105565.946,-75301.84300000001",
        "src_id": "176416",
        "weight": "0.0"
      }
    },
    {
      "type": "Feature",
      "id": "194",
      "geometry": {
        "type": "Point",
        "coordinates": [
          -14.880051,
          -25.187294
        ]
      },
      "properties": {
        "label": "Tachycardia",
        "level": 3,
        "pos": "-27738.076,-49042.833",
        "src_id": "186706",
        "weight": "1826.0"
      }
    },
    {
      "type": "Feature",
      "id": "1780",
      "geometry": {
        "type": "Point",
        "coordinates": [
          -18.884256,
          -15.887912
        ]
      },
      "properties": {
        "label": "Theophylline",
        "level": 3,
        "pos": "-44732.138999999996,-7513.099",
        "src_id": "268",
        "weight": "0.0"
      }
    },
    {
      "type": "Feature",
      "id": "498",
      "geometry": {
        "type": "Point",
        "coordinates": [
          -19.563911,
          -19.224429
        ]
      },
      "properties": {
        "label": "Raynaud's phenomenon",
        "level": 2,
        "pos": "-47616.632000000005,-22130.04",
        "src_id": "184805",
        "weight": "255.0"
      }
    },
    {
      "type": "Feature",
      "id": "270",
      "geometry": {
        "type": "Point",
        "coordinates": [
          -27.278957,
          -31.212815
        ]
      },
      "properties": {
        "label": "Costochondritis",
        "level": 3,
        "pos": "-80359.694,-77616.057",
        "src_id": "174490",
        "weight": "0.0"
      }
    },
    {
      "type": "Feature",
      "id": "1438",
      "geometry": {
        "type": "Point",
        "coordinates": [
          -27.893633,
          -28.281152
        ]
      },
      "properties": {
        "label": "Metoclopramide",
        "level": 4,
        "pos": "-82968.40699999999,-63512.308",
        "src_id": "1217",
        "weight": "0.0"
      }
    },
    {
      "type": "Feature",
      "id": "1551",
      "geometry": {
        "type": "Point",
        "coordinates": [
          -27.430215,
          -30.003233
        ]
      },
      "properties": {
        "label": "Photophobia",
        "level": 4,
        "pos": "-81001.64,-71746.763",
        "src_id": "183449",
        "weight": "0.0"
      }
    },
    {
      "type": "Feature",
      "id": "571",
      "geometry": {
        "type": "Point",
        "coordinates": [
          -14.17534,
          -28.420593
        ]
      },
      "properties": {
        "label": "Hypoglycaemia",
        "level": 4,
        "pos": "-24747.254999999997,-64173.996",
        "src_id": "178590",
        "weight": "0.0"
      }
    },
    {
      "type": "Feature",
      "id": "1183",
      "geometry": {
        "type": "Point",
        "coordinates": [
          -21.140972,
          -24.546558
        ]
      },
      "properties": {
        "label": "Postural orthostatic tachycardia syndrome",
        "level": 4,
        "pos": "-54309.765,-46093.578",
        "src_id": "183964",
        "weight": "0.0"
      }
    },
    {
      "type": "Feature",
      "id": "1327",
      "geometry": {
        "type": "Point",
        "coordinates": [
          -17.959032,
          -25.74249
        ]
      },
      "properties": {
        "label": "Orthostatic intolerance",
        "level": 4,
        "pos": "-40805.444,-51610.914000000004",
        "src_id": "182399",
        "weight": "0.0"
      }
    },
    {
      "type": "Feature",
      "id": "1064",
      "geometry": {
        "type": "Point",
        "coordinates": [
          -11.276398,
          22.114173
        ]
      },
      "properties": {
        "label": "Tonsillectomy",
        "level": 3,
        "pos": "-12443.989,154437.939",
        "src_id": "187153",
        "weight": "1790.0"
      }
    },
    {
      "type": "Feature",
      "id": "625",
      "geometry": {
        "type": "Point",
        "coordinates": [
          -10.428318,
          22.783869
        ]
      },
      "properties": {
        "label": "Breath odour",
        "level": 2,
        "pos": "-8844.693,157464.021",
        "src_id": "172706",
        "weight": "0.0"
      }
    },
    {
      "type": "Feature",
      "id": "1345",
      "geometry": {
        "type": "Point",
        "coordinates": [
          -9.697042,
          24.114364
        ]
      },
      "properties": {
        "label": "Infectious mononucleosis",
        "level": 4,
        "pos": "-5741.124,163520.724",
        "src_id": "178967",
        "weight": "0.0"
      }
    },
    {
      "type": "Feature",
      "id": "379",
      "geometry": {
        "type": "Point",
        "coordinates": [
          -8.224917,
          11.342041
        ]
      },
      "properties": {
        "label": "Elderly",
        "level": 4,
        "pos": "506.661,107382.292",
        "src_id": "175648",
        "weight": "0.0"
      }
    },
    {
      "type": "Feature",
      "id": "790",
      "geometry": {
        "type": "Point",
        "coordinates": [
          -7.473842,
          10.008051
        ]
      },
      "properties": {
        "label": "Poliomyelitis",
        "level": 2,
        "pos": "3694.2560000000003,101713.121",
        "src_id": "183747",
        "weight": "1790.0"
      }
    },
    {
      "type": "Feature",
      "id": "999",
      "geometry": {
        "type": "Point",
        "coordinates": [
          -10.467488,
          12.45235
        ]
      },
      "properties": {
        "label": "Hepatitis A",
        "level": 3,
        "pos": "-9010.929,112120.965",
        "src_id": "177930",
        "weight": "0.0"
      }
    },
    {
      "type": "Feature",
      "id": "651",
      "geometry": {
        "type": "Point",
        "coordinates": [
          -50.680164,
          -13.141219
        ]
      },
      "properties": {
        "label": "Infliximab",
        "level": 2,
        "pos": "-179675.65099999998,4336.914",
        "src_id": "63",
        "weight": "0.0"
      }
    },
    {
      "type": "Feature",
      "id": "250",
      "geometry": {
        "type": "Point",
        "coordinates": [
          -51.366273,
          -15.657286
        ]
      },
      "properties": {
        "label": "Prednisone",
        "level": 2,
        "pos": "-182587.532,-6512.286999999999",
        "src_id": "622",
        "weight": "1790.0"
      }
    },
    {
      "type": "Feature",
      "id": "457",
      "geometry": {
        "type": "Point",
        "coordinates": [
          -47.910456,
          -15.781574
        ]
      },
      "properties": {
        "label": "Methotrexate",
        "level": 2,
        "pos": "-167920.865,-7051.499",
        "src_id": "550",
        "weight": "0.0"
      }
    },
    {
      "type": "Feature",
      "id": "645",
      "geometry": {
        "type": "Point",
        "coordinates": [
          -46.291506,
          -14.037429
        ]
      },
      "properties": {
        "label": "Prednisolone",
        "level": 2,
        "pos": "-161049.951,486.376",
        "src_id": "846",
        "weight": "0.0"
      }
    },
    {
      "type": "Feature",
      "id": "227",
      "geometry": {
        "type": "Point",
        "coordinates": [
          -55.452221,
          -14.555169
        ]
      },
      "properties": {
        "label": "Infusion",
        "level": 2,
        "pos": "-199928.506,-1744.875",
        "src_id": "179021",
        "weight": "3609.0"
      }
    },
    {
      "type": "Feature",
      "id": "1288",
      "geometry": {
        "type": "Point",
        "coordinates": [
          -53.148192,
          -14.524052
        ]
      },
      "properties": {
        "label": "Ipratropium bromide",
        "level": 2,
        "pos": "-190150.087,-1610.6309999999999",
        "src_id": "322",
        "weight": "0.0"
      }
    },
    {
      "type": "Feature",
      "id": "1384",
      "geometry": {
        "type": "Point",
        "coordinates": [
          -54.163705,
          -16.77388
        ]
      },
      "properties": {
        "label": "Cushingoid",
        "level": 4,
        "pos": "-194459.982,-11368.615",
        "src_id": "174732",
        "weight": "0.0"
      }
    },
    {
      "type": "Feature",
      "id": "1096",
      "geometry": {
        "type": "Point",
        "coordinates": [
          -53.261563,
          -19.705367
        ]
      },
      "properties": {
        "label": "Immunodeficiency",
        "level": 4,
        "pos": "-190631.24,-24260.256999999998",
        "src_id": "178769",
        "weight": "0.0"
      }
    },
    {
      "type": "Feature",
      "id": "611",
      "geometry": {
        "type": "Point",
        "coordinates": [
          -48.239264,
          -20.369465
        ]
      },
      "properties": {
        "label": "Polymyositis",
        "level": 2,
        "pos": "-169316.341,-27212.326",
        "src_id": "183780",
        "weight": "0.0"
      }
    },
    {
      "type": "Feature",
      "id": "1156",
      "geometry": {
        "type": "Point",
        "coordinates": [
          -46.056372,
          -20.086051
        ]
      },
      "properties": {
        "label": "Mesalazine",
        "level": 3,
        "pos": "-160052.033,-25950.959000000003",
        "src_id": "235",
        "weight": "0.0"
      }
    },
    {
      "type": "Feature",
      "id": "514",
      "geometry": {
        "type": "Point",
        "coordinates": [
          -47.551447,
          -8.774828
        ]
      },
      "properties": {
        "label": "Encephalitis",
        "level": 2,
        "pos": "-166397.213,22915.030000000002",
        "src_id": "175799",
        "weight": "1790.0"
      }
    },
    {
      "type": "Feature",
      "id": "908",
      "geometry": {
        "type": "Point",
        "coordinates": [
          -47.108022,
          -16.951394
        ]
      },
      "properties": {
        "label": "Vasculitis",
        "level": 4,
        "pos": "-164515.291,-12143.245",
        "src_id": "188335",
        "weight": "0.0"
      }
    },
    {
      "type": "Feature",
      "id": "1790",
      "geometry": {
        "type": "Point",
        "coordinates": [
          -58.913215,
          -18.483266
        ]
      },
      "properties": {
        "label": "Rituximab",
        "level": 3,
        "pos": "-214617.149,-18859.327",
        "src_id": "71",
        "weight": "0.0"
      }
    },
    {
      "type": "Feature",
      "id": "362",
      "geometry": {
        "type": "Point",
        "coordinates": [
          -60.800237,
          -16.067744
        ]
      },
      "properties": {
        "label": "Ketamine",
        "level": 3,
        "pos": "-222625.775,-8294.280999999999",
        "src_id": "1205",
        "weight": "0.0"
      }
    },
    {
      "type": "Feature",
      "id": "475",
      "geometry": {
        "type": "Point",
        "coordinates": [
          -62.48212,
          -15.162499
        ]
      },
      "properties": {
        "label": "Sodium Chloride",
        "level": 2,
        "pos": "-229763.765,-4368.927000000001",
        "src_id": "8096",
        "weight": "3475.0861111111144"
      }
    },
    {
      "type": "Feature",
      "id": "1728",
      "geometry": {
        "type": "Point",
        "coordinates": [
          -60.432044,
          -18.603501
        ]
      },
      "properties": {
        "label": "Belimumab",
        "level": 4,
        "pos": "-221063.136,-19388.938",
        "src_id": "7838",
        "weight": "0.0"
      }
    },
    {
      "type": "Feature",
      "id": "1045",
      "geometry": {
        "type": "Point",
        "coordinates": [
          -57.033439,
          -19.916821
        ]
      },
      "properties": {
        "label": "Formoterol",
        "level": 2,
        "pos": "-206639.278,-25198.865",
        "src_id": "969",
        "weight": "0.0"
      }
    },
    {
      "type": "Feature",
      "id": "702",
      "geometry": {
        "type": "Point",
        "coordinates": [
          -53.450934,
          -24.371577
        ]
      },
      "properties": {
        "label": "Scleroderma",
        "level": 2,
        "pos": "-191434.939,-45290.787000000004",
        "src_id": "185612",
        "weight": "0.0"
      }
    },
    {
      "type": "Feature",
      "id": "1145",
      "geometry": {
        "type": "Point",
        "coordinates": [
          -51.208678,
          -23.600833
        ]
      },
      "properties": {
        "label": "Azathioprine",
        "level": 3,
        "pos": "-181918.69199999998,-41767.79",
        "src_id": "979",
        "weight": "0.0"
      }
    },
    {
      "type": "Feature",
      "id": "483",
      "geometry": {
        "type": "Point",
        "coordinates": [
          -46.155065,
          -7.580625
        ]
      },
      "properties": {
        "label": "Brain injury",
        "level": 2,
        "pos": "-160470.892,27953.505",
        "src_id": "172600",
        "weight": "0.0"
      }
    },
    {
      "type": "Feature",
      "id": "708",
      "geometry": {
        "type": "Point",
        "coordinates": [
          -51.717484,
          -12.251675
        ]
      },
      "properties": {
        "label": "Lumbar puncture",
        "level": 4,
        "pos": "-184078.087,8144.918000000001",
        "src_id": "180161",
        "weight": "0.0"
      }
    },
    {
      "type": "Feature",
      "id": "1638",
      "geometry": {
        "type": "Point",
        "coordinates": [
          -49.724071,
          -11.334376
        ]
      },
      "properties": {
        "label": "Encephalitis autoimmune",
        "level": 4,
        "pos": "-175617.944,12058.331",
        "src_id": "175802",
        "weight": "0.0"
      }
    },
    {
      "type": "Feature",
      "id": "1043",
      "geometry": {
        "type": "Point",
        "coordinates": [
          -62.05167,
          -20.299022
        ]
      },
      "properties": {
        "label": "Heparin",
        "level": 4,
        "pos": "-227936.917,-26898.595",
        "src_id": "1093",
        "weight": "0.0"
      }
    },
    {
      "type": "Feature",
      "id": "1446",
      "geometry": {
        "type": "Point",
        "coordinates": [
          -59.740947,
          -20.479096
        ]
      },
      "properties": {
        "label": "Mometasone",
        "level": 4,
        "pos": "-218130.088,-27700.876",
        "src_id": "750",
        "weight": "0.0"
      }
    },
    {
      "type": "Feature",
      "id": "1271",
      "geometry": {
        "type": "Point",
        "coordinates": [
          -58.743323,
          -19.935729
        ]
      },
      "properties": {
        "label": "Budesonide",
        "level": 2,
        "pos": "-213896.12099999998,-25282.856",
        "src_id": "1206",
        "weight": "0.0"
      }
    },
    {
      "type": "Feature",
      "id": "39",
      "geometry": {
        "type": "Point",
        "coordinates": [
          12.769285,
          10.382815
        ]
      },
      "properties": {
        "label": "Fatigue",
        "level": 2,
        "pos": "89607.15999999999,103303.29500000001",
        "src_id": "176597",
        "weight": "7541.0"
      }
    },
    {
      "type": "Feature",
      "id": "31",
      "geometry": {
        "type": "Point",
        "coordinates": [
          12.767707,
          2.734482
        ]
      },
      "properties": {
        "label": "Somnolence",
        "level": 2,
        "pos": "89600.45599999999,71127.889",
        "src_id": "186129",
        "weight": "5848.416666666666"
      }
    },
    {
      "type": "Feature",
      "id": "452",
      "geometry": {
        "type": "Point",
        "coordinates": [
          12.735992,
          16.878304
        ]
      },
      "properties": {
        "label": "Depressed mood",
        "level": 4,
        "pos": "89465.86,131232.189",
        "src_id": "175022",
        "weight": "0.0"
      }
    },
    {
      "type": "Feature",
      "id": "1233",
      "geometry": {
        "type": "Point",
        "coordinates": [
          10.617863,
          17.411117
        ]
      },
      "properties": {
        "label": "Chronic fatigue syndrome",
        "level": 4,
        "pos": "80476.414,133560.765",
        "src_id": "173696",
        "weight": "0.0"
      }
    },
    {
      "type": "Feature",
      "id": "989",
      "geometry": {
        "type": "Point",
        "coordinates": [
          14.294127,
          16.335007
        ]
      },