{
  "type": "FeatureCollection",
  "features": [
    {
      "type": "Feature",
      "id": "114",
      "geometry": {
        "type": "Point",
        "coordinates": [
          1.702084,
          -3.952405
        ]
      },
      "properties": {
        "label": "Leuprolide",
        "level": 2,
        "pos": "114674.55699999999,-125116.93",
        "src_id": "7",
        "weight": "45902.0"
      }
    },
    {
      "type": "Feature",
      "id": "1356",
      "geometry": {
        "type": "Point",
        "coordinates": [
          2.892471,
          -4.708824
        ]
      },
      "properties": {
        "label": "Endometriosis",
        "level": 3,
        "pos": "120628.34700000001,-129270.95",
        "src_id": "175911",
        "weight": "0.0"
      }
    },
    {
      "type": "Feature",
      "id": "1226",
      "geometry": {
        "type": "Point",
        "coordinates": [
          4.23104,
          -2.091791
        ]
      },
      "properties": {
        "label": "Hormone therapy",
        "level": 3,
        "pos": "127323.282,-114913.61499999999",
        "src_id": "178307",
        "weight": "0.0"
      }
    },
    {
      "type": "Feature",
      "id": "94",
      "geometry": {
        "type": "Point",
        "coordinates": [
          4.513106,
          -5.724984
        ]
      },
      "properties": {
        "label": "Hysterectomy",
        "level": 2,
        "pos": "128734.05,-134858.638",
        "src_id": "178681",
        "weight": "37994.0"
      }
    },
    {
      "type": "Feature",
      "id": "1016",
      "geometry": {
        "type": "Point",
        "coordinates": [
          5.464128,
          -1.312844
        ]
      },
      "properties": {
        "label": "Night sweats",
        "level": 3,
        "pos": "133490.644,-110646.195",
        "src_id": "181827",
        "weight": "0.0"
      }
    },
    {
      "type": "Feature",
      "id": "242",
      "geometry": {
        "type": "Point",
        "coordinates": [
          0.271068,
          1.190282
        ]
      },
      "properties": {
        "label": "Progesterone",
        "level": 2,
        "pos": "107517.25,-96938.045",
        "src_id": "184202",
        "weight": "49799.0"
      }
    },
    {
      "type": "Feature",
      "id": "204",
      "geometry": {
        "type": "Point",
        "coordinates": [
          7.250671,
          -3.038369
        ]
      },
      "properties": {
        "label": "Conjugated estrogens",
        "level": 2,
        "pos": "142426.142,-120102.30900000001",
        "src_id": "277",
        "weight": "30069.0"
      }
    },
    {
      "type": "Feature",
      "id": "1765",
      "geometry": {
        "type": "Point",
        "coordinates": [
          0.991529,
          -5.984154
        ]
      },
      "properties": {
        "label": "Duck",
        "level": 4,
        "pos": "111120.67899999999,-136285.293",
        "src_id": "8660",
        "weight": "0.0"
      }
    },
    {
      "type": "Feature",
      "id": "695",
      "geometry": {
        "type": "Point",
        "coordinates": [
          2.259994,
          -5.178846
        ]
      },
      "properties": {
        "label": "Uterine cancer",
        "level": 4,
        "pos": "117464.98300000001,-131854.396",
        "src_id": "188072",
        "weight": "0.0"
      }
    },
    {
      "type": "Feature",
      "id": "693",
      "geometry": {
        "type": "Point",
        "coordinates": [
          2.465176,
          -5.658825
        ]
      },
      "properties": {
        "label": "Uterine leiomyoma",
        "level": 4,
        "pos": "118491.212,-134494.559",
        "src_id": "188107",
        "weight": "0.0"
      }
    },
    {
      "type": "Feature",
      "id": "55",
      "geometry": {
        "type": "Point",
        "coordinates": [
          -5.314291,
          1.017067
        ]
      },
      "properties": {
        "label": "Progesterone",
        "level": 1,
        "pos": "79581.75,-97886.743",
        "src_id": "385",
        "weight": "67618.0"
      }
    },
    {
      "type": "Feature",
      "id": "1653",
      "geometry": {
        "type": "Point",
        "coordinates": [
          -1.347092,
          0.729588
        ]
      },
      "properties": {
        "label": "Anovulatory cycle",
        "level": 4,
        "pos": "99423.92700000001,-99461.145",
        "src_id": "170456",
        "weight": "0.0"
      }
    },
    {
      "type": "Feature",
      "id": "352",
      "geometry": {
        "type": "Point",
        "coordinates": [
          7.166151,
          -6.469341
        ]
      },
      "properties": {
        "label": "Desipramine",
        "level": 2,
        "pos": "142003.40600000002,-138957.939",
        "src_id": "1135",
        "weight": "18071.0"
      }
    },
    {
      "type": "Feature",
      "id": "1647",
      "geometry": {
        "type": "Point",
        "coordinates": [
          3.712711,
          -7.239586
        ]
      },
      "properties": {
        "label": "Anxiety disorder",
        "level": 3,
        "pos": "124730.829,-143206.182",
        "src_id": "170662",
        "weight": "0.0"
      }
    },
    {
      "type": "Feature",
      "id": "267",
      "geometry": {
        "type": "Point",
        "coordinates": [
          4.213571,
          -7.737174
        ]
      },
      "properties": {
        "label": "Major depression",
        "level": 3,
        "pos": "127235.90699999999,-145954.40899999999",
        "src_id": "180375",
        "weight": "6041.0"
      }
    },
    {
      "type": "Feature",
      "id": "104",
      "geometry": {
        "type": "Point",
        "coordinates": [
          -7.582978,
          5.579277
        ]
      },
      "properties": {
        "label": "Blood oestrogen",
        "level": 1,
        "pos": "68234.784,-72856.084",
        "src_id": "172274",
        "weight": "91024.0"
      }
    },
    {
      "type": "Feature",
      "id": "1933",
      "geometry": {
        "type": "Point",
        "coordinates": [
          -3.831447,
          2.037513
        ]
      },
      "properties": {
        "label": "Medroxyprogesterone acetate",
        "level": 3,
        "pos": "86998.279,-92296.74",
        "src_id": "590",
        "weight": "0.0"
      }
    },
    {
      "type": "Feature",
      "id": "1668",
      "geometry": {
        "type": "Point",
        "coordinates": [
          -2.128542,
          -3.723667
        ]
      },
      "properties": {
        "label": "Amenorrhoea",
        "level": 3,
        "pos": "95515.462,-123861.552",
        "src_id": "170117",
        "weight": "0.0"
      }
    },
    {
      "type": "Feature",
      "id": "129",
      "geometry": {
        "type": "Point",
        "coordinates": [
          -0.431605,
          -1.213639
        ]
      },
      "properties": {
        "label": "Menopause",
        "level": 3,
        "pos": "104002.794,-110102.816",
        "src_id": "180770",
        "weight": "6042.0"
      }
    },
    {
      "type": "Feature",
      "id": "1086",
      "geometry": {
        "type": "Point",
        "coordinates": [
          -3.721124,
          -3.799131
        ]
      },
      "properties": {
        "label": "Menorrhagia",
        "level": 3,
        "pos": "87550.065,-124275.677",
        "src_id": "180772",
        "weight": "0.0"
      }
    },
    {
      "type": "Feature",
      "id": "654",
      "geometry": {
        "type": "Point",
        "coordinates": [
          -3.862512,
          -0.453922
        ]
      },
      "properties": {
        "label": "Chasteberry",
        "level": 3,
        "pos": "86842.913,-105942.161",
        "src_id": "239745",
        "weight": "0.0"
      }
    },
    {
      "type": "Feature",
      "id": "606",
      "geometry": {
        "type": "Point",
        "coordinates": [
          6.496524,
          -7.857918
        ]
      },
      "properties": {
        "label": "Warfarin",
        "level": 2,
        "pos": "138654.228,-146621.768",
        "src_id": "668",
        "weight": "14063.0"
      }
    },
    {
      "type": "Feature",
      "id": "1056",
      "geometry": {
        "type": "Point",
        "coordinates": [
          6.073722,
          -7.310966
        ]
      },
      "properties": {
        "label": "Muscle atrophy",
        "level": 4,
        "pos": "136539.556,-143600.231",
        "src_id": "181237",
        "weight": "0.0"
      }
    },
    {
      "type": "Feature",
      "id": "537",
      "geometry": {
        "type": "Point",
        "coordinates": [
          5.461145,
          -8.813845
        ]
      },
      "properties": {
        "label": "Affective disorder",
        "level": 3,
        "pos": "133475.718,-151912.362",
        "src_id": "169893",
        "weight": "2015.0"
      }
    },
    {
      "type": "Feature",
      "id": "761",
      "geometry": {
        "type": "Point",
        "coordinates": [
          7.532509,
          -11.102899
        ]
      },
      "properties": {
        "label": "Suicide attempt",
        "level": 4,
        "pos": "143835.771,-164639.808",
        "src_id": "186549",
        "weight": "0.0"
      }
    },
    {
      "type": "Feature",
      "id": "1909",
      "geometry": {
        "type": "Point",
        "coordinates": [
          -3.09746,
          4.092792
        ]
      },
      "properties": {
        "label": "Estradiol",
        "level": 3,
        "pos": "90669.364,-81025.35399999999",
        "src_id": "769",
        "weight": "0.0"
      }
    },
    {
      "type": "Feature",
      "id": "1228",
      "geometry": {
        "type": "Point",
        "coordinates": [
          -3.633815,
          6.72757
        ]
      },
      "properties": {
        "label": "Hormone level abnormal",
        "level": 4,
        "pos": "87986.754,-66531.511",
        "src_id": "178304",
        "weight": "0.0"
      }
    },
    {
      "type": "Feature",
      "id": "1224",
      "geometry": {
        "type": "Point",
        "coordinates": [
          -1.702309,
          -2.9542
        ]
      },
      "properties": {
        "label": "Hot flush",
        "level": 4,
        "pos": "97647.286,-119640.769",
        "src_id": "178313",
        "weight": "0.0"
      }
    },
    {
      "type": "Feature",
      "id": "1038",
      "geometry": {
        "type": "Point",
        "coordinates": [
          -0.662665,
          -6.459446
        ]
      },
      "properties": {
        "label": "Nasal congestion",
        "level": 4,
        "pos": "102847.128,-138903.40699999998",
        "src_id": "181485",
        "weight": "0.0"
      }
    },
    {
      "type": "Feature",
      "id": "881",
      "geometry": {
        "type": "Point",
        "coordinates": [
          0.233684,
          -1.809038
        ]
      },
      "properties": {
        "label": "Puberty",
        "level": 4,
        "pos": "107330.272,-113364.36",
        "src_id": "184462",
        "weight": "0.0"
      }
    },
    {
      "type": "Feature",
      "id": "2017",
      "geometry": {
        "type": "Point",
        "coordinates": [
          -57.159324,
          -6.098071
        ]
      },
      "properties": {
        "label": "Lutropin alfa",
        "level": 3,
        "pos": "-179724.19700000001,-136912.575",
        "src_id": "43",
        "weight": "0.0"
      }
    },
    {
      "type": "Feature",
      "id": "18",
      "geometry": {
        "type": "Point",
        "coordinates": [
          -57.882418,
          -7.409607
        ]
      },
      "properties": {
        "label": "Polycystic ovaries",
        "level": 2,
        "pos": "-183340.79700000002,-144144.866",
        "src_id": "183761",
        "weight": "22110.0"
      }
    },
    {
      "type": "Feature",
      "id": "1833",
      "geometry": {
        "type": "Point",
        "coordinates": [
          -58.800554,
          -8.858414
        ]
      },
      "properties": {
        "label": "gamma-Aminobutyric acid",
        "level": 4,
        "pos": "-187932.913,-152159.348",
        "src_id": "2399",
        "weight": "0.0"
      }
    },
    {
      "type": "Feature",
      "id": "1819",
      "geometry": {
        "type": "Point",
        "coordinates": [
          -61.290822,
          -10.191936
        ]
      },
      "properties": {
        "label": "Talampanel",
        "level": 4,
        "pos": "-200388.13400000002,-159563.94900000002",
        "src_id": "4691",
        "weight": "0.0"
      }
    },
    {
      "type": "Feature",
      "id": "275",
      "geometry": {
        "type": "Point",
        "coordinates": [
          -57.21006,
          -4.312689
        ]
      },
      "properties": {
        "label": "Infertility",
        "level": 2,
        "pos": "-179977.96099999998,-127094.98000000001",
        "src_id": "178985",
        "weight": "28052.0"
      }
    },
    {
      "type": "Feature",
      "id": "1566",
      "geometry": {
        "type": "Point",
        "coordinates": [
          -60.410918,
          -12.137527
        ]
      },
      "properties": {
        "label": "Body mass index",
        "level": 4,
        "pos": "-195987.237,-170424.03999999998",
        "src_id": "172442",
        "weight": "0.0"
      }
    },
    {
      "type": "Feature",
      "id": "1408",
      "geometry": {
        "type": "Point",
        "coordinates": [
          -61.90763,
          -11.194763
        ]
      },
      "properties": {
        "label": "Drug level",
        "level": 4,
        "pos": "-203473.134,-165152.527",
        "src_id": "175379",
        "weight": "0.0"
      }
    },
    {
      "type": "Feature",
      "id": "1227",
      "geometry": {
        "type": "Point",
        "coordinates": [
          -62.324926,
          -8.762094
        ]
      },
      "properties": {
        "label": "Hormone replacement therapy",
        "level": 4,
        "pos": "-205560.264,-151625.607",
        "src_id": "178305",
        "weight": "0.0"
      }
    },
    {
      "type": "Feature",
      "id": "1169",
      "geometry": {
        "type": "Point",
        "coordinates": [
          -62.688049,
          -9.256102
        ]
      },
      "properties": {
        "label": "Insulin resistance",
        "level": 4,
        "pos": "-207376.438,-154364.576",
        "src_id": "179186",
        "weight": "0.0"
      }
    },
    {
      "type": "Feature",
      "id": "1084",
      "geometry": {
        "type": "Point",
        "coordinates": [
          -59.016139,
          -11.726246
        ]
      },
      "properties": {
        "label": "Menstruation irregular",
        "level": 4,
        "pos": "-189011.165,-168122.142",
        "src_id": "180777",
        "weight": "0.0"
      }
    },
    {
      "type": "Feature",
      "id": "702",
      "geometry": {
        "type": "Point",
        "coordinates": [
          -58.985391,
          -10.487908
        ]
      },
      "properties": {
        "label": "Ultrasound scan",
        "level": 4,
        "pos": "-188857.38499999998,-161211.435",
        "src_id": "187624",
        "weight": "0.0"
      }
    },
    {
      "type": "Feature",
      "id": "692",
      "geometry": {
        "type": "Point",
        "coordinates": [
          -57.514435,
          -10.916014
        ]
      },
      "properties": {
        "label": "Vaginismus",
        "level": 4,
        "pos": "-181500.31000000003,-163597.237",
        "src_id": "188244",
        "weight": "0.0"
      }
    },
    {
      "type": "Feature",
      "id": "664",
      "geometry": {
        "type": "Point",
        "coordinates": [
          -59.719338,
          -11.275561
        ]
      },
      "properties": {
        "label": "Vulvovaginal dryness",
        "level": 4,
        "pos": "-192528.259,-165603.615",
        "src_id": "188768",
        "weight": "0.0"
      }
    },
    {
      "type": "Feature",
      "id": "177",
      "geometry": {
        "type": "Point",
        "coordinates": [
          -52.216018,
          -1.346352
        ]
      },
      "properties": {
        "label": "Cod",
        "level": 1,
        "pos": "-154999.97,-110829.742",
        "src_id": "8995",
        "weight": "108494.0"
      }
    },
    {
      "type": "Feature",
      "id": "452",
      "geometry": {
        "type": "Point",
        "coordinates": [
          -55.655012,
          -3.513314
        ]
      },
      "properties": {
        "label": "Infertility male",
        "level": 3,
        "pos": "-172200.30399999997,-122707.356",
        "src_id": "178987",
        "weight": "2015.0"
      }
    },
    {
      "type": "Feature",
      "id": "479",
      "geometry": {
        "type": "Point",
        "coordinates": [
          -51.618772,
          -2.701038
        ]
      },
      "properties": {
        "label": "Erythema",
        "level": 1,
        "pos": "-152012.806,-118252.771",
        "src_id": "176163",
        "weight": "75164.0"
      }
    },
    {
      "type": "Feature",
      "id": "1400",
      "geometry": {
        "type": "Point",
        "coordinates": [
          -55.341456,
          -4.411085
        ]
      },
      "properties": {
        "label": "Dry skin",
        "level": 4,
        "pos": "-170632.032,-127635.359",
        "src_id": "175421",
        "weight": "0.0"
      }
    },
    {
      "type": "Feature",
      "id": "780",
      "geometry": {
        "type": "Point",
        "coordinates": [
          -56.345649,
          -8.137349
        ]
      },
      "properties": {
        "label": "Sperm concentration",
        "level": 4,
        "pos": "-175654.56399999998,-148166.956",
        "src_id": "186156",
        "weight": "0.0"
      }
    },
    {
      "type": "Feature",
      "id": "2016",
      "geometry": {
        "type": "Point",
        "coordinates": [
          -51.137222,
          28.748172
        ]
      },
      "properties": {
        "label": "Somatotropin",
        "level": 3,
        "pos": "-149604.30500000002,61021.962",
        "src_id": "51",
        "weight": "0.0"
      }
    },
    {
      "type": "Feature",
      "id": "13",
      "geometry": {
        "type": "Point",
        "coordinates": [
          -46.45902,
          25.864367
        ]
      },
      "properties": {
        "label": "Carbamazepine",
        "level": 2,
        "pos": "-126206.011,43247.039000000004",
        "src_id": "551",
        "weight": "32120.0"
      }
    },
    {
      "type": "Feature",
      "id": "2013",
      "geometry": {
        "type": "Point",
        "coordinates": [
          -51.768504,
          28.294404
        ]
      },
      "properties": {
        "label": "Cyclosporine",
        "level": 3,
        "pos": "-152761.699,58193.91",
        "src_id": "86",
        "weight": "0.0"
      }
    },
    {
      "type": "Feature",
      "id": "6",
      "geometry": {
        "type": "Point",
        "coordinates": [
          -36.694837,
          25.863
        ]
      },
      "properties": {
        "label": "Valproic Acid",
        "level": 1,
        "pos": "-77369.879,43238.71599999999",
        "src_id": "304",
        "weight": "153562.0"
      }
    },
    {
      "type": "Feature",
      "id": "1980",
      "geometry": {
        "type": "Point",
        "coordinates": [
          -51.419263,
          27.921655
        ]
      },
      "properties": {
        "label": "Theophylline",
        "level": 3,
        "pos": "-151014.952,55879.822",
        "src_id": "268",
        "weight": "0.0"
      }
    },
    {
      "type": "Feature",
      "id": "1878",
      "geometry": {
        "type": "Point",
        "coordinates": [
          -53.408894,
          27.241946
        ]
      },
      "properties": {
        "label": "Hydrochlorothiazide",
        "level": 3,
        "pos": "-160966.21,51680.462",
        "src_id": "985",
        "weight": "0.0"
      }
    },
    {
      "type": "Feature",
      "id": "1858",
      "geometry": {
        "type": "Point",
        "coordinates": [
          -50.821573,
          27.340208
        ]
      },
      "properties": {
        "label": "Clarithromycin",
        "level": 3,
        "pos": "-148025.57100000003,52285.944",
        "src_id": "1195",
        "weight": "0.0"
      }
    },
    {
      "type": "Feature",
      "id": "1815",
      "geometry": {
        "type": "Point",
        "coordinates": [
          -52.761186,
          26.845157
        ]
      },
      "properties": {
        "label": "Brivaracetam",
        "level": 3,
        "pos": "-157726.656,49240.909999999996",
        "src_id": "5144",
        "weight": "0.0"
      }
    },
    {
      "type": "Feature",
      "id": "1685",
      "geometry": {
        "type": "Point",
        "coordinates": [
          -52.813604,
          24.491237
        ]
      },
      "properties": {
        "label": "Agranulocytosis",
        "level": 3,
        "pos": "-157988.831,34938.136",
        "src_id": "169910",
        "weight": "0.0"
      }
    },
    {
      "type": "Feature",
      "id": "1648",
      "geometry": {
        "type": "Point",
        "coordinates": [
          -51.194225,
          26.430315
        ]
      },
      "properties": {
        "label": "Antisocial behaviour",
        "level": 3,
        "pos": "-149889.407,46699.486",
        "src_id": "170646",
        "weight": "0.0"
      }
    },
    {
      "type": "Feature",
      "id": "1641",
      "geometry": {
        "type": "Point",
        "coordinates": [
          -53.248524,
          24.913634
        ]
      },
      "properties": {
        "label": "Appendicitis",
        "level": 3,
        "pos": "-160164.112,37484.165",
        "src_id": "170775",
        "weight": "0.0"
      }
    },
    {
      "type": "Feature",
      "id": "1281",
      "geometry": {
        "type": "Point",
        "coordinates": [
          -55.084856,
          26.071504
        ]
      },
      "properties": {
        "label": "Gingivectomy",
        "level": 3,
        "pos": "-169348.629,44508.697",
        "src_id": "177370",
        "weight": "0.0"
      }
    },
    {
      "type": "Feature",
      "id": "1096",
      "geometry": {
        "type": "Point",
        "coordinates": [
          -53.722439,
          26.460597
        ]
      },
      "properties": {
        "label": "Medication error",
        "level": 3,
        "pos": "-162534.41799999998,46884.69",
        "src_id": "180661",
        "weight": "0.0"
      }
    },
    {
      "type": "Feature",
      "id": "1025",
      "geometry": {
        "type": "Point",
        "coordinates": [
          -49.91277,
          26.027084
        ]
      },
      "properties": {
        "label": "Neurocysticercosis",
        "level": 3,
        "pos": "-143480.143,44237.951",
        "src_id": "181717",
        "weight": "0.0"
      }
    },
    {
      "type": "Feature",
      "id": "968",
      "geometry": {
        "type": "Point",
        "coordinates": [
          -51.156548,
          25.043617
        ]
      },
      "properties": {
        "label": "Paraesthesia oral",
        "level": 3,
        "pos": "-149700.966,38269.397",
        "src_id": "182791",
        "weight": "0.0"
      }
    },
    {
      "type": "Feature",
      "id": "891",
      "geometry": {
        "type": "Point",
        "coordinates": [
          -52.757477,
          25.680521
        ]
      },
      "properties": {
        "label": "Pruritus generalised",
        "level": 3,
        "pos": "-157708.106,42129.095",
        "src_id": "184368",
        "weight": "0.0"
      }
    },
    {
      "type": "Feature",
      "id": "740",
      "geometry": {
        "type": "Point",
        "coordinates": [
          -55.060754,
          25.299555
        ]
      },
      "properties": {
        "label": "Therapeutic response unexpected",
        "level": 3,
        "pos": "-169228.084,39817.969",
        "src_id": "186892",
        "weight": "0.0"
      }
    },
    {
      "type": "Feature",
      "id": "691",
      "geometry": {
        "type": "Point",
        "coordinates": [
          -49.548112,
          25.443881
        ]
      },
      "properties": {
        "label": "Vaginitis bacterial",
        "level": 3,
        "pos": "-141656.28100000002,40692.659999999996",
        "src_id": "188245",
        "weight": "0.0"
      }
    },
    {
      "type": "Feature",
      "id": "5",
      "geometry": {
        "type": "Point",
        "coordinates": [
          -26.883559,
          23.960586
        ]
      },
      "properties": {
        "label": "Lamotrigine",
        "level": 1,
        "pos": "-28298.199,31751.677",
        "src_id": "542",
        "weight": "577428.0"
      }
    },
    {
      "type": "Feature",
      "id": "17",
      "geometry": {
        "type": "Point",
        "coordinates": [
          -45.018771,
          24.514057
        ]
      },
      "properties": {
        "label": "Topiramate",
        "level": 1,
        "pos": "-119002.523,35075.467000000004",
        "src_id": "264",
        "weight": "57946.0"
      }
    },
    {
      "type": "Feature",
      "id": "595",
      "geometry": {
        "type": "Point",
        "coordinates": [
          -38.338797,
          23.442732
        ]
      },
      "properties": {
        "label": "Gabapentin",
        "level": 3,
        "pos": "-85592.239,28654.677",
        "src_id": "982",
        "weight": "6039.0"
      }
    },
    {
      "type": "Feature",
      "id": "607",
      "geometry": {
        "type": "Point",
        "coordinates": [
          -36.17308,
          23.649488
        ]
      },
      "properties": {
        "label": "Ethosuximide",
        "level": 3,
        "pos": "-74760.277,29889.703999999998",
        "src_id": "580",
        "weight": "2015.0"
      }
    },
    {
      "type": "Feature",
      "id": "193",
      "geometry": {
        "type": "Point",
        "coordinates": [
          -38.753534,
          22.863953
        ]
      },
      "properties": {
        "label": "Zonisamide",
        "level": 3,
        "pos": "-87666.568,25207.639",
        "src_id": "895",
        "weight": "6042.0"
      }
    },
    {
      "type": "Feature",
      "id": "1826",
      "geometry": {
        "type": "Point",
        "coordinates": [
          -28.421756,
          30.363669
        ]
      },
      "properties": {
        "label": "Valpromide",
        "level": 3,
        "pos": "-35991.582,71192.28",
        "src_id": "3926",
        "weight": "0.0"
      }
    },
    {
      "type": "Feature",
      "id": "1780",
      "geometry": {
        "type": "Point",
        "coordinates": [
          -29.784727,
          27.492524
        ]
      },
      "properties": {
        "label": "Lettuce",
        "level": 3,
        "pos": "-42808.556000000004,53225.545",
        "src_id": "8609",
        "weight": "0.0"
      }
    },
    {
      "type": "Feature",
      "id": "1734",
      "geometry": {
        "type": "Point",
        "coordinates": [
          -29.763744,
          27.048752
        ]
      },
      "properties": {
        "label": "Quahog",
        "level": 3,
        "pos": "-42703.606,50491.577",
        "src_id": "8994",
        "weight": "0.0"
      }
    },
    {
      "type": "Feature",
      "id": "1587",
      "geometry": {
        "type": "Point",
        "coordinates": [
          -28.33813,
          29.142251
        ]
      },
      "properties": {
        "label": "Bleeding time",
        "level": 3,
        "pos": "-35573.324,63487.977",
        "src_id": "171874",
        "weight": "0.0"
      }
    },
    {
      "type": "Feature",
      "id": "1343",
      "geometry": {
        "type": "Point",
        "coordinates": [
          -26.248037,
          28.451891
        ]
      },
      "properties": {
        "label": "Exophthalmos",
        "level": 3,
        "pos": "-25119.596999999998,59174.045",
        "src_id": "176276",
        "weight": "0.0"
      }
    },
    {
      "type": "Feature",
      "id": "48",
      "geometry": {
        "type": "Point",
        "coordinates": [
          -40.311838,
          23.389827
        ]
      },
      "properties": {
        "label": "Fatigue",
        "level": 2,
        "pos": "-95460.518,28338.966",
        "src_id": "176597",
        "weight": "12075.0"
      }
    },
    {
      "type": "Feature",
      "id": "1325",
      "geometry": {
        "type": "Point",
        "coordinates": [
          -27.206942,
          29.95323
        ]
      },
      "properties": {
        "label": "Fear of weight gain",
        "level": 3,
        "pos": "-29915.623,68592.861",
        "src_id": "176612",
        "weight": "0.0"
      }
    },
    {
      "type": "Feature",
      "id": "1242",
      "geometry": {
        "type": "Point",
        "coordinates": [
          -31.464577,
          27.434324
        ]
      },
      "properties": {
        "label": "Hepatic steatosis",
        "level": 3,
        "pos": "-51210.433000000005,52866.37",
        "src_id": "177922",
        "weight": "0.0"
      }
    },
    {
      "type": "Feature",
      "id": "1238",
      "geometry": {
        "type": "Point",
        "coordinates": [
          -28.955417,
          27.867577
        ]
      },
      "properties": {
        "label": "Hepatotoxicity",
        "level": 3,
        "pos": "-38660.719,55544.755000000005",
        "src_id": "178055",
        "weight": "0.0"
      }
    },
    {
      "type": "Feature",
      "id": "1166",
      "geometry": {
        "type": "Point",
        "coordinates": [
          -26.026278,
          29.530655
        ]
      },
      "properties": {
        "label": "Intermittent explosive disorder",
        "level": 3,
        "pos": "-24010.457,65927.755",
        "src_id": "179235",
        "weight": "0.0"
      }
    },
    {
      "type": "Feature",
      "id": "1152",
      "geometry": {
        "type": "Point",
        "coordinates": [
          -32.701486,
          27.017927
        ]
      },
      "properties": {
        "label": "Joint swelling",
        "level": 3,
        "pos": "-57396.896,50302.081",
        "src_id": "179528",
        "weight": "0.0"
      }
    },
    {
      "type": "Feature",
      "id": "929",
      "geometry": {
        "type": "Point",
        "coordinates": [
          -30.408311,
          26.632655
        ]
      },
      "properties": {
        "label": "Platelet function test abnormal",
        "level": 3,
        "pos": "-45927.453,47937.922999999995",
        "src_id": "183608",
        "weight": "0.0"
      }
    },
    {
      "type": "Feature",
      "id": "800",
      "geometry": {
        "type": "Point",
        "coordinates": [
          -26.644082,
          29.12462
        ]
      },
      "properties": {
        "label": "Skin cancer",
        "level": 3,
        "pos": "-27100.435999999998,63377.451",
        "src_id": "185925",
        "weight": "0.0"
      }
    },
    {
      "type": "Feature",
      "id": "744",
      "geometry": {
        "type": "Point",
        "coordinates": [
          -28.775867,
          28.745521
        ]
      },
      "properties": {
        "label": "Teratogenicity",
        "level": 3,
        "pos": "-37762.69,61005.397000000004",
        "src_id": "186774",
        "weight": "0.0"
      }
    },
    {
      "type": "Feature",
      "id": "722",
      "geometry": {
        "type": "Point",
        "coordinates": [
          -28.495647,
          28.317871
        ]
      },
      "properties": {
        "label": "Toxic nodular goitre",
        "level": 3,
        "pos": "-36361.153,58339.874",
        "src_id": "187223",
        "weight": "0.0"
      }
    },
    {
      "type": "Feature",
      "id": "354",
      "geometry": {
        "type": "Point",
        "coordinates": [
          -20.178911,
          25.715722
        ]
      },
      "properties": {
        "label": "Clonazepam",
        "level": 1,
        "pos": "5235.495,42343.015",
        "src_id": "1052",
        "weight": "94511.0"
      }
    },
    {
      "type": "Feature",
      "id": "20",
      "geometry": {
        "type": "Point",
        "coordinates": [
          -32.512393,
          20.179811
        ]
      },
      "properties": {
        "label": "Phenytoin",
        "level": 2,
        "pos": "-56451.142,9405.84",
        "src_id": "243",
        "weight": "51945.0"
      }
    },
    {
      "type": "Feature",
      "id": "1972",
      "geometry": {
        "type": "Point",
        "coordinates": [
          -20.808572,
          26.644671
        ]
      },
      "properties": {
        "label": "Atenolol",
        "level": 3,
        "pos": "2086.1969999999997,48011.528",
        "src_id": "325",
        "weight": "0.0"
      }
    },
    {
      "type": "Feature",
      "id": "93",
      "geometry": {
        "type": "Point",
        "coordinates": [
          -21.967375,
          24.964343
        ]
      },
      "properties": {
        "label": "Insomnia",
        "level": 2,
        "pos": "-3709.625,37790.405999999995",
        "src_id": "179162",
        "weight": "18084.0"
      }
    },
    {
      "type": "Feature",
      "id": "1867",
      "geometry": {
        "type": "Point",
        "coordinates": [
          -23.055372,
          26.102385
        ]
      },
      "properties": {
        "label": "Orlistat",
        "level": 3,
        "pos": "-9151.300000000001,44696.98",
        "src_id": "1067",
        "weight": "0.0"
      }
    },
    {
      "type": "Feature",
      "id": "1593",
      "geometry": {
        "type": "Point",
        "coordinates": [
          -21.08654,
          26.132842
        ]
      },
      "properties": {
        "label": "Bipolar II disorder",
        "level": 3,
        "pos": "695.928,44882.728",
        "src_id": "171761",
        "weight": "0.0"
      }
    },
    {
      "type": "Feature",
      "id": "1473",
      "geometry": {
        "type": "Point",
        "coordinates": [
          -22.90073,
          28.355651
        ]
      },
      "properties": {
        "label": "Compression fracture",
        "level": 3,
        "pos": "-8377.845000000001,58574.918",
        "src_id": "174029",
        "weight": "0.0"
      }
    },
    {
      "type": "Feature",
      "id": "15",
      "geometry": {
        "type": "Point",
        "coordinates": [
          -34.435929,
          20.901331
        ]
      },
      "properties": {
        "label": "Dizziness",
        "level": 1,
        "pos": "-66071.815,13625.152999999998",
        "src_id": "175317",
        "weight": "95291.0"
      }
    },
    {
      "type": "Feature",
      "id": "1410",
      "geometry": {
        "type": "Point",
        "coordinates": [
          -22.401506,
          27.966524
        ]
      },
      "properties": {
        "label": "Drug eruption",
        "level": 3,
        "pos": "-5880.947,56157.950999999994",
        "src_id": "175369",
        "weight": "0.0"
      }
    },
    {
      "type": "Feature",
      "id": "1284",
      "geometry": {
        "type": "Point",
        "coordinates": [
          -22.429891,
          27.527627
        ]
      },
      "properties": {
        "label": "Gingival bleeding",
        "level": 3,
        "pos": "-6022.92,53442.281",
        "src_id": "177347",
        "weight": "0.0"
      }
    },
    {
      "type": "Feature",
      "id": "1266",
      "geometry": {
        "type": "Point",
        "coordinates": [
          -25.048573,
          26.446633
        ]
      },
      "properties": {
        "label": "Haematochezia",
        "level": 3,
        "pos": "-19120.405000000002,46799.278999999995",
        "src_id": "177588",
        "weight": "0.0"
      }
    },
    {
      "type": "Feature",
      "id": "1085",
      "geometry": {
        "type": "Point",
        "coordinates": [
          -23.989663,
          26.987463
        ]
      },
      "properties": {
        "label": "Menstruation delayed",
        "level": 3,
        "pos": "-13824.212,50114.849",
        "src_id": "180776",
        "weight": "0.0"
      }
    },
    {
      "type": "Feature",
      "id": "1072",
      "geometry": {
        "type": "Point",
        "coordinates": [
          -22.818774,
          25.669527
        ]
      },
      "properties": {
        "label": "Middle aged",
        "level": 3,
        "pos": "-7967.94,42062.302",
        "src_id": "180984",
        "weight": "0.0"
      }
    },
    {
      "type": "Feature",
      "id": "1062",
      "geometry": {
        "type": "Point",
        "coordinates": [
          -22.772158,
          26.522003
        ]
      },
      "properties": {
        "label": "Multi-organ failure",
        "level": 3,
        "pos": "-7734.788,47260.398",
        "src_id": "181188",
        "weight": "0.0"
      }
    },
    {
      "type": "Feature",
      "id": "1054",
      "geometry": {
        "type": "Point",
        "coordinates": [
          -24.914747,
          27.377424
        ]
      },
      "properties": {
        "label": "Muscle contracture",
        "level": 3,
        "pos": "-18451.073999999997,52515.397",
        "src_id": "181240",
        "weight": "0.0"
      }
    },
    {
      "type": "Feature",
      "id": "1028",
      "geometry": {
        "type": "Point",
        "coordinates": [
          -25.619511,
          27.98504
        ]
      },
      "properties": {
        "label": "Nephrotic syndrome",
        "level": 3,
        "pos": "-21975.994,56272.761000000006",
        "src_id": "181675",
        "weight": "0.0"
      }
    },
    {
      "type": "Feature",
      "id": "21",
      "geometry": {
        "type": "Point",
        "coordinates": [
          -29.129055,
          19.420568
        ]
      },
      "properties": {
        "label": "Rash",
        "level": 1,
        "pos": "-39529.178,4986.959",
        "src_id": "184786",
        "weight": "63827.0"
      }
    },
    {
      "type": "Feature",
      "id": "638",
      "geometry": {
        "type": "Point",
        "coordinates": [
          -21.542102,
          27.118918
        ]
      },
      "properties": {
        "label": "Garcinia",
        "level": 3,
        "pos": "-1582.586,50923.132000000005",
        "src_id": "240326",
        "weight": "0.0"
      }
    },
    {
      "type": "Feature",
      "id": "1925",
      "geometry": {
        "type": "Point",
        "coordinates": [
          -47.131471,
          24.974771
        ]
      },
      "properties": {
        "label": "Verapamil",
        "level": 3,
        "pos": "-129569.308,37853.403",
        "src_id": "648",
        "weight": "0.0"
      }
    },
    {
      "type": "Feature",
      "id": "1599",
      "geometry": {
        "type": "Point",
        "coordinates": [
          -50.861456,
          24.22743
        ]
      },
      "properties": {
        "label": "Binge eating",
        "level": 3,
        "pos": "-148225.055,33352.373",
        "src_id": "171536",
        "weight": "0.0"
      }
    },
    {
      "type": "Feature",
      "id": "1563",
      "geometry": {
        "type": "Point",
        "coordinates": [
          -48.396661,
          24.282394
        ]
      },
      "properties": {
        "label": "Bone disorder",
        "level": 3,
        "pos": "-135897.233,33682.488",
        "src_id": "172471",
        "weight": "0.0"
      }
    },
    {
      "type": "Feature",
      "id": "1482",
      "geometry": {
        "type": "Point",
        "coordinates": [
          -50.729717,
          22.546654
        ]
      },
      "properties": {
        "label": "Colon cancer",
        "level": 3,
        "pos": "-147566.15300000002,23324.149999999998",
        "src_id": "173918",
        "weight": "0.0"
      }
    },
    {
      "type": "Feature",
      "id": "1317",
      "geometry": {
        "type": "Point",
        "coordinates": [
          -50.119837,
          24.649224
        ]
      },
      "properties": {
        "label": "Flat affect",
        "level": 3,
        "pos": "-144515.802,35889.414000000004",
        "src_id": "176740",
        "weight": "0.0"
      }
    },
    {
      "type": "Feature",
      "id": "125",
      "geometry": {
        "type": "Point",
        "coordinates": [
          -52.563606,
          23.830031
        ]
      },
      "properties": {
        "label": "Paraesthesia",
        "level": 2,
        "pos": "-156738.45299999998,30969.742",
        "src_id": "182787",
        "weight": "14074.0"
      }
    },
    {
      "type": "Feature",
      "id": "916",
      "geometry": {
        "type": "Point",
        "coordinates": [
          -49.928835,
          22.984715
        ]
      },
      "properties": {
        "label": "Polyp",
        "level": 3,
        "pos": "-143560.491,25925.645",
        "src_id": "183789",
        "weight": "0.0"
      }
    },
    {
      "type": "Feature",
      "id": "789",
      "geometry": {
        "type": "Point",
        "coordinates": [
          -50.137836,
          23.786005
        ]
      },
      "properties": {
        "label": "Slow speech",
        "level": 3,
        "pos": "-144605.82400000002,30706.232",
        "src_id": "186023",
        "weight": "0.0"
      }
    },
    {
      "type": "Feature",
      "id": "733",
      "geometry": {
        "type": "Point",
        "coordinates": [
          -50.075533,
          23.393494
        ]
      },
      "properties": {
        "label": "Thyroid disorder",
        "level": 3,
        "pos": "-144294.21,28360.848",
        "src_id": "187020",
        "weight": "0.0"
      }
    },
    {
      "type": "Feature",
      "id": "724",
      "geometry": {
        "type": "Point",
        "coordinates": [
          -46.283675,
          23.764542
        ]
      },
      "properties": {
        "label": "Torticollis",
        "level": 3,
        "pos": "-125329.009,30577.802",
        "src_id": "187194",
        "weight": "0.0"
      }
    },
    {
      "type": "Feature",
      "id": "215",
      "geometry": {
        "type": "Point",
        "coordinates": [
          -52.363248,
          23.37292
        ]
      },
      "properties": {
        "label": "Weight decreased",
        "level": 2,
        "pos": "-155736.348,28238.112999999998",
        "src_id": "188823",
        "weight": "20069.0"
      }
    },
    {
      "type": "Feature",
      "id": "1186",
      "geometry": {
        "type": "Point",
        "coordinates": [
          -36.559858,
          23.06466
        ]
      },
      "properties": {
        "label": "Immunology test",
        "level": 3,
        "pos": "-76694.772,26401.315",
        "src_id": "178781",
        "weight": "0.0"
      }
    },
    {
      "type": "Feature",
      "id": "1585",
      "geometry": {
        "type": "Point",
        "coordinates": [
          -40.658002,
          22.623336
        ]
      },
      "properties": {
        "label": "Blood bicarbonate",
        "level": 3,
        "pos": "-97191.879,23778.936",
        "src_id": "171966",
        "weight": "0.0"
      }
    },
    {
      "type": "Feature",
      "id": "1319",
      "geometry": {
        "type": "Point",
        "coordinates": [
          -42.915293,
          22.495951
        ]
      },
      "properties": {
        "label": "Feeling jittery",
        "level": 3,
        "pos": "-108481.85399999999,23023.575999999997",
        "src_id": "176627",
        "weight": "0.0"
      }
    },
    {
      "type": "Feature",
      "id": "1078",
      "geometry": {
        "type": "Point",
        "coordinates": [
          -42.779241,
          22.089387
        ]
      },
      "properties": {
        "label": "Metabolic acidosis",
        "level": 3,
        "pos": "-107801.383,20617.398999999998",
        "src_id": "180816",
        "weight": "0.0"
      }
    },
    {
      "type": "Feature",
      "id": "1512",
      "geometry": {
        "type": "Point",
        "coordinates": [
          -46.220405,
          22.622665
        ]
      },
      "properties": {
        "label": "Cervical incompetence",
        "level": 4,
        "pos": "-125012.562,23774.963",
        "src_id": "173438",
        "weight": "0.0"
      }
    },
    {
      "type": "Feature",
      "id": "1449",
      "geometry": {
        "type": "Point",
        "coordinates": [
          -47.351268,
          23.1469
        ]
      },
      "properties": {
        "label": "Decreased interest",
        "level": 4,
        "pos": "-130668.636,26890.934",
        "src_id": "174915",
        "weight": "0.0"
      }
    },
    {
      "type": "Feature",
      "id": "1367",
      "geometry": {
        "type": "Point",
        "coordinates": [
          -43.112879,
          23.421434
        ]
      },
      "properties": {
        "label": "Electrolyte substitution therapy",
        "level": 4,
        "pos": "-109470.094,28527.568",
        "src_id": "175726",
        "weight": "0.0"
      }
    },
    {
      "type": "Feature",
      "id": "1306",
      "geometry": {
        "type": "Point",
        "coordinates": [
          -43.766194,
          22.999448
        ]
      },
      "properties": {
        "label": "Foot deformity",
        "level": 4,
        "pos": "-112737.678,26013.281",
        "src_id": "176849",
        "weight": "0.0"
      }
    },
    {
      "type": "Feature",
      "id": "1133",
      "geometry": {
        "type": "Point",
        "coordinates": [
          -48.666802,
          22.40138
        ]
      },
      "properties": {
        "label": "Ligament pain",
        "level": 4,
        "pos": "-137248.36099999998,22463.247",
        "src_id": "179963",
        "weight": "0.0"
      }
    },
    {
      "type": "Feature",
      "id": "1021",
      "geometry": {
        "type": "Point",
        "coordinates": [
          -46.232589,
          22.053864
        ]
      },
      "properties": {
        "label": "Neuromyopathy",
        "level": 4,
        "pos": "-125073.496,20407.485999999997",
        "src_id": "181758",
        "weight": "0.0"
      }
    },
    {
      "type": "Feature",
      "id": "2015",
      "geometry": {
        "type": "Point",
        "coordinates": [
          41.659735,
          68.469782
        ]
      },
      "properties": {
        "label": "Vasopressin",
        "level": 3,
        "pos": "314525.08499999996,417385.30700000003",
        "src_id": "65",
        "weight": "0.0"
      }
    },
    {
      "type": "Feature",
      "id": "279",
      "geometry": {
        "type": "Point",
        "coordinates": [
          37.329339,
          67.437946
        ]
      },
      "properties": {
        "label": "Hyponatraemia",
        "level": 3,
        "pos": "292866.354,402329.3",
        "src_id": "178612",
        "weight": "4029.0"
      }
    },
    {
      "type": "Feature",
      "id": "54",
      "geometry": {
        "type": "Point",
        "coordinates": [
          36.191147,
          66.523117
        ]
      },
      "properties": {
        "label": "Modafinil",
        "level": 2,
        "pos": "287173.624,389516.875",
        "src_id": "731",
        "weight": "16089.0"
      }
    },
    {
      "type": "Feature",
      "id": "629",
      "geometry": {
        "type": "Point",
        "coordinates": [
          39.097284,
          69.175393
        ]
      },
      "properties": {
        "label": "Rose",
        "level": 4,
        "pos": "301708.826,428082.011",
        "src_id": "240710",
        "weight": "0.0"
      }
    },
    {
      "type": "Feature",
      "id": "1821",
      "geometry": {
        "type": "Point",
        "coordinates": [
          38.766459,
          67.630207
        ]
      },
      "properties": {
        "label": "Amineptine",
        "level": 3,
        "pos": "300054.188,405084.42100000003",
        "src_id": "4558",
        "weight": "0.0"
      }
    },
    {
      "type": "Feature",
      "id": "1814",
      "geometry": {
        "type": "Point",
        "coordinates": [
          40.245466,
          67.526898
        ]
      },
      "properties": {
        "label": "Armodafinil",
        "level": 3,
        "pos": "307451.535,403601.21400000004",
        "src_id": "5589",
        "weight": "0.0"
      }
    },
    {
      "type": "Feature",
      "id": "1797",
      "geometry": {
        "type": "Point",
        "coordinates": [
          39.835997,
          67.321539
        ]
      },
      "properties": {
        "label": "Tianeptine",
        "level": 3,
        "pos": "305403.545,400671.97099999996",
        "src_id": "8229",
        "weight": "0.0"
      }
    },
    {
      "type": "Feature",
      "id": "1698",
      "geometry": {
        "type": "Point",
        "coordinates": [
          41.719698,
          67.36655
        ]
      },
      "properties": {
        "label": "Acidosis",
        "level": 3,
        "pos": "314824.992,401311.84500000003",
        "src_id": "169637",
        "weight": "0.0"
      }
    },
    {
      "type": "Feature",
      "id": "258",
      "geometry": {
        "type": "Point",
        "coordinates": [
          41.282817,
          65.460479
        ]
      },
      "properties": {
        "label": "Narcolepsy",
        "level": 2,
        "pos": "312639.897,375212.684",
        "src_id": "181475",
        "weight": "20069.0"
      }
    },
    {
      "type": "Feature",
      "id": "997",
      "geometry": {
        "type": "Point",
        "coordinates": [
          35.222683,
          68.520872
        ]
      },
      "properties": {
        "label": "Off label use",
        "level": 3,
        "pos": "282329.786,418148.504",
        "src_id": "182190",
        "weight": "0.0"
      }
    },
    {
      "type": "Feature",
      "id": "1557",
      "geometry": {
        "type": "Point",
        "coordinates": [
          41.729809,
          66.338174
        ]
      },
      "properties": {
        "label": "Boredom",
        "level": 4,
        "pos": "314875.563,386984.103",
        "src_id": "172542",
        "weight": "0.0"
      }
    },
    {
      "type": "Feature",
      "id": "510",
      "geometry": {
        "type": "Point",
        "coordinates": [
          36.842442,
          64.925536
        ]
      },
      "properties": {
        "label": "Cataplexy",
        "level": 2,
        "pos": "290431.111,368230.554",
        "src_id": "173217",
        "weight": "22055.0"
      }
    },
    {
      "type": "Feature",
      "id": "2014",
      "geometry": {
        "type": "Point",
        "coordinates": [
          -38.558601,
          25.873892
        ]
      },
      "properties": {
        "label": "Pancrelipase",
        "level": 3,
        "pos": "-86691.595,43305.009",
        "src_id": "80",
        "weight": "0.0"
      }
    },
    {
      "type": "Feature",
      "id": "1",
      "geometry": {
        "type": "Point",
        "coordinates": [
          -30.444054,
          31.086737
        ]
      },
      "properties": {
        "label": "Convulsion",
        "level": 1,
        "pos": "-46106.225,75798.396",
        "src_id": "174366",
        "weight": "1426810.0"
      }
    },
    {
      "type": "Feature",
      "id": "2",
      "geometry": {
        "type": "Point",
        "coordinates": [
          9.912193,
          23.768871
        ]
      },
      "properties": {
        "label": "Epilepsy",
        "level": 1,
        "pos": "155737.896,30603.699",
        "src_id": "176107",
        "weight": "150265.0"
      }
    },
    {
      "type": "Feature",
      "id": "16",
      "geometry": {
        "type": "Point",
        "coordinates": [
          -1.585213,
          40.86393
        ]
      },
      "properties": {
        "label": "Anxiety",
        "level": 1,
        "pos": "98232.95,142122.028",
        "src_id": "170661",
        "weight": "104928.0"
      }
    },
    {
      "type": "Feature",
      "id": "2005",
      "geometry": {
        "type": "Point",
        "coordinates": [
          -43.446947,
          26.339714
        ]
      },
      "properties": {
        "label": "Glutamic Acid",
        "level": 3,
        "pos": "-111140.94900000001,46145.670000000006",
        "src_id": "134",
        "weight": "0.0"
      }
    },
    {
      "type": "Feature",
      "id": "2004",
      "geometry": {
        "type": "Point",
        "coordinates": [
          -41.186082,
          26.738785
        ]
      },
      "properties": {
        "label": "Glycine",
        "level": 3,
        "pos": "-99833.09599999999,48588.369999999995",
        "src_id": "137",
        "weight": "0.0"
      }
    },
    {
      "type": "Feature",
      "id": "2002",
      "geometry": {
        "type": "Point",
        "coordinates": [
          -43.753732,
          26.73855
        ]
      },
      "properties": {
        "label": "Creatine",
        "level": 3,
        "pos": "-112675.348,48586.929",
        "src_id": "140",
        "weight": "0.0"
      }
    },
    {
      "type": "Feature",
      "id": "1995",
      "geometry": {
        "type": "Point",
        "coordinates": [
          -46.308205,
          27.653217
        ]
      },
      "properties": {
        "label": "Ethchlorvynol",
        "level": 3,
        "pos": "-125451.70199999999,54218.252",
        "src_id": "180",
        "weight": "0.0"
      }
    },
    {
      "type": "Feature",
      "id": "1992",
      "geometry": {
        "type": "Point",
        "coordinates": [
          -40.406875,
          25.909465
        ]
      },
      "properties": {
        "label": "Erythromycin",
        "level": 3,
        "pos": "-95935.851,43521.541",
        "src_id": "190",
        "weight": "0.0"
      }
    },
    {
      "type": "Feature",
      "id": "1991",
      "geometry": {
        "type": "Point",
        "coordinates": [
          -44.577977,
          27.513396
        ]
      },
      "properties": {
        "label": "Azithromycin",
        "level": 3,
        "pos": "-116797.864,53354.405999999995",
        "src_id": "198",
        "weight": "0.0"
      }
    },
    {
      "type": "Feature",
      "id": "1989",
      "geometry": {
        "type": "Point",
        "coordinates": [
          -47.73222,
          28.474966
        ]
      },
      "properties": {
        "label": "Pantoprazole",
        "level": 3,
        "pos": "-132573.99000000002,59317.78",
        "src_id": "204",
        "weight": "0.0"
      }
    },
    {
      "type": "Feature",
      "id": "1987",
      "geometry": {
        "type": "Point",
        "coordinates": [
          -36.162893,
          26.24742
        ]
      },
      "properties": {
        "label": "Temazepam",
        "level": 3,
        "pos": "-74709.33499999999,45581.938",
        "src_id": "222",
        "weight": "0.0"
      }
    },
    {
      "type": "Feature",
      "id": "1985",
      "geometry": {
        "type": "Point",
        "coordinates": [
          -42.836619,
          27.519648
        ]
      },
      "properties": {
        "label": "Cabergoline",
        "level": 3,
        "pos": "-108088.357,53393.009999999995",
        "src_id": "239",
        "weight": "0.0"
      }
    },
    {
      "type": "Feature",
      "id": "1974",
      "geometry": {
        "type": "Point",
        "coordinates": [
          -37.686428,
          26.247698
        ]
      },
      "properties": {
        "label": "Hydromorphone",
        "level": 3,
        "pos": "-82329.382,45583.645",
        "src_id": "318",
        "weight": "0.0"
      }
    },
    {
      "type": "Feature",
      "id": "1968",
      "geometry": {
        "type": "Point",
        "coordinates": [
          -39.989665,
          26.490842
        ]
      },
      "properties": {
        "label": "Diltiazem",
        "level": 3,
        "pos": "-93849.154,47069.721",
        "src_id": "333",
        "weight": "0.0"
      }
    },
    {
      "type": "Feature",
      "id": "1964",
      "geometry": {
        "type": "Point",
        "coordinates": [
          -38.515776,
          27.087632
        ]
      },
      "properties": {
        "label": "Amlodipine",
        "level": 3,
        "pos": "-86477.41100000001,50730.68",
        "src_id": "371",
        "weight": "0.0"
      }
    },
    {
      "type": "Feature",
      "id": "1963",
      "geometry": {
        "type": "Point",
        "coordinates": [
          -35.310523,
          26.657757
        ]
      },
      "properties": {
        "label": "Phenylpropanolamine",
        "level": 3,
        "pos": "-70446.145,48091.714",
        "src_id": "386",
        "weight": "0.0"
      }
    },
    {
      "type": "Feature",
      "id": "1959",
      "geometry": {
        "type": "Point",
        "coordinates": [
          -38.453169,
          26.709656
        ]
      },
      "properties": {
        "label": "Methocarbamol",
        "level": 3,
        "pos": "-86164.28,48409.776",
        "src_id": "412",
        "weight": "0.0"
      }
    },
    {
      "type": "Feature",
      "id": "1947",
      "geometry": {
        "type": "Point",
        "coordinates": [
          -39.965544,
          27.118893
        ]
      },
      "properties": {
        "label": "Vancomycin",
        "level": 3,
        "pos": "-93728.513,50922.978",
        "src_id": "499",
        "weight": "0.0"
      }
    },
    {
      "type": "Feature",
      "id": "1944",
      "geometry": {
        "type": "Point",
        "coordinates": [
          -38.230903,
          27.522016
        ]
      },
      "properties": {
        "label": "Mephenytoin",
        "level": 3,
        "pos": "-85052.595,53407.632",
        "src_id": "519",
        "weight": "0.0"
      }
    },
    {
      "type": "Feature",
      "id": "4",
      "geometry": {
        "type": "Point",
        "coordinates": [
          -19.943878,
          27.414338
        ]
      },
      "properties": {
        "label": "Levetiracetam",
        "level": 1,
        "pos": "6411.018,52743.067",
        "src_id": "1186",
        "weight": "1263103.0"
      }
    },
    {
      "type": "Feature",
      "id": "1942",
      "geometry": {
        "type": "Point",
        "coordinates": [
          -40.028045,
          28.308874
        ]
      },
      "properties": {
        "label": "Methotrexate",
        "level": 3,
        "pos": "-94041.108,58283.907999999996",
        "src_id": "550",
        "weight": "0.0"
      }
    },
    {
      "type": "Feature",
      "id": "1939",
      "geometry": {
        "type": "Point",
        "coordinates": [
          -37.461509,
          28.008824
        ]
      },
      "properties": {
        "label": "Atropine",
        "level": 3,
        "pos": "-81204.431,56420.264",
        "src_id": "559",
        "weight": "0.0"
      }
    },
    {
      "type": "Feature",
      "id": "1935",
      "geometry": {
        "type": "Point",
        "coordinates": [
          -31.725356,
          28.59343
        ]
      },
      "properties": {
        "label": "Fluticasone propionate",
        "level": 3,
        "pos": "-52514.729,60056.18",
        "src_id": "575",
        "weight": "0.0"
      }
    },
    {
      "type": "Feature",
      "id": "1934",
      "geometry": {
        "type": "Point",
        "coordinates": [
          -32.185645,
          28.909677
        ]
      },
      "properties": {
        "label": "Thiopental",
        "level": 3,
        "pos": "-54816.887,62031.471000000005",
        "src_id": "586",
        "weight": "0.0"
      }
    },
    {
      "type": "Feature",
      "id": "1932",
      "geometry": {
        "type": "Point",
        "coordinates": [
          -39.091678,
          27.966169
        ]
      },
      "properties": {
        "label": "Sulindac",
        "level": 3,
        "pos": "-89357.824,56155.748",
        "src_id": "592",
        "weight": "0.0"
      }
    },
    {
      "type": "Feature",
      "id": "1930",
      "geometry": {
        "type": "Point",
        "coordinates": [
          -36.187254,
          27.779912
        ]
      },
      "properties": {
        "label": "Efavirenz",
        "level": 3,
        "pos": "-74831.16699999999,55001.949",
        "src_id": "612",
        "weight": "0.0"
      }
    },
    {
      "type": "Feature",
      "id": "1916",
      "geometry": {
        "type": "Point",
        "coordinates": [
          -36.077172,
          29.081035
        ]
      },
      "properties": {
        "label": "Procaine",
        "level": 3,
        "pos": "-74280.592,63104.287",
        "src_id": "707",
        "weight": "0.0"
      }
    },
    {
      "type": "Feature",
      "id": "1915",
      "geometry": {
        "type": "Point",
        "coordinates": [
          -35.352078,
          28.220854
        ]
      },
      "properties": {
        "label": "Lisinopril",
        "level": 3,
        "pos": "-70653.988,57736.655",
        "src_id": "708",
        "weight": "0.0"
      }
    },
    {
      "type": "Feature",
      "id": "1913",
      "geometry": {
        "type": "Point",
        "coordinates": [
          -41.141196,
          27.518402
        ]
      },
      "properties": {
        "label": "Nitroglycerin",
        "level": 3,
        "pos": "-99608.603,53385.316000000006",
        "src_id": "713",
        "weight": "0.0"
      }
    },
    {
      "type": "Feature",
      "id": "1912",
      "geometry": {
        "type": "Point",
        "coordinates": [
          -37.617908,
          29.078309
        ]
      },
      "properties": {
        "label": "Esomeprazole",
        "level": 3,
        "pos": "-81986.66900000001,63087.208",
        "src_id": "722",
        "weight": "0.0"
      }
    },
    {
      "type": "Feature",
      "id": "12",
      "geometry": {
        "type": "Point",
        "coordinates": [
          2.417297,
          35.454888
        ]
      },
      "properties": {
        "label": "Electroencephalogram",
        "level": 1,
        "pos": "118251.735,104420.63500000001",
        "src_id": "175720",
        "weight": "193375.0"
      }
    },
    {
      "type": "Feature",
      "id": "72",
      "geometry": {
        "type": "Point",
        "coordinates": [
          -35.215199,
          37.324998
        ]
      },
      "properties": {
        "label": "Amnesia",
        "level": 2,
        "pos": "-69969.376,117143.192",
        "src_id": "170136",
        "weight": "10065.0"
      }
    },
    {
      "type": "Feature",
      "id": "59",
      "geometry": {
        "type": "Point",
        "coordinates": [
          -14.79069,
          40.970659
        ]
      },
      "properties": {
        "label": "Stress",
        "level": 1,
        "pos": "32184.995,142895.465",
        "src_id": "186464",
        "weight": "521654.0"
      }
    },
    {
      "type": "Feature",
      "id": "588",
      "geometry": {
        "type": "Point",
        "coordinates": [
          -33.140819,
          34.570552
        ]
      },
      "properties": {
        "label": "Naloxone",
        "level": 3,
        "pos": "-59594.253000000004,98507.884",
        "src_id": "1167",
        "weight": "2015.0"
      }
    },
    {
      "type": "Feature",
      "id": "1890",
      "geometry": {
        "type": "Point",
        "coordinates": [
          -37.499989,
          29.537992
        ]
      },
      "properties": {
        "label": "Oxymetazoline",
        "level": 3,
        "pos": "-81396.89199999999,65973.935",
        "src_id": "921",
        "weight": "0.0"
      }
    },
    {
      "type": "Feature",
      "id": "1883",
      "geometry": {
        "type": "Point",
        "coordinates": [
          -38.120741,
          28.374788
        ]
      },
      "properties": {
        "label": "Cyclopentolate",
        "level": 3,
        "pos": "-84501.619,58694.005",
        "src_id": "965",
        "weight": "0.0"
      }
    },
    {
      "type": "Feature",
      "id": "1872",
      "geometry": {
        "type": "Point",
        "coordinates": [
          -41.699846,
          26.289818
        ]
      },
      "properties": {
        "label": "Fenofibrate",
        "level": 3,
        "pos": "-102402.72,45840.850000000006",
        "src_id": "1024",
        "weight": "0.0"
      }
    },
    {
      "type": "Feature",
      "id": "1871",
      "geometry": {
        "type": "Point",
        "coordinates": [
          -40.643155,
          27.896784
        ]
      },
      "properties": {
        "label": "Thalidomide",
        "level": 3,
        "pos": "-97117.61799999999,55725.704999999994",
        "src_id": "1026",
        "weight": "0.0"
      }
    },
    {
      "type": "Feature",
      "id": "1866",
      "geometry": {
        "type": "Point",
        "coordinates": [
          -35.62901,
          27.454873
        ]
      },
      "properties": {
        "label": "Sibutramine",
        "level": 4,
        "pos": "-72039.08,52993.174000000006",
        "src_id": "1089",
        "weight": "0.0"
      }
    },
    {
      "type": "Feature",
      "id": "10",
      "geometry": {
        "type": "Point",
        "coordinates": [
          -3.28503,
          32.708689
        ]
      },
      "properties": {
        "label": "Grand mal convulsion",
        "level": 2,
        "pos": "89731.224,86260.558",
        "src_id": "177516",
        "weight": "50054.0"
      }
    },
    {
      "type": "Feature",
      "id": "1862",
      "geometry": {
        "type": "Point",
        "coordinates": [
          -37.068919,
          27.506058
        ]
      },
      "properties": {
        "label": "Doxepin",
        "level": 4,
        "pos": "-79240.87299999999,53309.100999999995",
        "src_id": "1126",
        "weight": "0.0"
      }
    },
    {
      "type": "Feature",
      "id": "1829",
      "geometry": {
        "type": "Point",
        "coordinates": [
          -34.591667,
          27.068394
        ]
      },
      "properties": {
        "label": "Butyric Acid",
        "level": 4,
        "pos": "-66850.751,50612.36",
        "src_id": "3363",
        "weight": "0.0"
      }
    },
    {
      "type": "Feature",
      "id": "1827",
      "geometry": {
        "type": "Point",
        "coordinates": [
          -33.786236,
          27.46823
        ]
      },
      "properties": {
        "label": "Urea",
        "level": 4,
        "pos": "-62822.337,53075.597",
        "src_id": "3677",
        "weight": "0.0"
      }
    },
    {
      "type": "Feature",
      "id": "3",
      "geometry": {
        "type": "Point",
        "coordinates": [
          10.083364,
          28.525597
        ]
      },
      "properties": {
        "label": "Surgery",
        "level": 1,
        "pos": "156594.02399999998,59633.270000000004",
        "src_id": "186589",
        "weight": "147675.0"
      }
    },
    {
      "type": "Feature",
      "id": "1812",
      "geometry": {
        "type": "Point",
        "coordinates": [
          -41.816765,
          28.326552
        ]
      },
      "properties": {
        "label": "Nitrous oxide",
        "level": 4,
        "pos": "-102987.503,58393.87",
        "src_id": "5750",
        "weight": "0.0"
      }
    },
    {
      "type": "Feature",
      "id": "1807",
      "geometry": {
        "type": "Point",
        "coordinates": [
          -33.440178,
          29.211202
        ]
      },
      "properties": {
        "label": "Tyramine",
        "level": 4,
        "pos": "-61091.51,63920.423",
        "src_id": "7811",
        "weight": "0.0"
      }
    },
    {
      "type": "Feature",
      "id": "1799",
      "geometry": {
        "type": "Point",
        "coordinates": [
          -44.272728,
          28.347208
        ]
      },
      "properties": {
        "label": "Ubidecarenone",
        "level": 4,
        "pos": "-115271.143,58522.381",
        "src_id": "8210",
        "weight": "0.0"
      }
    },
    {
      "type": "Feature",
      "id": "1796",
      "geometry": {
        "type": "Point",
        "coordinates": [
          -34.47315,
          28.581485
        ]
      },
      "properties": {
        "label": "Sulfur",
        "level": 4,
        "pos": "-66257.97799999999,59981.689000000006",
        "src_id": "8292",
        "weight": "0.0"
      }
    },
    {
      "type": "Feature",
      "id": "1793",
      "geometry": {
        "type": "Point",
        "coordinates": [
          -45.106312,
          27.156364
        ]
      },
      "properties": {
        "label": "Rotavirus Vaccine",
        "level": 4,
        "pos": "-119440.359,51153.553",
        "src_id": "8378",
        "weight": "0.0"
      }
    },
    {
      "type": "Feature",
      "id": "1789",
      "geometry": {
        "type": "Point",
        "coordinates": [
          -39.757799,
          27.520318
        ]
      },
      "properties": {
        "label": "Almond",
        "level": 4,
        "pos": "-92689.459,53397.148",
        "src_id": "8574",
        "weight": "0.0"
      }
    },
    {
      "type": "Feature",
      "id": "1774",
      "geometry": {
        "type": "Point",
        "coordinates": [
          -34.040405,
          29.77544
        ]
      },
      "properties": {
        "label": "Oyster",
        "level": 4,
        "pos": "-64093.575000000004,67470.197",
        "src_id": "8620",
        "weight": "0.0"
      }
    },
    {
      "type": "Feature",
      "id": "1772",
      "geometry": {
        "type": "Point",
        "coordinates": [
          -34.597251,
          29.430557
        ]
      },
      "properties": {
        "label": "Pineapple",
        "level": 4,
        "pos": "-66878.678,65298.095",
        "src_id": "8628",
        "weight": "0.0"
      }
    },
    {
      "type": "Feature",
      "id": "1770",
      "geometry": {
        "type": "Point",
        "coordinates": [
          -37.972505,
          30.673451
        ]
      },
      "properties": {
        "label": "Shrimp",
        "level": 4,
        "pos": "-83760.214,73161.44099999999",
        "src_id": "8636",
        "weight": "0.0"
      }
    },
    {
      "type": "Feature",
      "id": "1762",
      "geometry": {
        "type": "Point",
        "coordinates": [
          -37.362008,
          30.255739
        ]
      },
      "properties": {
        "label": "Blackberry",
        "level": 4,
        "pos": "-80706.76699999999,70507.683",
        "src_id": "8678",
        "weight": "0.0"
      }
    },
    {
      "type": "Feature",
      "id": "1760",
      "geometry": {
        "type": "Point",
        "coordinates": [
          -38.979399,
          28.759864
        ]
      },
      "properties": {
        "label": "Cranberry",
        "level": 4,
        "pos": "-88796.246,61094.986",
        "src_id": "8681",
        "weight": "0.0"
      }
    },
    {
      "type": "Feature",
      "id": "1753",
      "geometry": {
        "type": "Point",
        "coordinates": [
          -33.564765,
          28.772327
        ]
      },
      "properties": {
        "label": "Eggplant",
        "level": 4,
        "pos": "-61714.642,61172.843",
        "src_id": "8694",
        "weight": "0.0"
      }
    },
    {
      "type": "Feature",
      "id": "1751",
      "geometry": {
        "type": "Point",
        "coordinates": [
          -36.359016,
          28.136261
        ]
      },
      "properties": {
        "label": "Dill",
        "level": 4,
        "pos": "-75690.249,57211.148",
        "src_id": "8720",
        "weight": "0.0"
      }
    },
    {
      "type": "Feature",
      "id": "1750",
      "geometry": {
        "type": "Point",
        "coordinates": [
          -35.152978,
          29.793391
        ]
      },
      "properties": {
        "label": "Licorice",
        "level": 4,
        "pos": "-69658.179,67583.461",
        "src_id": "8722",
        "weight": "0.0"
      }
    },
    {
      "type": "Feature",
      "id": "1748",
      "geometry": {
        "type": "Point",
        "coordinates": [
          -40.625598,
          28.705412
        ]
      },
      "properties": {
        "label": "Paprika",
        "level": 4,
        "pos": "-97029.809,60754.941",
        "src_id": "8725",
        "weight": "0.0"
      }
    },
    {
      "type": "Feature",
      "id": "1744",
      "geometry": {
        "type": "Point",
        "coordinates": [
          -42.85911,
          27.905011
        ]
      },
      "properties": {
        "label": "Urtica dioica pollen",
        "level": 4,
        "pos": "-108200.851,55776.684",
        "src_id": "8802",
        "weight": "0.0"
      }
    },
    {
      "type": "Feature",
      "id": "1740",
      "geometry": {
        "type": "Point",
        "coordinates": [
          -41.598223,
          29.474703
        ]
      },
      "properties": {
        "label": "Acheta domesticus",
        "level": 4,
        "pos": "-101894.445,65575.723",
        "src_id": "8882",
        "weight": "0.0"
      }
    },
    {
      "type": "Feature",
      "id": "1738",
      "geometry": {
        "type": "Point",
        "coordinates": [
          -35.886741,
          29.47666
        ]
      },
      "properties": {
        "label": "Chili pepper",
        "level": 4,
        "pos": "-73328.136,65588.026",
        "src_id": "8911",
        "weight": "0.0"
      }
    },
    {
      "type": "Feature",
      "id": "1737",
      "geometry": {
        "type": "Point",
        "coordinates": [
          -35.380981,
          28.586203
        ]
      },
      "properties": {
        "label": "Venison",
        "level": 4,
        "pos": "-70798.546,60011.11",
        "src_id": "8931",
        "weight": "0.0"
      }
    },
    {
      "type": "Feature",
      "id": "1731",
      "geometry": {
        "type": "Point",
        "coordinates": [
          -34.717654,
          30.269665
        ]
      },
      "properties": {
        "label": "Chlorine",
        "level": 4,
        "pos": "-67480.883,70595.97499999999",
        "src_id": "9054",
        "weight": "0.0"
      }
    },
    {
      "type": "Feature",
      "id": "1724",
      "geometry": {
        "type": "Point",
        "coordinates": [
          -36.62384,
          29.847742
        ]
      },
      "properties": {
        "label": "Methyl cellulose",
        "level": 4,
        "pos": "-77014.77900000001,67926.507",
        "src_id": "9143",
        "weight": "0.0"
      }
    },
    {
      "type": "Feature",
      "id": "1718",
      "geometry": {
        "type": "Point",
        "coordinates": [
          -36.51946,
          28.649293
        ]
      },
      "properties": {
        "label": "Creatinine",
        "level": 4,
        "pos": "-76492.72499999999,60404.672",
        "src_id": "9515",
        "weight": "0.0"
      }
    },
    {
      "type": "Feature",
      "id": "1714",
      "geometry": {
        "type": "Point",
        "coordinates": [
          -35.081004,
          29.092341
        ]
      },
      "properties": {
        "label": "Tempol",
        "level": 4,
        "pos": "-69298.203,63175.141",
        "src_id": "10103",
        "weight": "0.0"
      }
    },
    {
      "type": "Feature",
      "id": "1713",
      "geometry": {
        "type": "Point",
        "coordinates": [
          -34.285772,
          28.997757
        ]
      },
      "properties": {
        "label": "Ozone",
        "level": 4,
        "pos": "-65320.80499999999,62582.69",
        "src_id": "10159",
        "weight": "0.0"
      }
    },
    {
      "type": "Feature",
      "id": "1710",
      "geometry": {
        "type": "Point",
        "coordinates": [
          -42.089756,
          27.118656
        ]
      },
      "properties": {
        "label": "Aloe Polysaccharide",
        "level": 4,
        "pos": "-104352.885,50921.518",
        "src_id": "10941",
        "weight": "0.0"
      }
    },
    {
      "type": "Feature",
      "id": "1709",
      "geometry": {
        "type": "Point",
        "coordinates": [
          -31.940361,
          29.546991
        ]
      },
      "properties": {
        "label": "Passiflora incarnata flower",
        "level": 4,
        "pos": "-53590.089,66030.57699999999",
        "src_id": "11006",
        "weight": "0.0"
      }
    },
    {
      "type": "Feature",
      "id": "1701",
      "geometry": {
        "type": "Point",
        "coordinates": [
          -36.629532,
          27.079272
        ]
      },
      "properties": {
        "label": "Accident at work",
        "level": 4,
        "pos": "-77043.251,50679.259000000005",
        "src_id": "169614",
        "weight": "0.0"
      }
    },
    {
      "type": "Feature",
      "id": "1700",
      "geometry": {
        "type": "Point",
        "coordinates": [
          -39.588698,
          29.126024
        ]
      },
      "properties": {
        "label": "Accidental death",
        "level": 4,
        "pos": "-91843.693,63386.253000000004",
        "src_id": "169615",
        "weight": "0.0"
      }
    },
    {
      "type": "Feature",
      "id": "1699",
      "geometry": {
        "type": "Point",
        "coordinates": [
          -30.583152,
          29.214181
        ]
      },
      "properties": {
        "label": "Accidental overdose",
        "level": 4,
        "pos": "-46801.93,63939.11",
        "src_id": "169618",
        "weight": "0.0"
      }
    },
    {
      "type": "Feature",
      "id": "1694",
      "geometry": {
        "type": "Point",
        "coordinates": [
          -32.435665,
          28.225892
        ]
      },
      "properties": {
        "label": "Acute respiratory distress syndrome",
        "level": 4,
        "pos": "-56067.377,57767.97",
        "src_id": "169776",
        "weight": "0.0"
      }
    },
    {
      "type": "Feature",
      "id": "1691",
      "geometry": {
        "type": "Point",
        "coordinates": [
          -36.336023,
          30.28232
        ]
      },
      "properties": {
        "label": "Adverse drug reaction",
        "level": 4,
        "pos": "-75575.254,70676.212",
        "src_id": "169884",
        "weight": "0.0"
      }
    },
    {
      "type": "Feature",
      "id": "1683",
      "geometry": {
        "type": "Point",
        "coordinates": [
          -42.936186,
          29.90319
        ]
      },
      "properties": {
        "label": "Airway complication of anaesthesia",
        "level": 4,
        "pos": "-108586.34700000001,68276.67599999999",
        "src_id": "169923",
        "weight": "0.0"
      }
    },
    {
      "type": "Feature",
      "id": "1679",
      "geometry": {
        "type": "Point",
        "coordinates": [
          -43.140903,
          28.723023
        ]
      },
      "properties": {
        "label": "Alcohol problem",
        "level": 4,
        "pos": "-109610.25200000001,60864.897999999994",
        "src_id": "169960",
        "weight": "0.0"
      }
    },
    {
      "type": "Feature",
      "id": "1674",
      "geometry": {
        "type": "Point",
        "coordinates": [
          -33.088333,
          30.26011
        ]
      },
      "properties": {
        "label": "Allergy to animal",
        "level": 4,
        "pos": "-59331.741,70535.392",
        "src_id": "170012",
        "weight": "0.0"
      }
    },
    {
      "type": "Feature",
      "id": "1673",
      "geometry": {
        "type": "Point",
        "coordinates": [
          -33.095673,
          27.848865
        ]
      },
      "properties": {
        "label": "Alopecia areata",
        "level": 4,
        "pos": "-59368.454,55428.858",
        "src_id": "170027",
        "weight": "0.0"
      }
    },
    {
      "type": "Feature",
      "id": "1670",
      "geometry": {
        "type": "Point",
        "coordinates": [
          -34.676692,
          27.831117
        ]
      },
      "properties": {
        "label": "Amaurosis",
        "level": 4,
        "pos": "-67276.008,55318.949",
        "src_id": "170108",
        "weight": "0.0"
      }
    },
    {
      "type": "Feature",
      "id": "1665",
      "geometry": {
        "type": "Point",
        "coordinates": [
          -37.510181,
          28.774534
        ]
      },
      "properties": {
        "label": "Amputation",
        "level": 4,
        "pos": "-81447.872,61186.625",
        "src_id": "170170",
        "weight": "0.0"
      }
    },
    {
      "type": "Feature",
      "id": "1652",
      "geometry": {
        "type": "Point",
        "coordinates": [
          -37.307359,
          31.095055
        ]
      },
      "properties": {
        "label": "Anoxia",
        "level": 4,
        "pos": "-80433.44399999999,75851.59199999999",
        "src_id": "170458",
        "weight": "0.0"
      }
    },
    {
      "type": "Feature",
      "id": "1649",
      "geometry": {
        "type": "Point",
        "coordinates": [
          -49.176883,
          29.943119
        ]
      },
      "properties": {
        "label": "Antiphospholipid syndrome",
        "level": 4,
        "pos": "-139799.564,68528.95999999999",
        "src_id": "170634",
        "weight": "0.0"
      }
    },
    {
      "type": "Feature",
      "id": "1646",
      "geometry": {
        "type": "Point",
        "coordinates": [
          -35.078271,
          31.069126
        ]
      },
      "properties": {
        "label": "Aortic stenosis",
        "level": 4,
        "pos": "-69284.527,75685.802",
        "src_id": "170689",
        "weight": "0.0"
      }
    },
    {
      "type": "Feature",
      "id": "1645",
      "geometry": {
        "type": "Point",
        "coordinates": [
          -46.026777,
          28.683612
        ]
      },
      "properties": {
        "label": "Apgar score",
        "level": 4,
        "pos": "-124044.125,60618.851",
        "src_id": "170719",
        "weight": "0.0"
      }
    },
    {
      "type": "Feature",
      "id": "1637",
      "geometry": {
        "type": "Point",
        "coordinates": [
          -47.056926,
          29.517304
        ]
      },
      "properties": {
        "label": "Arteriovenous malformation",
        "level": 4,
        "pos": "-129196.46700000002,65843.745",
        "src_id": "170931",
        "weight": "0.0"
      }
    },
    {
      "type": "Feature",
      "id": "1633",
      "geometry": {
        "type": "Point",
        "coordinates": [
          -47.264939,
          29.054534
        ]
      },
      "properties": {
        "label": "Aspartate aminotransferase",
        "level": 4,
        "pos": "-130236.864,62938.263",
        "src_id": "170988",
        "weight": "0.0"
      }
    },
    {
      "type": "Feature",
      "id": "1631",
      "geometry": {
        "type": "Point",
        "coordinates": [
          -29.907853,
          29.589122
        ]
      },
      "properties": {
        "label": "Aspartate aminotransferase normal",
        "level": 4,
        "pos": "-43424.378,66295.83",
        "src_id": "170992",
        "weight": "0.0"
      }
    },
    {
      "type": "Feature",
      "id": "1624",
      "geometry": {
        "type": "Point",
        "coordinates": [
          -33.032639,
          29.423977
        ]
      },
      "properties": {
        "label": "Atrial fibrillation",
        "level": 4,
        "pos": "-59053.18,65256.734",
        "src_id": "171069",
        "weight": "0.0"
      }
    },
    {
      "type": "Feature",
      "id": "172",
      "geometry": {
        "type": "Point",
        "coordinates": [
          -38.934228,
          41.679881
        ]
      },
      "properties": {
        "label": "Aura",
        "level": 2,
        "pos": "-88570.31700000001,148067.078",
        "src_id": "171120",
        "weight": "53754.0"
      }
    },
    {
      "type": "Feature",
      "id": "1616",
      "geometry": {
        "type": "Point",
        "coordinates": [
          -46.651067,
          28.058959
        ]
      },
      "properties": {
        "label": "Autonomic neuropathy",
        "level": 4,
        "pos": "-127166.539,56731.289",
        "src_id": "171160",
        "weight": "0.0"
      }
    },
    {
      "type": "Feature",
      "id": "1609",
      "geometry": {
        "type": "Point",
        "coordinates": [
          -39.950043,
          29.837221
        ]
      },
      "properties": {
        "label": "Ballismus",
        "level": 4,
        "pos": "-93650.979,67860.089",
        "src_id": "171248",
        "weight": "0.0"
      }
    },
    {
      "type": "Feature",
      "id": "1604",
      "geometry": {
        "type": "Point",
        "coordinates": [
          -29.327144,
          29.973464
        ]
      },
      "properties": {
        "label": "Benign familial neonatal convulsions",
        "level": 4,
        "pos": "-40519.931,68720.746",
        "src_id": "171356",
        "weight": "0.0"
      }
    },
    {
      "type": "Feature",
      "id": "1603",
      "geometry": {
        "type": "Point",
        "coordinates": [
          -31.147816,
          29.883844
        ]
      },
      "properties": {
        "label": "Benign intracranial hypertension",
        "level": 4,
        "pos": "-49626.129,68154.477",
        "src_id": "171363",
        "weight": "0.0"
      }
    },
    {
      "type": "Feature",
      "id": "1597",
      "geometry": {
        "type": "Point",
        "coordinates": [
          -29.195007,
          30.734725
        ]
      },
      "properties": {
        "label": "Biopsy liver",
        "level": 4,
        "pos": "-39859.041,73551.68299999999",
        "src_id": "171638",
        "weight": "0.0"
      }
    },
    {
      "type": "Feature",
      "id": "1595",
      "geometry": {
        "type": "Point",
        "coordinates": [
          -31.543515,
          30.825733
        ]
      },
      "properties": {
        "label": "Biopsy skin",
        "level": 4,
        "pos": "-51605.238,74131.753",
        "src_id": "171706",
        "weight": "0.0"
      }
    },
    {
      "type": "Feature",
      "id": "1576",
      "geometry": {
        "type": "Point",
        "coordinates": [
          -46.264775,
          29.908136
        ]
      },
      "properties": {
        "label": "Blood lactic acid",
        "level": 4,
        "pos": "-125234.482,68307.92",
        "src_id": "172243",
        "weight": "0.0"
      }
    },
    {
      "type": "Feature",
      "id": "1572",
      "geometry": {
        "type": "Point",
        "coordinates": [
          -36.405558,
          31.085613
        ]
      },
      "properties": {
        "label": "Blood pH",
        "level": 4,
        "pos": "-75923.027,75791.21100000001",
        "src_id": "172289",
        "weight": "0.0"
      }
    },
    {
      "type": "Feature",
      "id": "1564",
      "geometry": {
        "type": "Point",
        "coordinates": [
          -39.067078,
          29.528345
        ]
      },
      "properties": {
        "label": "Bone densitometry",
        "level": 4,
        "pos": "-89234.77699999999,65913.216",
        "src_id": "172466",
        "weight": "0.0"
      }
    },
    {
      "type": "Feature",
      "id": "1562",
      "geometry": {
        "type": "Point",
        "coordinates": [
          -44.632506,
          29.10502
        ]
      },
      "properties": {
        "label": "Bone graft",
        "level": 4,
        "pos": "-117070.592,63254.602",
        "src_id": "172483",
        "weight": "0.0"
      }
    },
    {
      "type": "Feature",
      "id": "1561",
      "geometry": {
        "type": "Point",
        "coordinates": [
          -42.377644,
          29.108245
        ]
      },
      "properties": {
        "label": "Bone marrow transplant",
        "level": 4,
        "pos": "-105792.77100000001,63274.812",
        "src_id": "172516",
        "weight": "0.0"
      }
    },
    {
      "type": "Feature",
      "id": "1552",
      "geometry": {
        "type": "Point",
        "coordinates": [
          -39.042046,
          31.056674
        ]
      },
      "properties": {
        "label": "Brain contusion",
        "level": 4,
        "pos": "-89109.577,75606.197",
        "src_id": "172596",
        "weight": "0.0"
      }
    },
    {
      "type": "Feature",
      "id": "1551",
      "geometry": {
        "type": "Point",
        "coordinates": [
          -38.600695,
          29.862694
        ]
      },
      "properties": {
        "label": "Brain death",
        "level": 4,
        "pos": "-86902.13900000001,68020.921",
        "src_id": "172597",
        "weight": "0.0"
      }
    },
    {
      "type": "Feature",
      "id": "1546",
      "geometry": {
        "type": "Point",
        "coordinates": [
          -49.778198,
          29.45229
        ]
      },
      "properties": {
        "label": "Breast mass",
        "level": 4,
        "pos": "-142807.073,65434.758",
        "src_id": "172684",
        "weight": "0.0"
      }
    },
    {
      "type": "Feature",
      "id": "1535",
      "geometry": {
        "type": "Point",
        "coordinates": [
          -32.737997,
          30.920298
        ]
      },
      "properties": {
        "label": "Caffeine consumption",
        "level": 4,
        "pos": "-57579.507,74735.06999999999",
        "src_id": "172877",
        "weight": "0.0"
      }
    },
    {
      "type": "Feature",
      "id": "1531",
      "geometry": {
        "type": "Point",
        "coordinates": [
          -40.484606,
          30.657605
        ]
      },
      "properties": {
        "label": "Cardiac ablation",
        "level": 4,
        "pos": "-96324.635,73060.563",
        "src_id": "173015",
        "weight": "0.0"
      }
    },
    {
      "type": "Feature",
      "id": "1530",
      "geometry": {
        "type": "Point",
        "coordinates": [
          -31.992129,
          31.889212
        ]
      },
      "properties": {
        "label": "Cardiac enzymes",
        "level": 4,
        "pos": "-53849.011,80951.606",
        "src_id": "173032",
        "weight": "0.0"
      }
    },
    {
      "type": "Feature",
      "id": "1523",
      "geometry": {
        "type": "Point",
        "coordinates": [
          -39.561184,
          30.26599
        ]
      },
      "properties": {
        "label": "Cardiovascular disorder",
        "level": 4,
        "pos": "-91706.084,70572.667",
        "src_id": "173151",
        "weight": "0.0"
      }
    },
    {
      "type": "Feature",
      "id": "1518",
      "geometry": {
        "type": "Point",
        "coordinates": [
          -41.430839,
          31.50735
        ]
      },
      "properties": {
        "label": "Cell death",
        "level": 4,
        "pos": "-101057.268,78493.90699999999",
        "src_id": "173279",
        "weight": "0.0"
      }
    },
    {
      "type": "Feature",
      "id": "1516",
      "geometry": {
        "type": "Point",
        "coordinates": [
          -32.279198,
          31.247276
        ]
      },
      "properties": {
        "label": "Central pain syndrome",
        "level": 4,
        "pos": "-55284.799,76825.79699999999",
        "src_id": "173319",
        "weight": "0.0"
      }
    },
    {
      "type": "Feature",
      "id": "1514",
      "geometry": {
        "type": "Point",
        "coordinates": [
          -43.139919,
          30.681866
        ]
      },
      "properties": {
        "label": "Cerebral haemorrhage",
        "level": 4,
        "pos": "-109605.329,73215.019",
        "src_id": "173375",
        "weight": "0.0"
      }
    },
    {
      "type": "Feature",
      "id": "1500",
      "geometry": {
        "type": "Point",
        "coordinates": [
          -33.485614,
          31.224092
        ]
      },
      "properties": {
        "label": "Circumcision",
        "level": 4,
        "pos": "-61318.763,76677.31999999999",
        "src_id": "173760",
        "weight": "0.0"
      }
    },
    {
      "type": "Feature",
      "id": "1477",
      "geometry": {
        "type": "Point",
        "coordinates": [
          -36.926849,
          30.654697
        ]
      },
      "properties": {
        "label": "Coma scale",
        "level": 4,
        "pos": "-78530.299,73042.045",
        "src_id": "173976",
        "weight": "0.0"
      }
    },
    {
      "type": "Feature",
      "id": "70",
      "geometry": {
        "type": "Point",
        "coordinates": [
          -35.673188,
          42.312334
        ]
      },
      "properties": {
        "label": "Confusional state",
        "level": 1,
        "pos": "-72260.039,152727.18",
        "src_id": "174071",
        "weight": "63606.0"
      }
    },
    {
      "type": "Feature",
      "id": "1464",
      "geometry": {
        "type": "Point",
        "coordinates": [
          -28.42588,
          31.132555
        ]
      },
      "properties": {
        "label": "Cow's milk intolerance",
        "level": 4,
        "pos": "-36012.211,76091.437",
        "src_id": "174497",
        "weight": "0.0"
      }
    },
    {
      "type": "Feature",
      "id": "1461",
      "geometry": {
        "type": "Point",
        "coordinates": [
          -34.67844,
          31.905504
        ]
      },
      "properties": {
        "label": "Crepitations",
        "level": 4,
        "pos": "-67284.747,81056.686",
        "src_id": "174549",
        "weight": "0.0"
      }
    },
    {
      "type": "Feature",
      "id": "1458",
      "geometry": {
        "type": "Point",
        "coordinates": [
          -50.932226,
          30.311644
        ]
      },
      "properties": {
        "label": "Cyclic vomiting syndrome",
        "level": 4,
        "pos": "-148579.00900000002,70862.189",
        "src_id": "174758",
        "weight": "0.0"
      }
    },
    {
      "type": "Feature",
      "id": "1453",
      "geometry": {
        "type": "Point",
        "coordinates": [
          -36.231774,
          31.89847
        ]
      },
      "properties": {
        "label": "Dark circles under eyes",
        "level": 4,
        "pos": "-75053.844,81011.315",
        "src_id": "174885",
        "weight": "0.0"
      }
    },
    {
      "type": "Feature",
      "id": "1441",
      "geometry": {
        "type": "Point",
        "coordinates": [
          -36.206216,
          31.460492
        ]
      },
      "properties": {
        "label": "Dengue fever",
        "level": 4,
        "pos": "-74926.014,78193.02",
        "src_id": "174981",
        "weight": "0.0"
      }
    },
    {
      "type": "Feature",
      "id": "1428",
      "geometry": {
        "type": "Point",
        "coordinates": [
          -28.342205,
          31.612574
        ]
      },
      "properties": {
        "label": "Diabetic coma",
        "level": 4,
        "pos": "-35593.7,79170.125",
        "src_id": "175139",
        "weight": "0.0"
      }
    },
    {
      "type": "Feature",
      "id": "1413",
      "geometry": {
        "type": "Point",
        "coordinates": [
          -37.483736,
          31.862273
        ]
      },
      "properties": {
        "label": "Dreamy state",
        "level": 4,
        "pos": "-81315.602,80777.888",
        "src_id": "175342",
        "weight": "0.0"
      }
    },
    {
      "type": "Feature",
      "id": "1407",
      "geometry": {
        "type": "Point",
        "coordinates": [
          -51.086768,
          30.703906
        ]
      },
      "properties": {
        "label": "Drug rash with eosinophilia and systemic symptoms",
        "level": 4,
        "pos": "-149351.96300000002,73355.36600000001",
        "src_id": "175395",
        "weight": "0.0"
      }
    },
    {
      "type": "Feature",
      "id": "1399",
      "geometry": {
        "type": "Point",
        "coordinates": [
          -34.814433,
          31.5319
        ]
      },
      "properties": {
        "label": "Dry throat",
        "level": 4,
        "pos": "-67964.933,78651.614",
        "src_id": "175423",
        "weight": "0.0"
      }
    },
    {
      "type": "Feature",
      "id": "1395",
      "geometry": {
        "type": "Point",
        "coordinates": [
          -44.237299,
          30.261635
        ]
      },
      "properties": {
        "label": "Dyscalculia",
        "level": 4,
        "pos": "-115093.94,70545.06499999999",
        "src_id": "175470",
        "weight": "0.0"
      }
    },
    {
      "type": "Feature",
      "id": "1375",
      "geometry": {
        "type": "Point",
        "coordinates": [
          -38.445318,
          31.438148
        ]
      },
      "properties": {
        "label": "Electrocardiogram normal",
        "level": 4,
        "pos": "-86125.007,78049.604",
        "src_id": "175663",
        "weight": "0.0"
      }
    },
    {
      "type": "Feature",
      "id": "1374",
      "geometry": {
        "type": "Point",
        "coordinates": [
          -47.175221,
          30.314742
        ]
      },
      "properties": {
        "label": "Electrocardiogram QT interval",
        "level": 4,
        "pos": "-129788.13400000002,70881.83899999999",
        "src_id": "175683",
        "weight": "0.0"
      }
    },
    {
      "type": "Feature",
      "id": "1366",
      "geometry": {
        "type": "Point",
        "coordinates": [
          -51.891413,
          29.809857
        ]
      },
      "properties": {
        "label": "Electromyogram",
        "level": 4,
        "pos": "-153376.439,67687.368",
        "src_id": "175728",
        "weight": "0.0"
      }
    },
    {
      "type": "Feature",
      "id": "1360",
      "geometry": {
        "type": "Point",
        "coordinates": [
          -22.369548,
          30.804032
        ]
      },
      "properties": {
        "label": "Encephalitis california",
        "level": 4,
        "pos": "-5721.107,73993.37800000001",
        "src_id": "175804",
        "weight": "0.0"
      }
    },
    {
      "type": "Feature",
      "id": "1358",
      "geometry": {
        "type": "Point",
        "coordinates": [
          -32.18169,
          30.39634
        ]
      },
      "properties": {
        "label": "Encephalomalacia",
        "level": 4,
        "pos": "-54797.109,71399.66200000001",
        "src_id": "175830",
        "weight": "0.0"
      }
    },
    {
      "type": "Feature",
      "id": "1350",
      "geometry": {
        "type": "Point",
        "coordinates": [
          -36.651247,
          32.272538
        ]
      },
      "properties": {
        "label": "Ergot poisoning",
        "level": 4,
        "pos": "-77151.86,83428.99900000001",
        "src_id": "176151",
        "weight": "0.0"
      }
    },
    {
      "type": "Feature",
      "id": "1346",
      "geometry": {
        "type": "Point",
        "coordinates": [
          -25.870365,
          30.448059
        ]
      },
      "properties": {
        "label": "Exercise electrocardiogram",
        "level": 4,
        "pos": "-23230.645,71728.08899999999",
        "src_id": "176260",
        "weight": "0.0"
      }
    },
    {
      "type": "Feature",
      "id": "1344",
      "geometry": {
        "type": "Point",
        "coordinates": [
          -29.71653,
          31.967731
        ]
      },
      "properties": {
        "label": "Exercise test",
        "level": 4,
        "pos": "-42467.472,81458.21599999999",
        "src_id": "176264",
        "weight": "0.0"
      }
    },
    {
      "type": "Feature",
      "id": "1342",
      "geometry": {
        "type": "Point",
        "coordinates": [
          -41.937066,
          30.280557
        ]
      },
      "properties": {
        "label": "Extradural haematoma",
        "level": 4,
        "pos": "-103589.189,70665.027",
        "src_id": "176339",
        "weight": "0.0"
      }
    },