{
  "type": "FeatureCollection",
  "features": [
    {
      "type": "Feature",
      "id": "42",
      "geometry": {
        "type": "Point",
        "coordinates": [
          -44.523287,
          -26.729459
        ]
      },
      "properties": {
        "label": "Cetuximab",
        "level": 5,
        "pos": "-257662.681,-188323.425",
        "src_id": "2",
        "weight": "19207.0"
      }
    },
    {
      "type": "Feature",
      "id": "73",
      "geometry": {
        "type": "Point",
        "coordinates": [
          -44.616514,
          -27.10042
        ]
      },
      "properties": {
        "label": "Bevacizumab",
        "level": 4,
        "pos": "-258153.46,-190414.584",
        "src_id": "105",
        "weight": "4184.333333333334"
      }
    },
    {
      "type": "Feature",
      "id": "189",
      "geometry": {
        "type": "Point",
        "coordinates": [
          -44.071372,
          -25.92153
        ]
      },
      "properties": {
        "label": "Duloxetine",
        "level": 4,
        "pos": "-255283.643,-183792.394",
        "src_id": "465",
        "weight": "8396.0"
      }
    },
    {
      "type": "Feature",
      "id": "69",
      "geometry": {
        "type": "Point",
        "coordinates": [
          -42.971597,
          -23.886938
        ]
      },
      "properties": {
        "label": "Tadalafil",
        "level": 4,
        "pos": "-249494.033,-172516.18099999998",
        "src_id": "806",
        "weight": "2316.5"
      }
    },
    {
      "type": "Feature",
      "id": "72",
      "geometry": {
        "type": "Point",
        "coordinates": [
          -46.91949,
          -27.372928
        ]
      },
      "properties": {
        "label": "Bosentan",
        "level": 4,
        "pos": "-270277.153,-191955.161",
        "src_id": "546",
        "weight": "4005.0"
      }
    },
    {
      "type": "Feature",
      "id": "22",
      "geometry": {
        "type": "Point",
        "coordinates": [
          -45.932141,
          -28.241515
        ]
      },
      "properties": {
        "label": "Tenofovir disoproxil",
        "level": 5,
        "pos": "-265079.387,-196891.18899999998",
        "src_id": "291",
        "weight": "9008.5"
      }
    },
    {
      "type": "Feature",
      "id": "68",
      "geometry": {
        "type": "Point",
        "coordinates": [
          -46.273713,
          -27.79817
        ]
      },
      "properties": {
        "label": "Ezetimibe",
        "level": 5,
        "pos": "-266877.554,-194366.80599999998",
        "src_id": "959",
        "weight": "5887.5"
      }
    },
    {
      "type": "Feature",
      "id": "75",
      "geometry": {
        "type": "Point",
        "coordinates": [
          16.86775,
          -28.811011
        ]
      },
      "properties": {
        "label": "Pegfilgrastim",
        "level": 5,
        "pos": "65521.692,-200149.325",
        "src_id": "19",
        "weight": "17863.5"
      }
    },
    {
      "type": "Feature",
      "id": "86",
      "geometry": {
        "type": "Point",
        "coordinates": [
          15.912602,
          -27.770783
        ]
      },
      "properties": {
        "label": "Etoricoxib",
        "level": 5,
        "pos": "60493.447,-194211.213",
        "src_id": "1559",
        "weight": "11761.0"
      }
    },
    {
      "type": "Feature",
      "id": "28",
      "geometry": {
        "type": "Point",
        "coordinates": [
          15.276224,
          -27.145175
        ]
      },
      "properties": {
        "label": "Anakinra",
        "level": 5,
        "pos": "57143.329,-190667.339",
        "src_id": "26",
        "weight": "539.5"
      }
    },
    {
      "type": "Feature",
      "id": "253",
      "geometry": {
        "type": "Point",
        "coordinates": [
          15.222795,
          -25.301337
        ]
      },
      "properties": {
        "label": "Drotrecogin alfa",
        "level": 5,
        "pos": "56862.055,-180335.288",
        "src_id": "54",
        "weight": "3461.75"
      }
    },
    {
      "type": "Feature",
      "id": "128",
      "geometry": {
        "type": "Point",
        "coordinates": [
          12.458323,
          -21.366709
        ]
      },
      "properties": {
        "label": "Lanthanum carbonate",
        "level": 5,
        "pos": "42308.894,-158790.366",
        "src_id": "5847",
        "weight": "1297.5"
      }
    },
    {
      "type": "Feature",
      "id": "106",
      "geometry": {
        "type": "Point",
        "coordinates": [
          11.809957,
          -18.057733
        ]
      },
      "properties": {
        "label": "Anidulafungin",
        "level": 4,
        "pos": "38895.661,-141119.308",
        "src_id": "352",
        "weight": "1656.25"
      }
    },
    {
      "type": "Feature",
      "id": "67",
      "geometry": {
        "type": "Point",
        "coordinates": [
          15.65201,
          -25.775965
        ]
      },
      "properties": {
        "label": "Methyl aminolevulinate",
        "level": 5,
        "pos": "59121.6,-182979.36000000002",
        "src_id": "978",
        "weight": "8238.0"
      }
    },
    {
      "type": "Feature",
      "id": "56",
      "geometry": {
        "type": "Point",
        "coordinates": [
          15.916321,
          -26.266955
        ]
      },
      "properties": {
        "label": "Eplerenone",
        "level": 5,
        "pos": "60513.025,-185725.736",
        "src_id": "686",
        "weight": "30366.25"
      }
    },
    {
      "type": "Feature",
      "id": "107",
      "geometry": {
        "type": "Point",
        "coordinates": [
          -14.728369,
          -10.519974
        ]
      },
      "properties": {
        "label": "Insulin Human",
        "level": 5,
        "pos": "-100811.576,-101989.22899999999",
        "src_id": "30",
        "weight": "4098.0"
      }
    },
    {
      "type": "Feature",
      "id": "139",
      "geometry": {
        "type": "Point",
        "coordinates": [
          -15.566287,
          -10.054494
        ]
      },
      "properties": {
        "label": "Fondaparinux sodium",
        "level": 5,
        "pos": "-105222.678,-99611.257",
        "src_id": "556",
        "weight": "297.0"
      }
    },
    {
      "type": "Feature",
      "id": "93",
      "geometry": {
        "type": "Point",
        "coordinates": [
          -14.468414,
          -9.177056
        ]
      },
      "properties": {
        "label": "Ivabradine",
        "level": 5,
        "pos": "-99443.08,-95137.913",
        "src_id": "8028",
        "weight": "19895.0"
      }
    },
    {
      "type": "Feature",
      "id": "1021",
      "geometry": {
        "type": "Point",
        "coordinates": [
          -14.274257,
          -5.877815
        ]
      },
      "properties": {
        "label": "Blood insulin",
        "level": 4,
        "pos": "-98420.973,-78407.69",
        "src_id": "172218",
        "weight": "75213.75"
      }
    },
    {
      "type": "Feature",
      "id": "124",
      "geometry": {
        "type": "Point",
        "coordinates": [
          -15.70218,
          -10.813133
        ]
      },
      "properties": {
        "label": "Botulinum Toxin Type B",
        "level": 5,
        "pos": "-105938.06999999999,-103488.70599999999",
        "src_id": "41",
        "weight": "10280.0"
      }
    },
    {
      "type": "Feature",
      "id": "2811",
      "geometry": {
        "type": "Point",
        "coordinates": [
          -13.12167,
          -0.679046
        ]
      },
      "properties": {
        "label": "Neonatal diabetes mellitus",
        "level": 4,
        "pos": "-92353.339,-52224.143",
        "src_id": "181603",
        "weight": "406.0"
      }
    },
    {
      "type": "Feature",
      "id": "7897",
      "geometry": {
        "type": "Point",
        "coordinates": [
          -13.929541,
          -10.364612
        ]
      },
      "properties": {
        "label": "Blood insulin increased",
        "level": 5,
        "pos": "-96606.261,-101195.146",
        "src_id": "172221",
        "weight": "12820.5"
      }
    },
    {
      "type": "Feature",
      "id": "2192",
      "geometry": {
        "type": "Point",
        "coordinates": [
          -13.945197,
          -4.433078
        ]
      },
      "properties": {
        "label": "Ketoacidosis",
        "level": 5,
        "pos": "-96688.67899999999,-71116.009",
        "src_id": "179593",
        "weight": "6451.0"
      }
    },
    {
      "type": "Feature",
      "id": "5008",
      "geometry": {
        "type": "Point",
        "coordinates": [
          -13.757364,
          -2.710744
        ]
      },
      "properties": {
        "label": "Pancreatic enzymes",
        "level": 4,
        "pos": "-95699.859,-62441.505",
        "src_id": "182693",
        "weight": "0.0"
      }
    },
    {
      "type": "Feature",
      "id": "25",
      "geometry": {
        "type": "Point",
        "coordinates": [
          25.137186,
          -25.912479
        ]
      },
      "properties": {
        "label": "Palifermin",
        "level": 5,
        "pos": "109054.959,-183741.813",
        "src_id": "38",
        "weight": "9345.75"
      }
    },
    {
      "type": "Feature",
      "id": "21",
      "geometry": {
        "type": "Point",
        "coordinates": [
          23.992581,
          -25.491488
        ]
      },
      "properties": {
        "label": "Calcipotriol",
        "level": 5,
        "pos": "103029.349,-181393.328",
        "src_id": "2182",
        "weight": "19725.0"
      }
    },
    {
      "type": "Feature",
      "id": "380",
      "geometry": {
        "type": "Point",
        "coordinates": [
          21.2717,
          -23.29872
        ]
      },
      "properties": {
        "label": "Desmoteplase",
        "level": 5,
        "pos": "88705.658,-169289.79",
        "src_id": "4641",
        "weight": "193.0"
      }
    },
    {
      "type": "Feature",
      "id": "77",
      "geometry": {
        "type": "Point",
        "coordinates": [
          23.704825,
          -26.142665
        ]
      },
      "properties": {
        "label": "Ularitide",
        "level": 5,
        "pos": "101514.499,-185029.43099999998",
        "src_id": "4733",
        "weight": "5076.5"
      }
    },
    {
      "type": "Feature",
      "id": "1944",
      "geometry": {
        "type": "Point",
        "coordinates": [
          18.882757,
          -17.986484
        ]
      },
      "properties": {
        "label": "Fanapanel",
        "level": 5,
        "pos": "76129.409,-140742.695",
        "src_id": "10048",
        "weight": "0.0"
      }
    },
    {
      "type": "Feature",
      "id": "41",
      "geometry": {
        "type": "Point",
        "coordinates": [
          -47.90952,
          -31.185959
        ]
      },
      "properties": {
        "label": "Omalizumab",
        "level": 4,
        "pos": "-275489.022,-213935.239",
        "src_id": "42",
        "weight": "46691.25"
      }
    },
    {
      "type": "Feature",
      "id": "74",
      "geometry": {
        "type": "Point",
        "coordinates": [
          -47.216981,
          -29.815205
        ]
      },
      "properties": {
        "label": "Adalimumab",
        "level": 4,
        "pos": "-271843.253,-205938.261",
        "src_id": "50",
        "weight": "11420.75"
      }
    },
    {
      "type": "Feature",
      "id": "40",
      "geometry": {
        "type": "Point",
        "coordinates": [
          -49.836512,
          -32.065496
        ]
      },
      "properties": {
        "label": "Vardenafil",
        "level": 5,
        "pos": "-285633.396,-219127.402",
        "src_id": "848",
        "weight": "4244.0"
      }
    },
    {
      "type": "Feature",
      "id": "13",
      "geometry": {
        "type": "Point",
        "coordinates": [
          -47.004408,
          -31.6585
        ]
      },
      "properties": {
        "label": "Dutasteride",
        "level": 5,
        "pos": "-270724.186,-216718.67700000003",
        "src_id": "1110",
        "weight": "15676.5"
      }
    },
    {
      "type": "Feature",
      "id": "29",
      "geometry": {
        "type": "Point",
        "coordinates": [
          -49.247573,
          -31.25197
        ]
      },
      "properties": {
        "label": "Nesiritide",
        "level": 5,
        "pos": "-282533.012,-214323.232",
        "src_id": "4621",
        "weight": "2246.25"
      }
    },
    {
      "type": "Feature",
      "id": "64",
      "geometry": {
        "type": "Point",
        "coordinates": [
          -50.476125,
          -32.903645
        ]
      },
      "properties": {
        "label": "Tegaserod",
        "level": 5,
        "pos": "-289000.554,-224121.89",
        "src_id": "1063",
        "weight": "4430.0"
      }
    },
    {
      "type": "Feature",
      "id": "89",
      "geometry": {
        "type": "Point",
        "coordinates": [
          -50.172863,
          -33.105979
        ]
      },
      "properties": {
        "label": "Tipifarnib",
        "level": 5,
        "pos": "-287404.069,-225334.63",
        "src_id": "4671",
        "weight": "4234.5"
      }
    },
    {
      "type": "Feature",
      "id": "52",
      "geometry": {
        "type": "Point",
        "coordinates": [
          -51.234432,
          -33.90564
        ]
      },
      "properties": {
        "label": "Emtricitabine",
        "level": 5,
        "pos": "-292992.55199999997,-230155.24300000002",
        "src_id": "865",
        "weight": "995.0"
      }
    },
    {
      "type": "Feature",
      "id": "158",
      "geometry": {
        "type": "Point",
        "coordinates": [
          -52.421082,
          -32.300822
        ]
      },
      "properties": {
        "label": "Parecoxib",
        "level": 5,
        "pos": "-299239.50100000005,-220525.011",
        "src_id": "7436",
        "weight": "1239.0"
      }
    },
    {
      "type": "Feature",
      "id": "70",
      "geometry": {
        "type": "Point",
        "coordinates": [
          -51.65675,
          -34.417323
        ]
      },
      "properties": {
        "label": "Valdecoxib",
        "level": 5,
        "pos": "-295215.778,-233263.54799999998",
        "src_id": "567",
        "weight": "18661.5"
      }
    },
    {
      "type": "Feature",
      "id": "1721",
      "geometry": {
        "type": "Point",
        "coordinates": [
          43.403985,
          33.275213
        ]
      },
      "properties": {
        "label": "Lutropin alfa",
        "level": 4,
        "pos": "205217.91999999998,128729.469",
        "src_id": "43",
        "weight": "2523.5"
      }
    },
    {
      "type": "Feature",
      "id": "1221",
      "geometry": {
        "type": "Point",
        "coordinates": [
          42.800521,
          31.998226
        ]
      },
      "properties": {
        "label": "Prasterone sulfate",
        "level": 4,
        "pos": "202041.068,121106.89000000001",
        "src_id": "5262",
        "weight": "3830.25"
      }
    },
    {
      "type": "Feature",
      "id": "3526",
      "geometry": {
        "type": "Point",
        "coordinates": [
          42.214438,
          33.481307
        ]
      },
      "properties": {
        "label": "Follitropin",
        "level": 5,
        "pos": "198955.718,129970.03000000001",
        "src_id": "64",
        "weight": "3142.0"
      }
    },
    {
      "type": "Feature",
      "id": "2559",
      "geometry": {
        "type": "Point",
        "coordinates": [
          39.684532,
          32.008061
        ]
      },
      "properties": {
        "label": "Testosterone",
        "level": 3,
        "pos": "185637.387,121165.178",
        "src_id": "611",
        "weight": "1668.5"
      }
    },
    {
      "type": "Feature",
      "id": "2479",
      "geometry": {
        "type": "Point",
        "coordinates": [
          43.663236,
          32.551205
        ]
      },
      "properties": {
        "label": "Estradiol",
        "level": 4,
        "pos": "206582.712,124394.38699999999",
        "src_id": "769",
        "weight": "13020.75"
      }
    },
    {
      "type": "Feature",
      "id": "2204",
      "geometry": {
        "type": "Point",
        "coordinates": [
          44.509305,
          33.014311
        ]
      },
      "properties": {
        "label": "Globulin",
        "level": 4,
        "pos": "211036.718,127163.19799999999",
        "src_id": "177393",
        "weight": "27398.0"
      }
    },
    {
      "type": "Feature",
      "id": "6046",
      "geometry": {
        "type": "Point",
        "coordinates": [
          42.544019,
          34.05398
        ]
      },
      "properties": {
        "label": "Gladiolus",
        "level": 5,
        "pos": "200690.752,133432.77000000002",
        "src_id": "240340",
        "weight": "128.0"
      }
    },
    {
      "type": "Feature",
      "id": "3127",
      "geometry": {
        "type": "Point",
        "coordinates": [
          40.474828,
          33.257394
        ]
      },
      "properties": {
        "label": "Progesterone",
        "level": 3,
        "pos": "189797.787,128622.355",
        "src_id": "385",
        "weight": "11172.5"
      }
    },
    {
      "type": "Feature",
      "id": "2330",
      "geometry": {
        "type": "Point",
        "coordinates": [
          41.650162,
          32.416346
        ]
      },
      "properties": {
        "label": "Sex hormone binding globulin",
        "level": 3,
        "pos": "195985.174,123590.79",
        "src_id": "185806",
        "weight": "17882.5"
      }
    },
    {
      "type": "Feature",
      "id": "2576",
      "geometry": {
        "type": "Point",
        "coordinates": [
          41.340449,
          31.543859
        ]
      },
      "properties": {
        "label": "Sexual dysfunction",
        "level": 5,
        "pos": "194354.728,118420.455",
        "src_id": "185812",
        "weight": "8291.75"
      }
    },
    {
      "type": "Feature",
      "id": "2280",
      "geometry": {
        "type": "Point",
        "coordinates": [
          43.05923,
          34.442118
        ]
      },
      "properties": {
        "label": "Blood oestrogen",
        "level": 4,
        "pos": "203403.01299999998,135793.001",
        "src_id": "172274",
        "weight": "21654.75"
      }
    },
    {
      "type": "Feature",
      "id": "1258",
      "geometry": {
        "type": "Point",
        "coordinates": [
          43.526243,
          33.668187
        ]
      },
      "properties": {
        "label": "Blood cortisol",
        "level": 4,
        "pos": "205861.532,131097.47699999998",
        "src_id": "172060",
        "weight": "58071.5"
      }
    },
    {
      "type": "Feature",
      "id": "7610",
      "geometry": {
        "type": "Point",
        "coordinates": [
          44.679806,
          34.436866
        ]
      },
      "properties": {
        "label": "Pyruvate kinase",
        "level": 5,
        "pos": "211934.296,135760.994",
        "src_id": "184664",
        "weight": "608.0"
      }
    },
    {
      "type": "Feature",
      "id": "8250",
      "geometry": {
        "type": "Point",
        "coordinates": [
          45.155042,
          34.845308
        ]
      },
      "properties": {
        "label": "Suppressed lactation",
        "level": 5,
        "pos": "214436.11200000002,138256.40000000002",
        "src_id": "186580",
        "weight": "0.0"
      }
    },
    {
      "type": "Feature",
      "id": "2946",
      "geometry": {
        "type": "Point",
        "coordinates": [
          46.111468,
          34.070295
        ]
      },
      "properties": {
        "label": "Androstenedione",
        "level": 5,
        "pos": "219471.079,133531.764",
        "src_id": "1470",
        "weight": "18270.0"
      }
    },
    {
      "type": "Feature",
      "id": "8119",
      "geometry": {
        "type": "Point",
        "coordinates": [
          39.94323,
          34.081003
        ]
      },
      "properties": {
        "label": "Lutein",
        "level": 5,
        "pos": "186999.27,133596.739",
        "src_id": "129",
        "weight": "666.0"
      }
    },
    {
      "type": "Feature",
      "id": "8820",
      "geometry": {
        "type": "Point",
        "coordinates": [
          40.379019,
          33.660056
        ]
      },
      "properties": {
        "label": "Estrone sulfate",
        "level": 5,
        "pos": "189293.422,131048.383",
        "src_id": "4305",
        "weight": "0.0"
      }
    },
    {
      "type": "Feature",
      "id": "1873",
      "geometry": {
        "type": "Point",
        "coordinates": [
          43.487968,
          31.28609
        ]
      },
      "properties": {
        "label": "Blood prolactin",
        "level": 5,
        "pos": "205660.043,116902.22799999999",
        "src_id": "172344",
        "weight": "18757.25"
      }
    },
    {
      "type": "Feature",
      "id": "1924",
      "geometry": {
        "type": "Point",
        "coordinates": [
          43.556864,
          30.890555
        ]
      },
      "properties": {
        "label": "Libido decreased",
        "level": 3,
        "pos": "206022.731,114580.611",
        "src_id": "179941",
        "weight": "60919.75"
      }
    },
    {
      "type": "Feature",
      "id": "8852",
      "geometry": {
        "type": "Point",
        "coordinates": [
          44.004622,
          34.056842
        ]
      },
      "properties": {
        "label": "Farnesol",
        "level": 5,
        "pos": "208379.886,133450.133",
        "src_id": "2378",
        "weight": "0.0"
      }
    },
    {
      "type": "Feature",
      "id": "247",
      "geometry": {
        "type": "Point",
        "coordinates": [
          -53.818489,
          -32.997277
        ]
      },
      "properties": {
        "label": "Prasterone",
        "level": 5,
        "pos": "-306595.952,-224682.752",
        "src_id": "1633",
        "weight": "1970.0"
      }
    },
    {
      "type": "Feature",
      "id": "8064",
      "geometry": {
        "type": "Point",
        "coordinates": [
          -53.331839,
          -34.035209
        ]
      },
      "properties": {
        "label": "TRIAZOLOPYRIMIDINE",
        "level": 5,
        "pos": "-304034.046,-230940.55299999999",
        "src_id": "4395",
        "weight": "484.0"
      }
    },
    {
      "type": "Feature",
      "id": "148",
      "geometry": {
        "type": "Point",
        "coordinates": [
          13.469609,
          -22.773122
        ]
      },
      "properties": {
        "label": "Ranibizumab",
        "level": 5,
        "pos": "47632.664,-166418.932",
        "src_id": "1253",
        "weight": "353.0"
      }
    },
    {
      "type": "Feature",
      "id": "81",
      "geometry": {
        "type": "Point",
        "coordinates": [
          11.961841,
          -19.032658
        ]
      },
      "properties": {
        "label": "Solifenacin",
        "level": 4,
        "pos": "39695.225999999995,-146288.25900000002",
        "src_id": "1524",
        "weight": "10550.75"
      }
    },
    {
      "type": "Feature",
      "id": "844",
      "geometry": {
        "type": "Point",
        "coordinates": [
          9.053095,
          -12.599089
        ]
      },
      "properties": {
        "label": "Torcetrapib",
        "level": 4,
        "pos": "24382.552,-112656.921",
        "src_id": "5532",
        "weight": "0.0"
      }
    },
    {
      "type": "Feature",
      "id": "65",
      "geometry": {
        "type": "Point",
        "coordinates": [
          -46.578328,
          -30.177522
        ]
      },
      "properties": {
        "label": "Ibritumomab tiuxetan",
        "level": 3,
        "pos": "-268481.153,-208041.115",
        "src_id": "75",
        "weight": "433.0"
      }
    },
    {
      "type": "Feature",
      "id": "17",
      "geometry": {
        "type": "Point",
        "coordinates": [
          -44.92625,
          -27.586174
        ]
      },
      "properties": {
        "label": "Bortezomib",
        "level": 3,
        "pos": "-259784.02399999998,-193163.362",
        "src_id": "179",
        "weight": "16761.75"
      }
    },
    {
      "type": "Feature",
      "id": "98",
      "geometry": {
        "type": "Point",
        "coordinates": [
          -42.373668,
          -25.914156
        ]
      },
      "properties": {
        "label": "Adefovir Dipivoxil",
        "level": 3,
        "pos": "-246346.315,-183751.17599999998",
        "src_id": "704",
        "weight": "1588.0"
      }
    },
    {
      "type": "Feature",
      "id": "150",
      "geometry": {
        "type": "Point",
        "coordinates": [
          -44.424872,
          -26.379542
        ]
      },
      "properties": {
        "label": "Lenalidomide",
        "level": 5,
        "pos": "-257144.589,-186357.129",
        "src_id": "469",
        "weight": "861.5"
      }
    },
    {
      "type": "Feature",
      "id": "184",
      "geometry": {
        "type": "Point",
        "coordinates": [
          -44.994976,
          -27.199007
        ]
      },
      "properties": {
        "label": "Atazanavir",
        "level": 4,
        "pos": "-260145.81800000003,-190971.492",
        "src_id": "1056",
        "weight": "48583.0"
      }
    },
    {
      "type": "Feature",
      "id": "80",
      "geometry": {
        "type": "Point",
        "coordinates": [
          -42.233763,
          -23.389724
        ]
      },
      "properties": {
        "label": "Rosuvastatin",
        "level": 3,
        "pos": "-245609.809,-169788.014",
        "src_id": "1082",
        "weight": "6827.25"
      }
    },
    {
      "type": "Feature",
      "id": "119",
      "geometry": {
        "type": "Point",
        "coordinates": [
          -39.728324,
          -22.72224
        ]
      },
      "properties": {
        "label": "Clevudine",
        "level": 3,
        "pos": "-232420.281,-166141.604",
        "src_id": "5745",
        "weight": "2230.75"
      }
    },
    {
      "type": "Feature",
      "id": "24",
      "geometry": {
        "type": "Point",
        "coordinates": [
          -46.926285,
          -30.577346
        ]
      },
      "properties": {
        "label": "Mecasermin",
        "level": 4,
        "pos": "-270312.92100000003,-210370.65999999997",
        "src_id": "1260",
        "weight": "172453.5"
      }
    },
    {
      "type": "Feature",
      "id": "108",
      "geometry": {
        "type": "Point",
        "coordinates": [
          -44.639749,
          -27.834368
        ]
      },
      "properties": {
        "label": "Lopinavir",
        "level": 5,
        "pos": "-258275.783,-194572.53399999999",
        "src_id": "1533",
        "weight": "5156.0"
      }
    },
    {
      "type": "Feature",
      "id": "99",
      "geometry": {
        "type": "Point",
        "coordinates": [
          -42.655382,
          -26.343099
        ]
      },
      "properties": {
        "label": "Clofarabine",
        "level": 5,
        "pos": "-247829.356,-186152.68800000002",
        "src_id": "618",
        "weight": "6666.5"
      }
    },
    {
      "type": "Feature",
      "id": "23",
      "geometry": {
        "type": "Point",
        "coordinates": [
          -40.040058,
          -23.203187
        ]
      },
      "properties": {
        "label": "Telbivudine",
        "level": 5,
        "pos": "-234061.364,-168767.154",
        "src_id": "1248",
        "weight": "8179.5"
      }
    },
    {
      "type": "Feature",
      "id": "39",
      "geometry": {
        "type": "Point",
        "coordinates": [
          -43.294748,
          -26.782807
        ]
      },
      "properties": {
        "label": "Decitabine",
        "level": 5,
        "pos": "-251195.211,-188623.727",
        "src_id": "1245",
        "weight": "22102.750000000004"
      }
    },
    {
      "type": "Feature",
      "id": "143",
      "geometry": {
        "type": "Point",
        "coordinates": [
          -42.459949,
          -27.422792
        ]
      },
      "properties": {
        "label": "Fulvestrant",
        "level": 4,
        "pos": "-246800.53,-192237.467",
        "src_id": "933",
        "weight": "65424.75"
      }
    },
    {
      "type": "Feature",
      "id": "54",
      "geometry": {
        "type": "Point",
        "coordinates": [
          -46.601875,
          -30.993999
        ]
      },
      "properties": {
        "label": "Aliskiren",
        "level": 5,
        "pos": "-268605.10599999997,-212808.49599999998",
        "src_id": "7974",
        "weight": "22536.0"
      }
    },
    {
      "type": "Feature",
      "id": "277",
      "geometry": {
        "type": "Point",
        "coordinates": [
          -48.647311,
          -29.862174
        ]
      },
      "properties": {
        "label": "Tositumomab",
        "level": 4,
        "pos": "-279373.016,-206210.428",
        "src_id": "77",
        "weight": "183.0"
      }
    },
    {
      "type": "Feature",
      "id": "85",
      "geometry": {
        "type": "Point",
        "coordinates": [
          -50.264156,
          -30.78275
        ]
      },
      "properties": {
        "label": "Caspofungin",
        "level": 4,
        "pos": "-287884.66599999997,-211571.163",
        "src_id": "507",
        "weight": "458.0"
      }
    },
    {
      "type": "Feature",
      "id": "61",
      "geometry": {
        "type": "Point",
        "coordinates": [
          -50.090289,
          -30.27883
        ]
      },
      "properties": {
        "label": "Treprostinil",
        "level": 5,
        "pos": "-286969.36899999995,-208630.476",
        "src_id": "364",
        "weight": "13609.25"
      }
    },
    {
      "type": "Feature",
      "id": "289",
      "geometry": {
        "type": "Point",
        "coordinates": [
          -48.537344,
          -30.354055
        ]
      },
      "properties": {
        "label": "Linezolid",
        "level": 4,
        "pos": "-278794.108,-209068.5",
        "src_id": "588",
        "weight": "60336.75000000001"
      }
    },
    {
      "type": "Feature",
      "id": "317",
      "geometry": {
        "type": "Point",
        "coordinates": [
          -50.152574,
          -29.826434
        ]
      },
      "properties": {
        "label": "Iodine",
        "level": 4,
        "pos": "-287297.258,-206003.323",
        "src_id": "5012",
        "weight": "77591.24999999999"
      }
    },
    {
      "type": "Feature",
      "id": "200",
      "geometry": {
        "type": "Point",
        "coordinates": [
          -48.015363,
          -27.953926
        ]
      },
      "properties": {
        "label": "Lurtotecan",
        "level": 5,
        "pos": "-276046.217,-195252.488",
        "src_id": "9880",
        "weight": "2948.25"
      }
    },
    {
      "type": "Feature",
      "id": "115",
      "geometry": {
        "type": "Point",
        "coordinates": [
          -51.545074,
          -31.213369
        ]
      },
      "properties": {
        "label": "Gefitinib",
        "level": 4,
        "pos": "-294627.882,-214096.307",
        "src_id": "308",
        "weight": "2478.5"
      }
    },
    {
      "type": "Feature",
      "id": "30",
      "geometry": {
        "type": "Point",
        "coordinates": [
          -48.570495,
          -30.771468
        ]
      },
      "properties": {
        "label": "Palonosetron",
        "level": 4,
        "pos": "-278968.63300000003,-211505.162",
        "src_id": "367",
        "weight": "49602.0"
      }
    },
    {
      "type": "Feature",
      "id": "48",
      "geometry": {
        "type": "Point",
        "coordinates": [
          -53.018451,
          -31.209365
        ]
      },
      "properties": {
        "label": "Enfuvirtide",
        "level": 5,
        "pos": "-302384.257,-214072.78199999998",
        "src_id": "102",
        "weight": "7042.5"
      }
    },
    {
      "type": "Feature",
      "id": "262",
      "geometry": {
        "type": "Point",
        "coordinates": [
          -4.188586,
          -39.6618
        ]
      },
      "properties": {
        "label": "Pegvisomant",
        "level": 5,
        "pos": "-45326.39000000001,-266313.50700000004",
        "src_id": "78",
        "weight": "709.5"
      }
    },
    {
      "type": "Feature",
      "id": "257",
      "geometry": {
        "type": "Point",
        "coordinates": [
          -3.316819,
          -41.441652
        ]
      },
      "properties": {
        "label": "anecortave acetate",
        "level": 5,
        "pos": "-40737.099,-278089.12",
        "src_id": "4945",
        "weight": "709.5"
      }
    },
    {
      "type": "Feature",
      "id": "2471",
      "geometry": {
        "type": "Point",
        "coordinates": [
          -1.923445,
          -35.251517
        ]
      },
      "properties": {
        "label": "Fidarestat",
        "level": 4,
        "pos": "-33401.877,-238372.128",
        "src_id": "1922",
        "weight": "0.0"
      }
    },
    {
      "type": "Feature",
      "id": "357",
      "geometry": {
        "type": "Point",
        "coordinates": [
          -2.34245,
          -39.678796
        ]
      },
      "properties": {
        "label": "Abarelix",
        "level": 4,
        "pos": "-35607.674000000006,-266424.499",
        "src_id": "99",
        "weight": "244.0"
      }
    },
    {
      "type": "Feature",
      "id": "1903",
      "geometry": {
        "type": "Point",
        "coordinates": [
          -2.765183,
          -39.292851
        ]
      },
      "properties": {
        "label": "Insulin Lispro",
        "level": 5,
        "pos": "-37833.094000000005,-263910.87700000004",
        "src_id": "45",
        "weight": "17.0"
      }
    },
    {
      "type": "Feature",
      "id": "2166",
      "geometry": {
        "type": "Point",
        "coordinates": [
          -5.889559,
          -33.988426
        ]
      },
      "properties": {
        "label": "Raltitrexed",
        "level": 4,
        "pos": "-54280.924,-230656.862",
        "src_id": "284",
        "weight": "3.0"
      }
    },
    {
      "type": "Feature",
      "id": "2469",
      "geometry": {
        "type": "Point",
        "coordinates": [
          -2.241651,
          -38.122752
        ]
      },
      "properties": {
        "label": "Voglibose",
        "level": 5,
        "pos": "-35077.028,-256373.50600000002",
        "src_id": "4600",
        "weight": "0.0"
      }
    },
    {
      "type": "Feature",
      "id": "2462",
      "geometry": {
        "type": "Point",
        "coordinates": [
          -2.177581,
          -38.908357
        ]
      },
      "properties": {
        "label": "Dexmethylphenidate",
        "level": 5,
        "pos": "-34739.742,-261420.454",
        "src_id": "5761",
        "weight": "0.0"
      }
    },
    {
      "type": "Feature",
      "id": "2458",
      "geometry": {
        "type": "Point",
        "coordinates": [
          -3.667386,
          -38.534493
        ]
      },
      "properties": {
        "label": "Metreleptin",
        "level": 5,
        "pos": "-42582.614,-259011.78399999999",
        "src_id": "7992",
        "weight": "0.0"
      }
    },
    {
      "type": "Feature",
      "id": "2368",
      "geometry": {
        "type": "Point",
        "coordinates": [
          -1.963974,
          -37.672165
        ]
      },
      "properties": {
        "label": "Blonanserin",
        "level": 5,
        "pos": "-33615.235,-253503.329",
        "src_id": "8163",
        "weight": "0.0"
      }
    },
    {
      "type": "Feature",
      "id": "83",
      "geometry": {
        "type": "Point",
        "coordinates": [
          -1.391572,
          -37.202986
        ]
      },
      "properties": {
        "label": "Naratriptan",
        "level": 4,
        "pos": "-30601.906,-250533.181",
        "src_id": "938",
        "weight": "120848.08333333334"
      }
    },
    {
      "type": "Feature",
      "id": "6890",
      "geometry": {
        "type": "Point",
        "coordinates": [
          -4.793187,
          -33.34782
        ]
      },
      "properties": {
        "label": "Thymidine-5'-Phosphate",
        "level": 4,
        "pos": "-48509.229,-226787.841",
        "src_id": "1574",
        "weight": "0.0"
      }
    },
    {
      "type": "Feature",
      "id": "57",
      "geometry": {
        "type": "Point",
        "coordinates": [
          -48.347772,
          -27.485614
        ]
      },
      "properties": {
        "label": "Alemtuzumab",
        "level": 4,
        "pos": "-277796.137,-192593.318",
        "src_id": "82",
        "weight": "1864.0"
      }
    },
    {
      "type": "Feature",
      "id": "71",
      "geometry": {
        "type": "Point",
        "coordinates": [
          -45.008239,
          -25.194851
        ]
      },
      "properties": {
        "label": "Imatinib",
        "level": 3,
        "pos": "-260215.63600000003,-179743.499",
        "src_id": "606",
        "weight": "21537.0"
      }
    },
    {
      "type": "Feature",
      "id": "344",
      "geometry": {
        "type": "Point",
        "coordinates": [
          -46.309828,
          -28.70294
        ]
      },
      "properties": {
        "label": "Doxorubicin",
        "level": 4,
        "pos": "-267067.66699999996,-199529.68899999998",
        "src_id": "983",
        "weight": "102197.5"
      }
    },
    {
      "type": "Feature",
      "id": "178",
      "geometry": {
        "type": "Point",
        "coordinates": [
          -41.373356,
          -21.971706
        ]
      },
      "properties": {
        "label": "Darbepoetin alfa",
        "level": 3,
        "pos": "-241080.318,-162062.661",
        "src_id": "12",
        "weight": "391.25"
      }
    },
    {
      "type": "Feature",
      "id": "11",
      "geometry": {
        "type": "Point",
        "coordinates": [
          -50.475206,
          -31.659095
        ]
      },
      "properties": {
        "label": "Fosamprenavir",
        "level": 5,
        "pos": "-288995.70999999996,-216722.186",
        "src_id": "1283",
        "weight": "24884.5"
      }
    },
    {
      "type": "Feature",
      "id": "211",
      "geometry": {
        "type": "Point",
        "coordinates": [
          -42.500445,
          -21.076639
        ]
      },
      "properties": {
        "label": "Ximelagatran",
        "level": 3,
        "pos": "-247013.72,-157226.258",
        "src_id": "4620",
        "weight": "2277.0"
      }
    },
    {
      "type": "Feature",
      "id": "248",
      "geometry": {
        "type": "Point",
        "coordinates": [
          -45.659898,
          -24.755762
        ]
      },
      "properties": {
        "label": "Alefacept",
        "level": 5,
        "pos": "-263646.214,-177308.725",
        "src_id": "87",
        "weight": "7860.25"
      }
    },
    {
      "type": "Feature",
      "id": "127",
      "geometry": {
        "type": "Point",
        "coordinates": [
          -64.646304,
          -20.631918
        ]
      },
      "properties": {
        "label": "Natalizumab",
        "level": 5,
        "pos": "-363597.444,-154834.15099999998",
        "src_id": "101",
        "weight": "12870.25"
      }
    },
    {
      "type": "Feature",
      "id": "79",
      "geometry": {
        "type": "Point",
        "coordinates": [
          -63.446095,
          -19.943455
        ]
      },
      "properties": {
        "label": "Lumiracoxib",
        "level": 5,
        "pos": "-357279.108,-151144.668",
        "src_id": "1266",
        "weight": "2821.75"
      }
    },
    {
      "type": "Feature",
      "id": "261",
      "geometry": {
        "type": "Point",
        "coordinates": [
          -60.772998,
          -17.76289
        ]
      },
      "properties": {
        "label": "Tipranavir",
        "level": 5,
        "pos": "-343206.974,-139561.801",
        "src_id": "918",
        "weight": "10374.25"
      }
    },
    {
      "type": "Feature",
      "id": "130",
      "geometry": {
        "type": "Point",
        "coordinates": [
          -62.480866,
          -17.335478
        ]
      },
      "properties": {
        "label": "Vatalanib",
        "level": 3,
        "pos": "-352197.805,-137308.534",
        "src_id": "4601",
        "weight": "3267.5"
      }
    },
    {
      "type": "Feature",
      "id": "185",
      "geometry": {
        "type": "Point",
        "coordinates": [
          -43.379499,
          -25.533204
        ]
      },
      "properties": {
        "label": "Eletriptan",
        "level": 4,
        "pos": "-251641.374,-181625.67",
        "src_id": "207",
        "weight": "35566.25"
      }
    },
    {
      "type": "Feature",
      "id": "252",
      "geometry": {
        "type": "Point",
        "coordinates": [
          -42.860182,
          -24.598566
        ]
      },
      "properties": {
        "label": "Efalizumab",
        "level": 4,
        "pos": "-248907.499,-176439.16999999998",
        "src_id": "90",
        "weight": "478.0"
      }
    },
    {
      "type": "Feature",
      "id": "904",
      "geometry": {
        "type": "Point",
        "coordinates": [
          58.121794,
          40.786578
        ]
      },
      "properties": {
        "label": "Pregabalin",
        "level": 3,
        "pos": "282697.73,176096.915",
        "src_id": "221",
        "weight": "1638.0"
      }
    },
    {
      "type": "Feature",
      "id": "1771",
      "geometry": {
        "type": "Point",
        "coordinates": [
          49.314736,
          40.304827
        ]
      },
      "properties": {
        "label": "Lamotrigine",
        "level": 3,
        "pos": "236334.225,172910.203",
        "src_id": "542",
        "weight": "18708.0"
      }
    },
    {
      "type": "Feature",
      "id": "2949",
      "geometry": {
        "type": "Point",
        "coordinates": [
          59.60365,
          41.145122
        ]
      },
      "properties": {
        "label": "Levetiracetam",
        "level": 5,
        "pos": "290498.75200000004,178483.662",
        "src_id": "1186",
        "weight": "9475.75"
      }
    },
    {
      "type": "Feature",
      "id": "2240",
      "geometry": {
        "type": "Point",
        "coordinates": [
          60.703854,
          41.489288
        ]
      },
      "properties": {
        "label": "Topiramate",
        "level": 5,
        "pos": "296290.62399999995,180787.003",
        "src_id": "264",
        "weight": "9515.25"
      }
    },
    {
      "type": "Feature",
      "id": "3229",
      "geometry": {
        "type": "Point",
        "coordinates": [
          56.525954,
          41.000144
        ]
      },
      "properties": {
        "label": "Zonisamide",
        "level": 3,
        "pos": "274296.663,177517.01499999998",
        "src_id": "895",
        "weight": "386.0"
      }
    },
    {
      "type": "Feature",
      "id": "2716",
      "geometry": {
        "type": "Point",
        "coordinates": [
          44.922371,
          39.17154
        ]
      },
      "properties": {
        "label": "Risperidone",
        "level": 4,
        "pos": "213211.25100000002,165502.006",
        "src_id": "720",
        "weight": "38.0"
      }
    },
    {
      "type": "Feature",
      "id": "3040",
      "geometry": {
        "type": "Point",
        "coordinates": [
          48.287753,
          39.580833
        ]
      },
      "properties": {
        "label": "Ethosuximide",
        "level": 3,
        "pos": "230927.815,168163.497",
        "src_id": "580",
        "weight": "523.0"
      }
    },
    {
      "type": "Feature",
      "id": "8517",
      "geometry": {
        "type": "Point",
        "coordinates": [
          51.360297,
          40.664028
        ]
      },
      "properties": {
        "label": "Excessive eye blinking",
        "level": 5,
        "pos": "247102.794,175284.076",
        "src_id": "176248",
        "weight": "0.0"
      }
    },
    {
      "type": "Feature",
      "id": "8287",
      "geometry": {
        "type": "Point",
        "coordinates": [
          54.8177,
          40.723859
        ]
      },
      "properties": {
        "label": "Rett's disorder",
        "level": 5,
        "pos": "265303.805,175680.731",
        "src_id": "185307",
        "weight": "0.0"
      }
    },
    {
      "type": "Feature",
      "id": "8483",
      "geometry": {
        "type": "Point",
        "coordinates": [
          59.776271,
          40.353284
        ]
      },
      "properties": {
        "label": "Granuloma annulare",
        "level": 5,
        "pos": "291407.488,173229.697",
        "src_id": "177529",
        "weight": "0.0"
      }
    },
    {
      "type": "Feature",
      "id": "8600",
      "geometry": {
        "type": "Point",
        "coordinates": [
          61.637579,
          40.794603
        ]
      },
      "properties": {
        "label": "Cerebellar cognitive affective syndrome",
        "level": 5,
        "pos": "301206.077,176150.18800000002",
        "src_id": "173337",
        "weight": "0.0"
      }
    },
    {
      "type": "Feature",
      "id": "2399",
      "geometry": {
        "type": "Point",
        "coordinates": [
          57.784412,
          41.158509
        ]
      },
      "properties": {
        "label": "Clobazam",
        "level": 3,
        "pos": "280921.627,178573.016",
        "src_id": "339",
        "weight": "460.0"
      }
    },
    {
      "type": "Feature",
      "id": "1898",
      "geometry": {
        "type": "Point",
        "coordinates": [
          45.197945,
          39.562516
        ]
      },
      "properties": {
        "label": "Ziprasidone",
        "level": 5,
        "pos": "214661.97199999998,168044.06",
        "src_id": "237",
        "weight": "10868.25"
      }
    },
    {
      "type": "Feature",
      "id": "3424",
      "geometry": {
        "type": "Point",
        "coordinates": [
          41.697537,
          37.269627
        ]
      },
      "properties": {
        "label": "Felbamate",
        "level": 3,
        "pos": "196234.571,153332.273",
        "src_id": "935",
        "weight": "378.0"
      }
    },
    {
      "type": "Feature",
      "id": "3184",
      "geometry": {
        "type": "Point",
        "coordinates": [
          49.8155,
          39.946756
        ]
      },
      "properties": {
        "label": "Blood sodium",
        "level": 5,
        "pos": "238970.43300000002,170556.308",
        "src_id": "172362",
        "weight": "702.0"
      }
    },
    {
      "type": "Feature",
      "id": "2556",
      "geometry": {
        "type": "Point",
        "coordinates": [
          42.909754,
          38.068605
        ]
      },
      "properties": {
        "label": "Tiagabine",
        "level": 4,
        "pos": "202616.108,158406.019",
        "src_id": "892",
        "weight": "5867.0"
      }
    },
    {
      "type": "Feature",
      "id": "2388",
      "geometry": {
        "type": "Point",
        "coordinates": [
          48.561039,
          38.566591
        ]
      },
      "properties": {
        "label": "Oxcarbazepine",
        "level": 5,
        "pos": "232366.5,161596.429",
        "src_id": "762",
        "weight": "3520.0"
      }
    },
    {
      "type": "Feature",
      "id": "2159",
      "geometry": {
        "type": "Point",
        "coordinates": [
          41.583833,
          38.132633
        ]
      },
      "properties": {
        "label": "Acetazolamide",
        "level": 5,
        "pos": "195635.994,158815.005",
        "src_id": "805",
        "weight": "28919.5"
      }
    },
    {
      "type": "Feature",
      "id": "1457",
      "geometry": {
        "type": "Point",
        "coordinates": [
          38.80913,
          -3.540344
        ]
      },
      "properties": {
        "label": "Lidocaine",
        "level": 4,
        "pos": "181028.956,-66617.73700000001",
        "src_id": "272",
        "weight": "40892.25"
      }
    },
    {
      "type": "Feature",
      "id": "1936",
      "geometry": {
        "type": "Point",
        "coordinates": [
          34.672021,
          -3.043019
        ]
      },
      "properties": {
        "label": "Convulsion neonatal",
        "level": 4,
        "pos": "159249.745,-64113.788",
        "src_id": "174368",
        "weight": "2769.25"
      }
    },
    {
      "type": "Feature",
      "id": "2310",
      "geometry": {
        "type": "Point",
        "coordinates": [
          40.687477,
          -2.796609
        ]
      },
      "properties": {
        "label": "Bumetanide",
        "level": 5,
        "pos": "190917.248,-62873.596999999994",
        "src_id": "873",
        "weight": "13184.0"
      }
    },
    {
      "type": "Feature",
      "id": "2445",
      "geometry": {
        "type": "Point",
        "coordinates": [
          33.307682,
          -2.020419
        ]
      },
      "properties": {
        "label": "Cerebral palsy",
        "level": 4,
        "pos": "152067.369,-58968.595",
        "src_id": "173392",
        "weight": "698.5"
      }
    },
    {
      "type": "Feature",
      "id": "3464",
      "geometry": {
        "type": "Point",
        "coordinates": [
          39.332508,
          -3.052759
        ]
      },
      "properties": {
        "label": "Hypoxia",
        "level": 5,
        "pos": "183784.207,-64162.817",
        "src_id": "178678",
        "weight": "6454.5"
      }
    },
    {
      "type": "Feature",
      "id": "1758",
      "geometry": {
        "type": "Point",
        "coordinates": [
          40.49718,
          -3.748818
        ]
      },
      "properties": {
        "label": "Apgar score",
        "level": 4,
        "pos": "189915.459,-67667.762",
        "src_id": "170719",
        "weight": "21896.75"
      }
    },
    {
      "type": "Feature",
      "id": "3731",
      "geometry": {
        "type": "Point",
        "coordinates": [
          41.31611,
          -3.257952
        ]
      },
      "properties": {
        "label": "Etacrynic acid",
        "level": 5,
        "pos": "194226.59999999998,-65195.789000000004",
        "src_id": "889",
        "weight": "1978.0"
      }
    },
    {
      "type": "Feature",
      "id": "2049",
      "geometry": {
        "type": "Point",
        "coordinates": [
          30.525088,
          -0.384539
        ]
      },
      "properties": {
        "label": "Periventricular leukomalacia",
        "level": 4,
        "pos": "137418.802,-50743.729",
        "src_id": "183284",
        "weight": "16126.0"
      }
    },
    {
      "type": "Feature",
      "id": "1565",
      "geometry": {
        "type": "Point",
        "coordinates": [
          32.037696,
          -1.356397
        ]
      },
      "properties": {
        "label": "Visual impairment",
        "level": 4,
        "pos": "145381.712,-55629.407999999996",
        "src_id": "188598",
        "weight": "62380.5"
      }
    },
    {
      "type": "Feature",
      "id": "1700",
      "geometry": {
        "type": "Point",
        "coordinates": [
          43.223701,
          -4.008716
        ]
      },
      "properties": {
        "label": "Caesarean section",
        "level": 5,
        "pos": "204268.84000000003,-68977.14499999999",
        "src_id": "172875",
        "weight": "26337.25"
      }
    },
    {
      "type": "Feature",
      "id": "2248",
      "geometry": {
        "type": "Point",
        "coordinates": [
          42.272493,
          -5.40997
        ]
      },
      "properties": {
        "label": "Pregnancy",
        "level": 5,
        "pos": "199261.337,-76044.598",
        "src_id": "184014",
        "weight": "24680.75"
      }
    },
    {
      "type": "Feature",
      "id": "208",
      "geometry": {
        "type": "Point",
        "coordinates": [
          -6.562359,
          -38.532434
        ]
      },
      "properties": {
        "label": "Atomoxetine",
        "level": 5,
        "pos": "-57822.775,-258998.55000000002",
        "src_id": "280",
        "weight": "16421.25"
      }
    },
    {
      "type": "Feature",
      "id": "1772",
      "geometry": {
        "type": "Point",
        "coordinates": [
          -4.994923,
          -38.928716
        ]
      },
      "properties": {
        "label": "Methylphenidate",
        "level": 4,
        "pos": "-49571.237,-261551.983",
        "src_id": "411",
        "weight": "45056.25"
      }
    },
    {
      "type": "Feature",
      "id": "1709",
      "geometry": {
        "type": "Point",
        "coordinates": [
          -4.575771,
          -37.723111
        ]
      },
      "properties": {
        "label": "Bupropion",
        "level": 4,
        "pos": "-47364.67,-253826.973",
        "src_id": "1140",
        "weight": "12058.0"
      }
    },
    {
      "type": "Feature",
      "id": "100",
      "geometry": {
        "type": "Point",
        "coordinates": [
          -44.393619,
          -24.305931
        ]
      },
      "properties": {
        "label": "Pimecrolimus",
        "level": 5,
        "pos": "-256980.064,-174823.296",
        "src_id": "327",
        "weight": "5752.25"
      }
    },
    {
      "type": "Feature",
      "id": "2367",
      "geometry": {
        "type": "Point",
        "coordinates": [
          -40.814451,
          -22.391729
        ]
      },
      "properties": {
        "label": "Thrombin",
        "level": 3,
        "pos": "-238138.044,-164342.66400000002",
        "src_id": "9184",
        "weight": "12833.0"
      }
    },
    {
      "type": "Feature",
      "id": "271",
      "geometry": {
        "type": "Point",
        "coordinates": [
          9.908933,
          -14.36541
        ]
      },
      "properties": {
        "label": "Prilocaine",
        "level": 4,
        "pos": "28887.985,-121787.357",
        "src_id": "736",
        "weight": "38824.0"
      }
    },
    {
      "type": "Feature",
      "id": "256",
      "geometry": {
        "type": "Point",
        "coordinates": [
          11.863409,
          -19.851164
        ]
      },
      "properties": {
        "label": "Teriparatide",
        "level": 5,
        "pos": "39177.051,-150651.317",
        "src_id": "5535",
        "weight": "667.5"
      }
    },
    {
      "type": "Feature",
      "id": "38",
      "geometry": {
        "type": "Point",
        "coordinates": [
          11.016455,
          -17.704633
        ]
      },
      "properties": {
        "label": "Pegaptanib",
        "level": 5,
        "pos": "34718.384999999995,-139254.36",
        "src_id": "4617",
        "weight": "32680.5"
      }
    },
    {
      "type": "Feature",
      "id": "456",
      "geometry": {
        "type": "Point",
        "coordinates": [
          6.781628,
          -7.029098
        ]
      },
      "properties": {
        "label": "Caldaret",
        "level": 4,
        "pos": "12424.735999999999,-84231.626",
        "src_id": "5497",
        "weight": "74.0"
      }
    },
    {
      "type": "Feature",
      "id": "578",
      "geometry": {
        "type": "Point",
        "coordinates": [
          3.263235,
          -3.173766
        ]
      },
      "properties": {
        "label": "Irofulven",
        "level": 4,
        "pos": "-6097.3369999999995,-64771.96000000001",
        "src_id": "5246",
        "weight": "826.0"
      }
    },
    {
      "type": "Feature",
      "id": "105",
      "geometry": {
        "type": "Point",
        "coordinates": [
          -48.820115,
          -31.875777
        ]
      },
      "properties": {
        "label": "Sorafenib",
        "level": 3,
        "pos": "-280282.718,-218003.261",
        "src_id": "387",
        "weight": "21541.25"
      }
    },
    {
      "type": "Feature",
      "id": "84",
      "geometry": {
        "type": "Point",
        "coordinates": [
          -45.557825,
          -31.495208
        ]
      },
      "properties": {
        "label": "Pemetrexed",
        "level": 3,
        "pos": "-263108.864,-215755.23799999998",
        "src_id": "629",
        "weight": "10144.5"
      }
    },
    {
      "type": "Feature",
      "id": "1",
      "geometry": {
        "type": "Point",
        "coordinates": [
          -51.845694,
          -35.232526
        ]
      },
      "properties": {
        "label": "Insulin Aspart",
        "level": 3,
        "pos": "-296210.448,-238255.24899999998",
        "src_id": "1280",
        "weight": "109221.25"
      }
    },
    {
      "type": "Feature",
      "id": "33",
      "geometry": {
        "type": "Point",
        "coordinates": [
          -51.83014,
          -34.856385
        ]
      },
      "properties": {
        "label": "Vorinostat",
        "level": 4,
        "pos": "-296128.569,-235945.896",
        "src_id": "2413",
        "weight": "71090.25"
      }
    },
    {
      "type": "Feature",
      "id": "53",
      "geometry": {
        "type": "Point",
        "coordinates": [
          -41.859691,
          -26.932308
        ]
      },
      "properties": {
        "label": "Entecavir",
        "level": 3,
        "pos": "-243640.558,-189466.059",
        "src_id": "431",
        "weight": "14347.0"
      }
    },
    {
      "type": "Feature",
      "id": "149",
      "geometry": {
        "type": "Point",
        "coordinates": [
          -53.985364,
          -35.495244
        ]
      },
      "properties": {
        "label": "Mycophenolic acid",
        "level": 3,
        "pos": "-307474.43700000003,-239874.58899999998",
        "src_id": "1010",
        "weight": "223258.75"
      }
    },
    {
      "type": "Feature",
      "id": "132",
      "geometry": {
        "type": "Point",
        "coordinates": [
          -54.810588,
          -35.091232
        ]
      },
      "properties": {
        "label": "Insulin Detemir",
        "level": 5,
        "pos": "-311818.711,-237386.517",
        "src_id": "1281",
        "weight": "648.75"
      }
    },
    {
      "type": "Feature",
      "id": "6",
      "geometry": {
        "type": "Point",
        "coordinates": [
          -53.328891,
          -36.359158
        ]
      },
      "properties": {
        "label": "Insulin Glargine",
        "level": 3,
        "pos": "-304018.527,-245237.342",
        "src_id": "46",
        "weight": "281506.75"
      }
    },
    {
      "type": "Feature",
      "id": "87",
      "geometry": {
        "type": "Point",
        "coordinates": [
          -43.964223,
          -31.184106
        ]
      },
      "properties": {
        "label": "Erlotinib",
        "level": 5,
        "pos": "-254719.572,-213924.353",
        "src_id": "517",
        "weight": "7851.0"
      }
    },
    {
      "type": "Feature",
      "id": "46",
      "geometry": {
        "type": "Point",
        "coordinates": [
          -43.374812,
          -28.282364
        ]
      },
      "properties": {
        "label": "Dasatinib",
        "level": 5,
        "pos": "-251616.7,-197124.313",
        "src_id": "1238",
        "weight": "26025.5"
      }
    },
    {
      "type": "Feature",
      "id": "135",
      "geometry": {
        "type": "Point",
        "coordinates": [
          -8.142255,
          -34.154642
        ]
      },
      "properties": {
        "label": "Eszopiclone",
        "level": 4,
        "pos": "-66139.91799999999,-231665.494",
        "src_id": "391",
        "weight": "57052.75"
      }
    },
    {
      "type": "Feature",
      "id": "176",
      "geometry": {
        "type": "Point",
        "coordinates": [
          -8.838412,
          -33.567854
        ]
      },
      "properties": {
        "label": "Ramelteon",
        "level": 4,
        "pos": "-69804.742,-228113.52",
        "src_id": "966",
        "weight": "41983.0"
      }
    },
    {
      "type": "Feature",
      "id": "26",
      "geometry": {
        "type": "Point",
        "coordinates": [
          -7.88305,
          -33.153872
        ]
      },
      "properties": {
        "label": "Plerixafor",
        "level": 5,
        "pos": "-64775.373,-225622.09999999998",
        "src_id": "5862",
        "weight": "14549.75"
      }
    },
    {
      "type": "Feature",
      "id": "622",
      "geometry": {
        "type": "Point",
        "coordinates": [
          -6.502034,
          -29.781918
        ]
      },
      "properties": {
        "label": "Telavancin",
        "level": 4,
        "pos": "-57505.206,-205745.446",
        "src_id": "5582",
        "weight": "78.0"
      }
    },
    {
      "type": "Feature",
      "id": "455",
      "geometry": {
        "type": "Point",
        "coordinates": [
          -7.572862,
          -31.472592
        ]
      },
      "properties": {
        "label": "Fingolimod",
        "level": 4,
        "pos": "-63142.426999999996,-215621.94400000002",
        "src_id": "7827",
        "weight": "17045.75"
      }
    },
    {
      "type": "Feature",
      "id": "154",
      "geometry": {
        "type": "Point",
        "coordinates": [
          8.613987,
          -12.246182
        ]
      },
      "properties": {
        "label": "Trifluridine",
        "level": 5,
        "pos": "22070.93,-110840.49500000001",
        "src_id": "421",
        "weight": "8767.0"
      }
    },
    {
      "type": "Feature",
      "id": "45",
      "geometry": {
        "type": "Point",
        "coordinates": [
          10.104148,
          -17.675435
        ]
      },
      "properties": {
        "label": "Dapoxetine",
        "level": 5,
        "pos": "29915.674,-139100.305",
        "src_id": "4606",
        "weight": "3482.75"
      }
    },
    {
      "type": "Feature",
      "id": "141",
      "geometry": {
        "type": "Point",
        "coordinates": [
          6.105635,
          -7.439145
        ]
      },
      "properties": {
        "label": "Vitespen",
        "level": 5,
        "pos": "8866.072,-86309.283",
        "src_id": "5580",
        "weight": "617.5"
      }
    },
    {
      "type": "Feature",
      "id": "9",
      "geometry": {
        "type": "Point",
        "coordinates": [
          7.947391,
          -10.406584
        ]
      },
      "properties": {
        "label": "Alvocidib",
        "level": 5,
        "pos": "18561.727000000003,-101409.644",
        "src_id": "3300",
        "weight": "16573.0"
      }
    },
    {
      "type": "Feature",
      "id": "594",
      "geometry": {
        "type": "Point",
        "coordinates": [
          5.792427,
          -6.544746
        ]
      },
      "properties": {
        "label": "Retapamulin",
        "level": 5,
        "pos": "7217.228999999999,-81779.843",
        "src_id": "1240",
        "weight": "0.5"
      }
    },
    {
      "type": "Feature",
      "id": "7",
      "geometry": {
        "type": "Point",
        "coordinates": [
          9.542083,
          -13.91605
        ]
      },
      "properties": {
        "label": "Landiolol",
        "level": 5,
        "pos": "26956.76,-119458.056",
        "src_id": "9872",
        "weight": "25903.25"
      }
    },
    {
      "type": "Feature",
      "id": "592",
      "geometry": {
        "type": "Point",
        "coordinates": [
          7.768598,
          -9.907424
        ]
      },
      "properties": {
        "label": "Volociximab",
        "level": 5,
        "pos": "17620.503,-98860.654",
        "src_id": "5721",
        "weight": "0.5"
      }
    },
    {
      "type": "Feature",
      "id": "902",
      "geometry": {
        "type": "Point",
        "coordinates": [
          -56.047768,
          12.278085
        ]
      },
      "properties": {
        "label": "Trimethoprim",
        "level": 5,
        "pos": "-318331.673,13382.947",
        "src_id": "429",
        "weight": "20181.75"
      }
    },
    {
      "type": "Feature",
      "id": "1312",
      "geometry": {
        "type": "Point",
        "coordinates": [
          -52.83855,
          11.690759
        ]
      },
      "properties": {
        "label": "Clarithromycin",
        "level": 4,
        "pos": "-301437.201,10364.964",
        "src_id": "1195",
        "weight": "16174.25"
      }
    },
    {
      "type": "Feature",
      "id": "227",
      "geometry": {
        "type": "Point",
        "coordinates": [
          -57.627406,
          11.926143
        ]
      },
      "properties": {
        "label": "Clindamycin",
        "level": 4,
        "pos": "-326647.447,11573.703",
        "src_id": "1174",
        "weight": "170364.33333333334"
      }
    },
    {
      "type": "Feature",
      "id": "1232",
      "geometry": {
        "type": "Point",
        "coordinates": [
          -50.168401,
          13.811377
        ]
      },
      "properties": {
        "label": "Sulfamethoxazole",
        "level": 4,
        "pos": "-287380.584,21294.476",
        "src_id": "1001",
        "weight": "15326.25"
      }
    },
    {
      "type": "Feature",
      "id": "2037",
      "geometry": {
        "type": "Point",
        "coordinates": [
          -57.819143,
          12.570147
        ]
      },
      "properties": {
        "label": "Azithromycin",
        "level": 4,
        "pos": "-327656.817,14886.207",
        "src_id": "198",
        "weight": "20784.5"
      }
    },
    {
      "type": "Feature",
      "id": "7757",
      "geometry": {
        "type": "Point",
        "coordinates": [
          -54.988427,
          12.797178
        ]
      },
      "properties": {
        "label": "Helicobacter gastritis",
        "level": 5,
        "pos": "-312754.92000000004,16055.934000000001",
        "src_id": "177828",
        "weight": "87.0"
      }
    },
    {
      "type": "Feature",
      "id": "8748",
      "geometry": {
        "type": "Point",
        "coordinates": [
          -55.092462,
          13.308433
        ]
      },
      "properties": {
        "label": "Trichoderma harzianum",
        "level": 5,
        "pos": "-313302.603,18693.93",
        "src_id": "8745",
        "weight": "0.0"
      }
    },
    {
      "type": "Feature",
      "id": "2963",
      "geometry": {
        "type": "Point",
        "coordinates": [
          -48.258269,
          13.469234
        ]
      },
      "properties": {
        "label": "Metoprolol",
        "level": 4,
        "pos": "-277324.956,19524.785",
        "src_id": "255",
        "weight": "186.0"
      }
    },
    {
      "type": "Feature",
      "id": "3105",
      "geometry": {
        "type": "Point",
        "coordinates": [
          -51.474824,
          11.598416
        ]
      },
      "properties": {
        "label": "Ozone",
        "level": 4,
        "pos": "-294258.058,9891.04",
        "src_id": "10159",
        "weight": "2125.75"
      }
    },
    {
      "type": "Feature",
      "id": "8697",
      "geometry": {
        "type": "Point",
        "coordinates": [
          -51.708532,
          12.77073
        ]
      },
      "properties": {
        "label": "Niobium",
        "level": 5,
        "pos": "-295488.382,15919.612000000001",
        "src_id": "10658",
        "weight": "0.0"
      }
    },
    {
      "type": "Feature",
      "id": "2168",
      "geometry": {
        "type": "Point",
        "coordinates": [
          -57.61995,
          11.452512
        ]
      },
      "properties": {
        "label": "Erythromycin",
        "level": 4,
        "pos": "-326608.19800000003,9142.564999999999",
        "src_id": "190",
        "weight": "1429.0000000000002"
      }
    },
    {
      "type": "Feature",
      "id": "197",
      "geometry": {
        "type": "Point",
        "coordinates": [
          -49.353829,
          -32.481159
        ]
      },
      "properties": {
        "label": "Posaconazole",
        "level": 5,
        "pos": "-283092.383,-221598.499",
        "src_id": "1246",
        "weight": "18343.5"
      }
    },
    {
      "type": "Feature",
      "id": "31",
      "geometry": {
        "type": "Point",
        "coordinates": [
          -45.289308,
          -31.02518
        ]
      },
      "properties": {
        "label": "Olmesartan",
        "level": 5,
        "pos": "-261695.294,-212991.366",
        "src_id": "266",
        "weight": "12750.0"
      }
    },
    {
      "type": "Feature",
      "id": "19",
      "geometry": {
        "type": "Point",
        "coordinates": [
          -43.345895,
          -27.849694
        ]
      },
      "properties": {
        "label": "Vandetanib",
        "level": 5,
        "pos": "-251464.467,-194659.64500000002",
        "src_id": "4950",
        "weight": "12944.0"
      }
    },
    {
      "type": "Feature",
      "id": "51",
      "geometry": {
        "type": "Point",
        "coordinates": [
          -43.398403,
          -27.26177
        ]
      },
      "properties": {
        "label": "Prucalopride",
        "level": 5,
        "pos": "-251740.892,-191326.294",
        "src_id": "5630",
        "weight": "32425.75"
      }
    },
    {
      "type": "Feature",
      "id": "60",
      "geometry": {
        "type": "Point",
        "coordinates": [
          47.039057,
          48.231002
        ]
      },
      "properties": {
        "label": "Betamethasone",
        "level": 4,
        "pos": "224354.245,228676.795",
        "src_id": "432",
        "weight": "160244.25"
      }
    },
    {
      "type": "Feature",
      "id": "2899",
      "geometry": {
        "type": "Point",
        "coordinates": [
          41.661651,
          45.84347
        ]
      },
      "properties": {
        "label": "Muscle spasms",
        "level": 4,
        "pos": "196045.65,211063.565",
        "src_id": "181270",
        "weight": "13039.916666666666"
      }
    },
    {
      "type": "Feature",
      "id": "2725",
      "geometry": {
        "type": "Point",
        "coordinates": [
          41.196302,
          44.893576
        ]
      },
      "properties": {
        "label": "Tuberous sclerosis",
        "level": 4,
        "pos": "193595.894,204267.088",
        "src_id": "187499",
        "weight": "5927.25"
      }
    },
    {
      "type": "Feature",
      "id": "8562",
      "geometry": {
        "type": "Point",
        "coordinates": [
          46.338043,
          47.936232
        ]
      },
      "properties": {
        "label": "Cri du Chat syndrome",
        "level": 6,
        "pos": "220663.85,226458.876",
        "src_id": "174552",
        "weight": "0.0"
      }
    },
    {
      "type": "Feature",
      "id": "1374",
      "geometry": {
        "type": "Point",
        "coordinates": [
          41.817455,
          45.549004
        ]
      },
      "properties": {
        "label": "Mental disability",
        "level": 4,
        "pos": "196865.855,208944.413",
        "src_id": "180779",
        "weight": "2195.75"
      }
    },
    {
      "type": "Feature",
      "id": "92",
      "geometry": {
        "type": "Point",
        "coordinates": [
          -6.784942,
          -32.318905
        ]
      },
      "properties": {
        "label": "Darifenacin",
        "level": 5,
        "pos": "-58994.54,-220632.558",
        "src_id": "485",
        "weight": "11847.25"
      }
    },
    {
      "type": "Feature",
      "id": "182",
      "geometry": {
        "type": "Point",
        "coordinates": [
          -7.474037,
          -33.755231
        ]
      },
      "properties": {
        "label": "Epratuzumab",
        "level": 5,
        "pos": "-62622.182,-229245.10799999998",
        "src_id": "4669",
        "weight": "1397.0"
      }
    },
    {
      "type": "Feature",
      "id": "131",
      "geometry": {
        "type": "Point",
        "coordinates": [
          -5.315095,
          -32.906687
        ]
      },
      "properties": {
        "label": "Ciclesonide",
        "level": 5,
        "pos": "-51256.739,-224140.096",
        "src_id": "1353",
        "weight": "11162.25"
      }
    },
    {
      "type": "Feature",
      "id": "199",
      "geometry": {
        "type": "Point",
        "coordinates": [
          -6.713141,
          -32.721724
        ]
      },
      "properties": {
        "label": "Apaziquone",
        "level": 5,
        "pos": "-58616.555,-223033.86299999998",
        "src_id": "10238",
        "weight": "1131.25"
      }
    },
    {
      "type": "Feature",
      "id": "428",
      "geometry": {
        "type": "Point",
        "coordinates": [
          -60.830135,
          -4.917586
        ]
      },
      "properties": {
        "label": "Ritonavir",
        "level": 5,
        "pos": "-343507.76,-73559.53",
        "src_id": "492",
        "weight": "13850.0"
      }
    },
    {
      "type": "Feature",
      "id": "1662",
      "geometry": {
        "type": "Point",
        "coordinates": [
          -57.31673,
          -4.918353
        ]
      },
      "properties": {
        "label": "Efavirenz",
        "level": 5,
        "pos": "-325011.941,-73563.402",
        "src_id": "612",
        "weight": "27184.25"
      }
    },
    {
      "type": "Feature",
      "id": "2036",
      "geometry": {
        "type": "Point",
        "coordinates": [
          -58.397196,
          -4.575325
        ]
      },
      "properties": {
        "label": "Nevirapine",
        "level": 4,
        "pos": "-330699.902,-71833.23",
        "src_id": "229",
        "weight": "60268.75"
      }
    },
    {
      "type": "Feature",
      "id": "76",
      "geometry": {
        "type": "Point",
        "coordinates": [
          -55.962874,
          -4.763051
        ]
      },
      "properties": {
        "label": "Raltegravir",
        "level": 5,
        "pos": "-317884.756,-72779.985",
        "src_id": "5870",
        "weight": "16521.75"
      }
    },
    {
      "type": "Feature",
      "id": "8054",
      "geometry": {
        "type": "Point",
        "coordinates": [
          -59.764508,
          -4.444628
        ]
      },
      "properties": {
        "label": "Avasimibe",
        "level": 5,
        "pos": "-337897.92,-71174.245",
        "src_id": "5606",
        "weight": "80.0"
      }
    },
    {
      "type": "Feature",
      "id": "91",
      "geometry": {
        "type": "Point",
        "coordinates": [
          -59.416409,
          -3.92287
        ]
      },
      "properties": {
        "label": "Stavudine",
        "level": 5,
        "pos": "-336065.401,-68544.599",
        "src_id": "636",
        "weight": "24549.75"
      }
    },
    {
      "type": "Feature",
      "id": "90",
      "geometry": {
        "type": "Point",
        "coordinates": [
          -58.195715,
          -3.995439
        ]
      },
      "properties": {
        "label": "Lamivudine",
        "level": 4,
        "pos": "-329639.233,-68910.239",
        "src_id": "695",
        "weight": "67829.0"
      }
    },
    {
      "type": "Feature",
      "id": "172",
      "geometry": {
        "type": "Point",
        "coordinates": [
          44.849641,
          -3.540538
        ]
      },
      "properties": {
        "label": "Rofecoxib",
        "level": 4,
        "pos": "212828.36800000002,-66618.716",
        "src_id": "520",
        "weight": "84457.25"
      }
    },
    {
      "type": "Feature",
      "id": "554",
      "geometry": {
        "type": "Point",
        "coordinates": [
          46.807519,
          -1.598994
        ]
      },
      "properties": {
        "label": "Nimesulide",
        "level": 4,
        "pos": "223135.343,-56849.231",
        "src_id": "4466",
        "weight": "14912.25"
      }
    },
    {
      "type": "Feature",
      "id": "3820",
      "geometry": {
        "type": "Point",
        "coordinates": [
          43.68382,
          0.128156
        ]
      },
      "properties": {
        "label": "Methapyrilene",
        "level": 4,
        "pos": "206691.072,-48166.652",
        "src_id": "4541",
        "weight": "2208.0"
      }
    },
    {
      "type": "Feature",
      "id": "7388",
      "geometry": {
        "type": "Point",
        "coordinates": [
          46.774482,
          -2.106602
        ]
      },
      "properties": {
        "label": "Dexchlorpheniramine maleate",
        "level": 5,
        "pos": "222961.422,-59402.067",
        "src_id": "8366",
        "weight": "0.0"
      }
    },
    {
      "type": "Feature",
      "id": "4545",
      "geometry": {
        "type": "Point",
        "coordinates": [
          38.128315,
          0.316989
        ]
      },
      "properties": {
        "label": "N,N-dimethylformamide",
        "level": 4,
        "pos": "177444.91400000002,-47217.466",
        "src_id": "1760",
        "weight": "296.0"
      }
    },
    {
      "type": "Feature",
      "id": "10",
      "geometry": {
        "type": "Point",
        "coordinates": [
          -27.543772,
          -23.140242
        ]
      },
      "properties": {
        "label": "Tigecycline",
        "level": 4,
        "pos": "-168276.441,-168422.989",
        "src_id": "547",
        "weight": "48827.5"
      }
    },
    {
      "type": "Feature",
      "id": "62",
      "geometry": {
        "type": "Point",
        "coordinates": [
          -27.44889,
          -21.654355
        ]
      },
      "properties": {
        "label": "Maraviroc",
        "level": 4,
        "pos": "-167776.955,-160344.468",
        "src_id": "4557",
        "weight": "5034.25"
      }
    },
    {
      "type": "Feature",
      "id": "251",
      "geometry": {
        "type": "Point",
        "coordinates": [
          -26.976863,
          -20.681063
        ]
      },
      "properties": {
        "label": "Darunavir",
        "level": 4,
        "pos": "-165292.03100000002,-155098.146",
        "src_id": "1247",
        "weight": "2818.5"
      }
    },
    {
      "type": "Feature",
      "id": "349",
      "geometry": {
        "type": "Point",
        "coordinates": [
          -26.420987,
          -25.331095
        ]
      },
      "properties": {
        "label": "Patupilone",
        "level": 5,
        "pos": "-162365.69600000003,-180500.75699999998",
        "src_id": "2844",
        "weight": "64.5"
      }
    },
    {
      "type": "Feature",
      "id": "2146",
      "geometry": {
        "type": "Point",
        "coordinates": [
          -23.89907,
          -16.135784
        ]
      },
      "properties": {
        "label": "Gelatin",
        "level": 4,
        "pos": "-149089.432,-131011.399",
        "src_id": "9151",
        "weight": "5823.0"
      }
    },
    {
      "type": "Feature",
      "id": "348",
      "geometry": {
        "type": "Point",
        "coordinates": [
          -26.335438,
          -26.251604
        ]
      },
      "properties": {
        "label": "Indacaterol",
        "level": 5,
        "pos": "-161915.337,-185639.698",
        "src_id": "4738",
        "weight": "64.5"
      }
    },
    {
      "type": "Feature",
      "id": "32",
      "geometry": {
        "type": "Point",
        "coordinates": [
          -27.630741,
          -24.315128
        ]
      },
      "properties": {
        "label": "Prasugrel",
        "level": 5,
        "pos": "-168734.277,-174874.029",
        "src_id": "5483",
        "weight": "10669.0"
      }
    },
    {
      "type": "Feature",
      "id": "168",
      "geometry": {
        "type": "Point",
        "coordinates": [
          -53.168775,
          5.874742
        ]
      },
      "properties": {
        "label": "Voriconazole",
        "level": 5,
        "pos": "-303175.62299999996,-19229.495",
        "src_id": "569",
        "weight": "16736.833333333332"
      }
    },
    {
      "type": "Feature",
      "id": "198",
      "geometry": {
        "type": "Point",
        "coordinates": [
          -54.074395,
          6.358214
        ]
      },
      "properties": {
        "label": "Ribavirin",
        "level": 5,
        "pos": "-307943.129,-16785.391",
        "src_id": "797",
        "weight": "12605.25"
      }
    },
    {
      "type": "Feature",
      "id": "121",
      "geometry": {
        "type": "Point",
        "coordinates": [
          -48.536255,
          4.072915
        ]
      },
      "properties": {
        "label": "Telithromycin",
        "level": 5,
        "pos": "-278788.384,-28321.014000000003",
        "src_id": "962",
        "weight": "1436.5"
      }
    },
    {
      "type": "Feature",
      "id": "217",
      "geometry": {
        "type": "Point",
        "coordinates": [
          -42.563352,
          3.140857
        ]
      },
      "properties": {
        "label": "Ertapenem",
        "level": 5,
        "pos": "-247344.87999999998,-33015.364",
        "src_id": "294",
        "weight": "23104.0"
      }
    },
    {
      "type": "Feature",
      "id": "1836",
      "geometry": {
        "type": "Point",
        "coordinates": [
          -35.412458,
          4.305314
        ]
      },
      "properties": {
        "label": "Meropenem",
        "level": 4,
        "pos": "-209700.017,-27149.717",
        "src_id": "746",
        "weight": "27930.5"
      }
    },
    {
      "type": "Feature",
      "id": "134",
      "geometry": {
        "type": "Point",
        "coordinates": [
          54.440463,
          -27.248587
        ]
      },
      "properties": {
        "label": "Simvastatin",
        "level": 4,
        "pos": "263317.888,-191251.745",
        "src_id": "628",
        "weight": "85796.5"
      }
    },
    {
      "type": "Feature",
      "id": "757",
      "geometry": {
        "type": "Point",
        "coordinates": [
          53.891758,
          -26.35975
        ]
      },
      "properties": {
        "label": "Lovastatin",
        "level": 4,
        "pos": "260429.31199999998,-186246.089",
        "src_id": "218",
        "weight": "60635.0"
      }
    },
    {
      "type": "Feature",
      "id": "3827",
      "geometry": {
        "type": "Point",
        "coordinates": [
          51.954671,
          -23.285101
        ]
      },
      "properties": {
        "label": "Fluvastatin",
        "level": 4,
        "pos": "250231.791,-169215.262",
        "src_id": "1079",
        "weight": "112.0"
      }
    },
    {
      "type": "Feature",
      "id": "4533",
      "geometry": {
        "type": "Point",
        "coordinates": [
          53.484892,
          -25.887723
        ]
      },
      "properties": {
        "label": "Nilvadipine",
        "level": 5,
        "pos": "258287.424,-183603.478",
        "src_id": "5772",
        "weight": "2018.75"
      }
    },
    {
      "type": "Feature",
      "id": "203",
      "geometry": {
        "type": "Point",
        "coordinates": [
          -2.973961,
          36.990597
        ]
      },
      "properties": {
        "label": "Aprepitant",
        "level": 5,
        "pos": "-38932.174000000006,151573.06900000002",
        "src_id": "659",
        "weight": "2615.5"
      }
    },
    {
      "type": "Feature",
      "id": "373",
      "geometry": {
        "type": "Point",
        "coordinates": [
          -1.563124,
          35.924346
        ]
      },
      "properties": {
        "label": "Micafungin",
        "level": 4,
        "pos": "-31505.017,144909.267",
        "src_id": "1125",
        "weight": "943.75"
      }
    },
    {
      "type": "Feature",
      "id": "236",
      "geometry": {
        "type": "Point",
        "coordinates": [
          -2.120546,
          36.344884
        ]
      },
      "properties": {
        "label": "Pramlintide",
        "level": 5,
        "pos": "-34439.488,147526.60499999998",
        "src_id": "1261",
        "weight": "4707.75"
      }
    },
    {
      "type": "Feature",
      "id": "423",
      "geometry": {
        "type": "Point",
        "coordinates": [
          -1.232595,
          35.561388
        ]
      },
      "properties": {
        "label": "Maxacalcitol",
        "level": 4,
        "pos": "-29765.004,142661.47100000002",
        "src_id": "5527",
        "weight": "50.0"
      }
    },
    {
      "type": "Feature",
      "id": "432",
      "geometry": {
        "type": "Point",
        "coordinates": [
          -5.941734,
          39.437305
        ]
      },
      "properties": {
        "label": "Ranolazine",
        "level": 4,
        "pos": "-54555.588,167228.415",
        "src_id": "234",
        "weight": "47144.25"
      }
    },
    {
      "type": "Feature",
      "id": "369",
      "geometry": {
        "type": "Point",
        "coordinates": [
          -0.577239,
          34.256442
        ]
      },
      "properties": {
        "label": "Zofenopril",
        "level": 4,
        "pos": "-26314.967,134662.56000000003",
        "src_id": "10787",
        "weight": "95.0"
      }
    },
    {
      "type": "Feature",
      "id": "97",
      "geometry": {
        "type": "Point",
        "coordinates": [
          1.666759,
          9.707562
        ]
      },
      "properties": {
        "label": "Aminolevulinic acid",
        "level": 4,
        "pos": "-14501.761999999999,219.485",
        "src_id": "841",
        "weight": "38237.75"
      }
    },
    {
      "type": "Feature",
      "id": "49",
      "geometry": {
        "type": "Point",
        "coordinates": [
          -0.14421,
          9.321661
        ]
      },
      "properties": {
        "label": "Perospirone",
        "level": 5,
        "pos": "-24035.345,-1747.3110000000001",
        "src_id": "7878",
        "weight": "29022.25"
      }
    },
    {
      "type": "Feature",
      "id": "2544",
      "geometry": {
        "type": "Point",
        "coordinates": [
          2.150898,
          10.576824
        ]
      },
      "properties": {
        "label": "Porphobilinogen",
        "level": 4,
        "pos": "-11953.077000000001,4658.2480000000005",
        "src_id": "2156",
        "weight": "2803.75"
      }
    },
    {
      "type": "Feature",
      "id": "7565",
      "geometry": {
        "type": "Point",
        "coordinates": [
          4.086428,
          10.619095
        ]
      },
      "properties": {
        "label": "Succinylacetone",
        "level": 5,
        "pos": "-1763.759,4874.407999999999",
        "src_id": "186533",
        "weight": "83.0"
      }
    },
    {
      "type": "Feature",
      "id": "5502",
      "geometry": {
        "type": "Point",
        "coordinates": [
          -1.399831,
          9.087028
        ]
      },
      "properties": {
        "label": "Megacolon",
        "level": 1,
        "pos": "-30645.389000000003,-2942.08",
        "src_id": "180667",
        "weight": "0.0"
      }
    },
    {
      "type": "Feature",
      "id": "1242",
      "geometry": {
        "type": "Point",
        "coordinates": [
          4.72801,
          11.369762
        ]
      },
      "properties": {
        "label": "Porphyria",
        "level": 4,
        "pos": "1613.758,8718.232",
        "src_id": "183819",
        "weight": "36658.25"
      }
    },
    {
      "type": "Feature",
      "id": "3372",
      "geometry": {
        "type": "Point",
        "coordinates": [
          3.060677,
          11.026475
        ]
      },
      "properties": {
        "label": "Oesophageal achalasia",
        "level": 1,
        "pos": "-7163.68,6959.196000000001",
        "src_id": "182069",
        "weight": "9959.0"
      }
    },
    {
      "type": "Feature",
      "id": "5570",
      "geometry": {
        "type": "Point",
        "coordinates": [
          -0.845344,
          8.3185
        ]
      },
      "properties": {
        "label": "Colonic pseudo-obstruction",
        "level": 4,
        "pos": "-27726.365999999998,-6850.116",
        "src_id": "173938",
        "weight": "0.0"
      }
    },
    {
      "type": "Feature",
      "id": "4754",
      "geometry": {
        "type": "Point",
        "coordinates": [
          -0.776112,
          7.747279
        ]
      },
      "properties": {
        "label": "Sigmoidectomy",
        "level": 2,
        "pos": "-27361.912,-9749.829",
        "src_id": "185867",
        "weight": "0.0"
      }
    },
    {
      "type": "Feature",
      "id": "543",
      "geometry": {
        "type": "Point",
        "coordinates": [
          4.545202,
          12.47453
        ]
      },
      "properties": {
        "label": "Porphyria acute",
        "level": 4,
        "pos": "651.386,14393.884999999998",
        "src_id": "183820",
        "weight": "90187.0"
      }
    },
    {
      "type": "Feature",
      "id": "167",
      "geometry": {
        "type": "Point",
        "coordinates": [
          2.298191,
          -4.478261
        ]
      },
      "properties": {
        "label": "Levosimendan",
        "level": 3,
        "pos": "-11177.677,-71343.813",
        "src_id": "908",
        "weight": "8572.0"
      }
    },
    {
      "type": "Feature",
      "id": "181",
      "geometry": {
        "type": "Point",
        "coordinates": [
          3.81819,
          -6.136177
        ]
      },
      "properties": {
        "label": "Trabectedin",
        "level": 3,
        "pos": "-3175.8639999999996,-79713.522",
        "src_id": "4799",
        "weight": "1844.5"
      }
    },
    {
      "type": "Feature",
      "id": "222",
      "geometry": {
        "type": "Point",
        "coordinates": [
          2.060029,
          -3.390842
        ]
      },
      "properties": {
        "label": "Abetimus",
        "level": 3,
        "pos": "-12431.449,-65864.887",
        "src_id": "5731",
        "weight": "510.0"
      }
    },
    {
      "type": "Feature",
      "id": "36",
      "geometry": {
        "type": "Point",
        "coordinates": [
          4.307349,
          -5.708362
        ]
      },
      "properties": {
        "label": "Tocilizumab",
        "level": 4,
        "pos": "-600.7510000000001,-77551.55600000001",
        "src_id": "5528",
        "weight": "153129.5"
      }
    },
    {
      "type": "Feature",
      "id": "14",
      "geometry": {
        "type": "Point",
        "coordinates": [
          6.233706,
          -8.84896
        ]
      },
      "properties": {
        "label": "Dalfampridine",
        "level": 3,
        "pos": "9540.282,-93468.107",
        "src_id": "5714",
        "weight": "259000.66666666666"
      }
    },
    {
      "type": "Feature",
      "id": "195",
      "geometry": {
        "type": "Point",
        "coordinates": [
          4.061815,
          -5.200539
        ]
      },
      "properties": {
        "label": "Pegsunercept",
        "level": 5,
        "pos": "-1893.326,-74987.361",
        "src_id": "5699",
        "weight": "5206.25"
      }
    },
    {
      "type": "Feature",
      "id": "791",
      "geometry": {
        "type": "Point",
        "coordinates": [
          1.191503,
          -1.982036
        ]
      },
      "properties": {
        "label": "Rebimastat",
        "level": 3,
        "pos": "-17003.676,-58775.54",
        "src_id": "5671",
        "weight": "42.0"
      }
    },
    {
      "type": "Feature",
      "id": "78",
      "geometry": {
        "type": "Point",
        "coordinates": [
          4.572354,
          -4.759857
        ]
      },
      "properties": {
        "label": "Febuxostat",
        "level": 5,
        "pos": "794.334,-72763.873",
        "src_id": "4576",
        "weight": "3845.75"
      }
    },
    {
      "type": "Feature",
      "id": "2303",
      "geometry": {
        "type": "Point",
        "coordinates": [
          -2.469143,
          1.973614
        ]
      },
      "properties": {
        "label": "Idursulfase",
        "level": 3,
        "pos": "-36274.631,-38888.469",
        "src_id": "1254",
        "weight": "0.0"
      }
    },
    {
      "type": "Feature",
      "id": "207",
      "geometry": {
        "type": "Point",
        "coordinates": [
          -51.052841,
          24.895254
        ]
      },
      "properties": {
        "label": "Azacitidine",
        "level": 5,
        "pos": "-292036.58999999997,80459.63",
        "src_id": "914",
        "weight": "22073.25"
      }
    },
    {
      "type": "Feature",
      "id": "235",
      "geometry": {
        "type": "Point",
        "coordinates": [
          -52.613353,
          24.493239
        ]
      },
      "properties": {
        "label": "Romidepsin",
        "level": 5,
        "pos": "-300251.683,78235.488",
        "src_id": "5456",
        "weight": "0.0"
      }
    },
    {
      "type": "Feature",
      "id": "7202",
      "geometry": {
        "type": "Point",
        "coordinates": [
          -48.955347,
          25.251542
        ]
      },
      "properties": {
        "label": "Factor X deficiency",
        "level": 5,
        "pos": "-280994.63100000005,82436.837",
        "src_id": "176510",
        "weight": "0.0"
      }
    },
    {
      "type": "Feature",
      "id": "234",
      "geometry": {
        "type": "Point",
        "coordinates": [
          -53.335952,
          24.938023
        ]
      },
      "properties": {
        "label": "Atrasentan",
        "level": 5,
        "pos": "-304055.695,80696.674",
        "src_id": "5474",
        "weight": "0.0"
      }
    },
    {
      "type": "Feature",
      "id": "5879",
      "geometry": {
        "type": "Point",
        "coordinates": [
          -44.533558,
          24.762634
        ]
      },
      "properties": {
        "label": "Chronic myelomonocytic leukaemia",
        "level": 5,
        "pos": "-257716.75,79725.117",
        "src_id": "173724",
        "weight": "0.0"
      }
    },
    {
      "type": "Feature",
      "id": "162",
      "geometry": {
        "type": "Point",
        "coordinates": [
          -63.551424,
          -19.015986
        ]
      },
      "properties": {
        "label": "Desloratadine",
        "level": 5,
        "pos": "-357833.597,-146199.61599999998",
        "src_id": "953",
        "weight": "29915.25"
      }
    },
    {
      "type": "Feature",
      "id": "170",
      "geometry": {
        "type": "Point",
        "coordinates": [
          -62.818262,
          -18.375861
        ]
      },
      "properties": {
        "label": "Ixabepilone",
        "level": 5,
        "pos": "-353973.969,-142802.76499999998",
        "src_id": "4567",
        "weight": "802.5"
      }
    },
    {
      "type": "Feature",
      "id": "15",
      "geometry": {
        "type": "Point",
        "coordinates": [
          -64.962255,
          -18.528406
        ]
      },
      "properties": {
        "label": "Arsenic trioxide",
        "level": 3,
        "pos": "-365260.723,-143611.086",
        "src_id": "1153",
        "weight": "303407.8333333334"
      }
    },
    {
      "type": "Feature",
      "id": "112",
      "geometry": {
        "type": "Point",
        "coordinates": [
          47.523031,
          56.177173
        ]
      },
      "properties": {
        "label": "Cinacalcet",
        "level": 5,
        "pos": "226902.055,294077.52499999997",
        "src_id": "998",
        "weight": "5445.25"
      }
    },
    {
      "type": "Feature",
      "id": "265",
      "geometry": {
        "type": "Point",
        "coordinates": [
          49.725035,
          58.772764
        ]
      },
      "properties": {
        "label": "Epothilone D",
        "level": 5,
        "pos": "238494.193,318355.275",
        "src_id": "1785",
        "weight": "118.0"
      }
    },
    {
      "type": "Feature",
      "id": "507",
      "geometry": {
        "type": "Point",
        "coordinates": [
          46.327669,
          54.160124
        ]
      },
      "properties": {
        "label": "Sarcosine",
        "level": 5,
        "pos": "220609.24399999998,276321.804",
        "src_id": "10167",
        "weight": "2619.0"
      }
    },
    {
      "type": "Feature",
      "id": "275",
      "geometry": {
        "type": "Point",
        "coordinates": [
          51.745992,
          59.665611
        ]
      },
      "properties": {
        "label": "motexafin gadolinium",
        "level": 5,
        "pos": "249133.232,327125.511",
        "src_id": "5053",
        "weight": "130.0"
      }
    },
    {
      "type": "Feature",
      "id": "3821",
      "geometry": {
        "type": "Point",
        "coordinates": [
          45.680675,
          53.715065
        ]
      },
      "properties": {
        "label": "D-Serine",
        "level": 3,
        "pos": "217203.226,272521.483",
        "src_id": "3701",
        "weight": "679.0"
      }
    },
    {
      "type": "Feature",
      "id": "3349",
      "geometry": {
        "type": "Point",
        "coordinates": [
          44.616991,
          51.925583
        ]
      },
      "properties": {
        "label": "Glycine",
        "level": 3,
        "pos": "211603.619,257634.429",
        "src_id": "137",
        "weight": "11187.5"
      }
    },
    {
      "type": "Feature",
      "id": "2317",
      "geometry": {
        "type": "Point",
        "coordinates": [
          44.821664,
          52.777441
        ]
      },
      "properties": {
        "label": "Cycloserine",
        "level": 3,
        "pos": "212681.092,264644.812",
        "src_id": "251",
        "weight": "10767.0"
      }
    },
    {
      "type": "Feature",
      "id": "6004",
      "geometry": {
        "type": "Point",
        "coordinates": [
          44.056374,
          51.833051
        ]
      },
      "properties": {
        "label": "D-Alanine",
        "level": 5,
        "pos": "208652.33299999998,256880.98500000002",
        "src_id": "1704",
        "weight": "289.0"
      }
    },
    {
      "type": "Feature",
      "id": "321",
      "geometry": {
        "type": "Point",
        "coordinates": [
          23.961628,
          -2.223029
        ]
      },
      "properties": {
        "label": "Fenofibrate",
        "level": 4,
        "pos": "102866.40199999999,-59987.710999999996",
        "src_id": "1024",
        "weight": "67241.0"
      }
    },
    {
      "type": "Feature",
      "id": "1172",
      "geometry": {
        "type": "Point",
        "coordinates": [
          19.826441,
          0.439355
        ]
      },
      "properties": {
        "label": "Griseofulvin",
        "level": 4,
        "pos": "81097.30399999999,-46602.384",
        "src_id": "389",
        "weight": "23020.75"
      }
    },
    {
      "type": "Feature",
      "id": "6846",
      "geometry": {
        "type": "Point",
        "coordinates": [
          27.621016,
          -5.35417
        ]
      },
      "properties": {
        "label": "Tolfenamic Acid",
        "level": 5,
        "pos": "122130.727,-75762.876",
        "src_id": "8156",
        "weight": "2753.0"
      }
    },
    {
      "type": "Feature",
      "id": "2706",
      "geometry": {
        "type": "Point",
        "coordinates": [
          19.725008,
          -0.742083
        ]
      },
      "properties": {
        "label": "Danazol",
        "level": 4,
        "pos": "80563.315,-52541.024",
        "src_id": "1349",
        "weight": "10512.0"
      }
    },
    {
      "type": "Feature",
      "id": "1412",
      "geometry": {
        "type": "Point",
        "coordinates": [
          20.434626,
          -0.054156
        ]
      },