{
  "type": "FeatureCollection",
  "features": [
    {
      "type": "Feature",
      "id": "601",
      "geometry": {
        "type": "Point",
        "coordinates": [
          -26.086259,
          -54.860751
        ]
      },
      "properties": {
        "label": "Etanercept",
        "level": 3,
        "pos": "-96708.1,-219521.749",
        "src_id": "5",
        "weight": "0.0"
      }
    },
    {
      "type": "Feature",
      "id": "550",
      "geometry": {
        "type": "Point",
        "coordinates": [
          -27.054066,
          -53.61316
        ]
      },
      "properties": {
        "label": "Acetylsalicylic acid",
        "level": 3,
        "pos": "-99907.75200000001,-211405.855",
        "src_id": "931",
        "weight": "0.0"
      }
    },
    {
      "type": "Feature",
      "id": "475",
      "geometry": {
        "type": "Point",
        "coordinates": [
          -24.449631,
          -58.74277
        ]
      },
      "properties": {
        "label": "Thalidomide",
        "level": 3,
        "pos": "-91297.27,-246503.714",
        "src_id": "1026",
        "weight": "0.0"
      }
    },
    {
      "type": "Feature",
      "id": "598",
      "geometry": {
        "type": "Point",
        "coordinates": [
          -21.386808,
          -55.221518
        ]
      },
      "properties": {
        "label": "Condom",
        "level": 3,
        "pos": "-81171.31999999999,-221915.299",
        "src_id": "174062",
        "weight": "0.0"
      }
    },
    {
      "type": "Feature",
      "id": "597",
      "geometry": {
        "type": "Point",
        "coordinates": [
          -22.976553,
          -55.273361
        ]
      },
      "properties": {
        "label": "Contusion",
        "level": 3,
        "pos": "-86427.151,-222261.04499999998",
        "src_id": "174362",
        "weight": "0.0"
      }
    },
    {
      "type": "Feature",
      "id": "590",
      "geometry": {
        "type": "Point",
        "coordinates": [
          -27.622086,
          -56.135449
        ]
      },
      "properties": {
        "label": "Oral surgery",
        "level": 3,
        "pos": "-101785.672,-228077.601",
        "src_id": "182328",
        "weight": "0.0"
      }
    },
    {
      "type": "Feature",
      "id": "440",
      "geometry": {
        "type": "Point",
        "coordinates": [
          -32.351234,
          -58.347958
        ]
      },
      "properties": {
        "label": "Swelling",
        "level": 3,
        "pos": "-117420.628,-243627.43699999998",
        "src_id": "186614",
        "weight": "102.0"
      }
    },
    {
      "type": "Feature",
      "id": "621",
      "geometry": {
        "type": "Point",
        "coordinates": [
          -21.201637,
          -50.966122
        ]
      },
      "properties": {
        "label": "Sirolimus",
        "level": 1,
        "pos": "-80559.133,-194948.173",
        "src_id": "863",
        "weight": "0.0"
      }
    },
    {
      "type": "Feature",
      "id": "834",
      "geometry": {
        "type": "Point",
        "coordinates": [
          -26.677787,
          -59.571385
        ]
      },
      "properties": {
        "label": "Teratogenicity",
        "level": 3,
        "pos": "-98663.738,-252648.18099999998",
        "src_id": "186774",
        "weight": "0.0"
      }
    },
    {
      "type": "Feature",
      "id": "881",
      "geometry": {
        "type": "Point",
        "coordinates": [
          -28.474442,
          -60.763662
        ]
      },
      "properties": {
        "label": "Trismus",
        "level": 3,
        "pos": "-104603.631,-261760.465",
        "src_id": "187436",
        "weight": "0.0"
      }
    },
    {
      "type": "Feature",
      "id": "947",
      "geometry": {
        "type": "Point",
        "coordinates": [
          -22.299725,
          -53.254653
        ]
      },
      "properties": {
        "label": "Autism spectrum disorder",
        "level": 1,
        "pos": "-84189.504,-209118.184",
        "src_id": "171129",
        "weight": "0.0"
      }
    },
    {
      "type": "Feature",
      "id": "874",
      "geometry": {
        "type": "Point",
        "coordinates": [
          -11.733262,
          -51.12154
        ]
      },
      "properties": {
        "label": "Mycophenolate mofetil",
        "level": 1,
        "pos": "-49255.889,-195887.892",
        "src_id": "674",
        "weight": "0.0"
      }
    },
    {
      "type": "Feature",
      "id": "245",
      "geometry": {
        "type": "Point",
        "coordinates": [
          -18.990652,
          -59.381621
        ]
      },
      "properties": {
        "label": "Neuropathy peripheral",
        "level": 3,
        "pos": "-73249.431,-251227.805",
        "src_id": "181766",
        "weight": "11.0"
      }
    },
    {
      "type": "Feature",
      "id": "451",
      "geometry": {
        "type": "Point",
        "coordinates": [
          -25.706278,
          -62.138072
        ]
      },
      "properties": {
        "label": "Dexamethasone",
        "level": 3,
        "pos": "-95451.848,-272695.168",
        "src_id": "1218",
        "weight": "38.0"
      }
    },
    {
      "type": "Feature",
      "id": "911",
      "geometry": {
        "type": "Point",
        "coordinates": [
          -29.703899,
          -57.945012
        ]
      },
      "properties": {
        "label": "Chlorhexidine",
        "level": 4,
        "pos": "-108668.317,-240724.869",
        "src_id": "864",
        "weight": "0.0"
      }
    },
    {
      "type": "Feature",
      "id": "903",
      "geometry": {
        "type": "Point",
        "coordinates": [
          -29.821851,
          -58.730236
        ]
      },
      "properties": {
        "label": "Dental caries",
        "level": 4,
        "pos": "-109058.277,-246411.902",
        "src_id": "174986",
        "weight": "0.0"
      }
    },
    {
      "type": "Feature",
      "id": "900",
      "geometry": {
        "type": "Point",
        "coordinates": [
          -29.166808,
          -58.29649
        ]
      },
      "properties": {
        "label": "Endocarditis bacterial",
        "level": 4,
        "pos": "-106892.647,-243254.857",
        "src_id": "175858",
        "weight": "0.0"
      }
    },
    {
      "type": "Feature",
      "id": "455",
      "geometry": {
        "type": "Point",
        "coordinates": [
          -2.578566,
          -19.348209
        ]
      },
      "properties": {
        "label": "Ketorolac",
        "level": 3,
        "pos": "-18989.698,-44029.489",
        "src_id": "454",
        "weight": "7.0"
      }
    },
    {
      "type": "Feature",
      "id": "883",
      "geometry": {
        "type": "Point",
        "coordinates": [
          -5.021644,
          -12.145061
        ]
      },
      "properties": {
        "label": "Sunburn",
        "level": 1,
        "pos": "-27066.718999999997,-15557.065",
        "src_id": "186556",
        "weight": "0.0"
      }
    },
    {
      "type": "Feature",
      "id": "453",
      "geometry": {
        "type": "Point",
        "coordinates": [
          -6.930168,
          -14.257286
        ]
      },
      "properties": {
        "label": "Flumazenil",
        "level": 2,
        "pos": "-33376.458999999995,-23805.225",
        "src_id": "1189",
        "weight": "3.0"
      }
    },
    {
      "type": "Feature",
      "id": "246",
      "geometry": {
        "type": "Point",
        "coordinates": [
          -8.268313,
          -5.145429
        ]
      },
      "properties": {
        "label": "Nasopharyngitis",
        "level": 3,
        "pos": "-37800.481,11375.554",
        "src_id": "181534",
        "weight": "420.0"
      }
    },
    {
      "type": "Feature",
      "id": "758",
      "geometry": {
        "type": "Point",
        "coordinates": [
          -4.74303,
          -19.349425
        ]
      },
      "properties": {
        "label": "Tolterodine",
        "level": 1,
        "pos": "-26145.605,-44034.390999999996",
        "src_id": "1021",
        "weight": "0.0"
      }
    },
    {
      "type": "Feature",
      "id": "360",
      "geometry": {
        "type": "Point",
        "coordinates": [
          -12.207258,
          -9.817994
        ]
      },
      "properties": {
        "label": "Sensitisation",
        "level": 3,
        "pos": "-50822.955,-6544.991",
        "src_id": "185737",
        "weight": "0.0"
      }
    },
    {
      "type": "Feature",
      "id": "505",
      "geometry": {
        "type": "Point",
        "coordinates": [
          -1.951625,
          -14.652138
        ]
      },
      "properties": {
        "label": "Central pain syndrome",
        "level": 1,
        "pos": "-16916.976,-25355.329999999998",
        "src_id": "173319",
        "weight": "0.0"
      }
    },
    {
      "type": "Feature",
      "id": "294",
      "geometry": {
        "type": "Point",
        "coordinates": [
          -8.143386,
          -21.986115
        ]
      },
      "properties": {
        "label": "Clonazepam",
        "level": 3,
        "pos": "-37387.462,-54748.50399999999",
        "src_id": "1052",
        "weight": "109.0"
      }
    },
    {
      "type": "Feature",
      "id": "442",
      "geometry": {
        "type": "Point",
        "coordinates": [
          -4.779569,
          -26.475593
        ]
      },
      "properties": {
        "label": "Hyperaesthesia",
        "level": 1,
        "pos": "-26266.404000000002,-73470.966",
        "src_id": "178414",
        "weight": "0.0"
      }
    },
    {
      "type": "Feature",
      "id": "1008",
      "geometry": {
        "type": "Point",
        "coordinates": [
          -11.361559,
          -3.671425
        ]
      },
      "properties": {
        "label": "Reserpine",
        "level": 3,
        "pos": "-48027.005000000005,16995.803",
        "src_id": "197",
        "weight": "0.0"
      }
    },
    {
      "type": "Feature",
      "id": "640",
      "geometry": {
        "type": "Point",
        "coordinates": [
          -6.278242,
          -7.809778
        ]
      },
      "properties": {
        "label": "Erythema",
        "level": 2,
        "pos": "-31221.144,1180.941",
        "src_id": "176163",
        "weight": "0.0"
      }
    },
    {
      "type": "Feature",
      "id": "828",
      "geometry": {
        "type": "Point",
        "coordinates": [
          -15.395649,
          -50.998043
        ]
      },
      "properties": {
        "label": "Fludarabine",
        "level": 1,
        "pos": "-61364.053,-195140.91700000002",
        "src_id": "1057",
        "weight": "0.0"
      }
    },
    {
      "type": "Feature",
      "id": "853",
      "geometry": {
        "type": "Point",
        "coordinates": [
          -4.213071,
          -54.310381
        ]
      },
      "properties": {
        "label": "Bone marrow transplant",
        "level": 4,
        "pos": "-24393.511,-215911.158",
        "src_id": "172516",
        "weight": "0.0"
      }
    },
    {
      "type": "Feature",
      "id": "851",
      "geometry": {
        "type": "Point",
        "coordinates": [
          -4.830868,
          -54.728163
        ]
      },
      "properties": {
        "label": "Chimerism",
        "level": 4,
        "pos": "-26436.001999999997,-218647.464",
        "src_id": "173557",
        "weight": "0.0"
      }
    },
    {
      "type": "Feature",
      "id": "848",
      "geometry": {
        "type": "Point",
        "coordinates": [
          -6.277734,
          -53.930443
        ]
      },
      "properties": {
        "label": "Haemoglobinopathy",
        "level": 4,
        "pos": "-31219.464,-213446.742",
        "src_id": "177660",
        "weight": "0.0"
      }
    },
    {
      "type": "Feature",
      "id": "836",
      "geometry": {
        "type": "Point",
        "coordinates": [
          -6.008213,
          -53.293643
        ]
      },
      "properties": {
        "label": "Sickle cell anaemia",
        "level": 4,
        "pos": "-30328.395,-209366.049",
        "src_id": "185861",
        "weight": "0.0"
      }
    },
    {
      "type": "Feature",
      "id": "832",
      "geometry": {
        "type": "Point",
        "coordinates": [
          -7.72918,
          -52.672496
        ]
      },
      "properties": {
        "label": "White blood cell count",
        "level": 4,
        "pos": "-36018.055,-205443.86000000002",
        "src_id": "188846",
        "weight": "0.0"
      }
    },
    {
      "type": "Feature",
      "id": "295",
      "geometry": {
        "type": "Point",
        "coordinates": [
          -55.91542,
          -37.41265
        ]
      },
      "properties": {
        "label": "Ibuprofen",
        "level": 3,
        "pos": "-195325.79799999998,-122601.332",
        "src_id": "1035",
        "weight": "1292.0"
      }
    },
    {
      "type": "Feature",
      "id": "1208",
      "geometry": {
        "type": "Point",
        "coordinates": [
          -58.16478,
          -36.547004
        ]
      },
      "properties": {
        "label": "Nifedipine",
        "level": 3,
        "pos": "-202762.37,-118481.835",
        "src_id": "1099",
        "weight": "0.0"
      }
    },
    {
      "type": "Feature",
      "id": "695",
      "geometry": {
        "type": "Point",
        "coordinates": [
          -59.725648,
          -35.161579
        ]
      },
      "properties": {
        "label": "Hypoperfusion",
        "level": 3,
        "pos": "-207922.731,-111983.466",
        "src_id": "178617",
        "weight": "277.0"
      }
    },
    {
      "type": "Feature",
      "id": "123",
      "geometry": {
        "type": "Point",
        "coordinates": [
          33.715985,
          -27.955051
        ]
      },
      "properties": {
        "label": "Analgesic therapy",
        "level": 2,
        "pos": "101003.124,-79795.576",
        "src_id": "170274",
        "weight": "9526.25"
      }
    },
    {
      "type": "Feature",
      "id": "973",
      "geometry": {
        "type": "Point",
        "coordinates": [
          25.568793,
          -24.572637
        ]
      },
      "properties": {
        "label": "Joint arthroplasty",
        "level": 2,
        "pos": "74067.821,-65453.920999999995",
        "src_id": "179502",
        "weight": "0.0"
      }
    },
    {
      "type": "Feature",
      "id": "203",
      "geometry": {
        "type": "Point",
        "coordinates": [
          34.524758,
          -25.852455
        ]
      },
      "properties": {
        "label": "Postoperative analgesia",
        "level": 3,
        "pos": "103676.989,-70831.644",
        "src_id": "183938",
        "weight": "189.0"
      }
    },
    {
      "type": "Feature",
      "id": "315",
      "geometry": {
        "type": "Point",
        "coordinates": [
          16.684607,
          -24.114559
        ]
      },
      "properties": {
        "label": "Procedural pain",
        "level": 2,
        "pos": "44695.96,-63542.581",
        "src_id": "184110",
        "weight": "1.0"
      }
    },
    {
      "type": "Feature",
      "id": "520",
      "geometry": {
        "type": "Point",
        "coordinates": [
          33.006756,
          -30.21188
        ]
      },
      "properties": {
        "label": "Fracture",
        "level": 3,
        "pos": "98658.354,-89613.82500000001",
        "src_id": "176874",
        "weight": "1273.0"
      }
    },
    {
      "type": "Feature",
      "id": "1152",
      "geometry": {
        "type": "Point",
        "coordinates": [
          34.019816,
          -27.015681
        ]
      },
      "properties": {
        "label": "Rotator cuff repair",
        "level": 4,
        "pos": "102007.61300000001,-75770.12000000001",
        "src_id": "185412",
        "weight": "0.0"
      }
    },
    {
      "type": "Feature",
      "id": "731",
      "geometry": {
        "type": "Point",
        "coordinates": [
          8.429583,
          -26.674021
        ]
      },
      "properties": {
        "label": "Pain management",
        "level": 1,
        "pos": "17404.159,-74314.414",
        "src_id": "182634",
        "weight": "0.0"
      }
    },
    {
      "type": "Feature",
      "id": "837",
      "geometry": {
        "type": "Point",
        "coordinates": [
          19.815977,
          -26.126012
        ]
      },
      "properties": {
        "label": "Radiculotomy",
        "level": 4,
        "pos": "55048.530999999995,-71988.56999999999",
        "src_id": "184739",
        "weight": "0.0"
      }
    },
    {
      "type": "Feature",
      "id": "1175",
      "geometry": {
        "type": "Point",
        "coordinates": [
          16.779499,
          -25.737893
        ]
      },
      "properties": {
        "label": "Hysterectomy",
        "level": 4,
        "pos": "45009.679,-70347.932",
        "src_id": "178681",
        "weight": "0.0"
      }
    },
    {
      "type": "Feature",
      "id": "83",
      "geometry": {
        "type": "Point",
        "coordinates": [
          4.749201,
          39.383462
        ]
      },
      "properties": {
        "label": "Dizziness",
        "level": 2,
        "pos": "5236.511,194086.86800000002",
        "src_id": "175317",
        "weight": "6063.5"
      }
    },
    {
      "type": "Feature",
      "id": "42",
      "geometry": {
        "type": "Point",
        "coordinates": [
          7.6296,
          37.410635
        ]
      },
      "properties": {
        "label": "Headache",
        "level": 1,
        "pos": "14759.348,184516.44",
        "src_id": "177790",
        "weight": "6459.5"
      }
    },
    {
      "type": "Feature",
      "id": "202",
      "geometry": {
        "type": "Point",
        "coordinates": [
          4.227003,
          40.824752
        ]
      },
      "properties": {
        "label": "Sedation",
        "level": 2,
        "pos": "3510.08,201250.721",
        "src_id": "185679",
        "weight": "4893.25"
      }
    },
    {
      "type": "Feature",
      "id": "67",
      "geometry": {
        "type": "Point",
        "coordinates": [
          7.856561,
          41.06175
        ]
      },
      "properties": {
        "label": "Nausea",
        "level": 3,
        "pos": "15509.695000000002,202443.467",
        "src_id": "181546",
        "weight": "5447.25"
      }
    },
    {
      "type": "Feature",
      "id": "9",
      "geometry": {
        "type": "Point",
        "coordinates": [
          7.516857,
          39.153856
        ]
      },
      "properties": {
        "label": "Vomiting",
        "level": 1,
        "pos": "14386.612,192959.42299999998",
        "src_id": "188709",
        "weight": "36374.0"
      }
    },
    {
      "type": "Feature",
      "id": "907",
      "geometry": {
        "type": "Point",
        "coordinates": [
          9.166836,
          35.413936
        ]
      },
      "properties": {
        "label": "Aura",
        "level": 1,
        "pos": "19841.581000000002,175083.50999999998",
        "src_id": "171120",
        "weight": "0.0"
      }
    },
    {
      "type": "Feature",
      "id": "1253",
      "geometry": {
        "type": "Point",
        "coordinates": [
          1.371658,
          39.602807
        ]
      },
      "properties": {
        "label": "Angiogram",
        "level": 4,
        "pos": "-5929.932,195167.404",
        "src_id": "170345",
        "weight": "0.0"
      }
    },
    {
      "type": "Feature",
      "id": "255",
      "geometry": {
        "type": "Point",
        "coordinates": [
          5.060845,
          41.553622
        ]
      },
      "properties": {
        "label": "Anaesthesia",
        "level": 2,
        "pos": "6266.834,204932.738",
        "src_id": "170206",
        "weight": "4453.0"
      }
    },
    {
      "type": "Feature",
      "id": "27",
      "geometry": {
        "type": "Point",
        "coordinates": [
          8.852083,
          39.678927
        ]
      },
      "properties": {
        "label": "Propofol",
        "level": 3,
        "pos": "18800.983,195543.177",
        "src_id": "804",
        "weight": "3937.0"
      }
    },
    {
      "type": "Feature",
      "id": "1218",
      "geometry": {
        "type": "Point",
        "coordinates": [
          2.033756,
          36.564416
        ]
      },
      "properties": {
        "label": "Eletriptan",
        "level": 3,
        "pos": "-3740.979,180488.99800000002",
        "src_id": "207",
        "weight": "0.0"
      }
    },
    {
      "type": "Feature",
      "id": "1206",
      "geometry": {
        "type": "Point",
        "coordinates": [
          5.2989,
          36.153073
        ]
      },
      "properties": {
        "label": "Milnacipran",
        "level": 4,
        "pos": "7053.857,178547.24300000002",
        "src_id": "4618",
        "weight": "0.0"
      }
    },
    {
      "type": "Feature",
      "id": "1172",
      "geometry": {
        "type": "Point",
        "coordinates": [
          9.086998,
          34.860139
        ]
      },
      "properties": {
        "label": "Migraine with aura",
        "level": 4,
        "pos": "19577.631,172509.107",
        "src_id": "180998",
        "weight": "0.0"
      }
    },
    {
      "type": "Feature",
      "id": "1096",
      "geometry": {
        "type": "Point",
        "coordinates": [
          11.580081,
          37.249034
        ]
      },
      "properties": {
        "label": "Visual impairment",
        "level": 4,
        "pos": "27819.968,183743.853",
        "src_id": "188598",
        "weight": "0.0"
      }
    },
    {
      "type": "Feature",
      "id": "2",
      "geometry": {
        "type": "Point",
        "coordinates": [
          -13.756311,
          -59.052972
        ]
      },
      "properties": {
        "label": "Drug interaction",
        "level": 1,
        "pos": "-55944.263999999996,-248786.58200000002",
        "src_id": "175376",
        "weight": "56614.25"
      }
    },
    {
      "type": "Feature",
      "id": "62",
      "geometry": {
        "type": "Point",
        "coordinates": [
          -16.066997,
          -57.251807
        ]
      },
      "properties": {
        "label": "Cognitive disorder",
        "level": 1,
        "pos": "-63583.583,-235806.833",
        "src_id": "173888",
        "weight": "11092.5"
      }
    },
    {
      "type": "Feature",
      "id": "1209",
      "geometry": {
        "type": "Point",
        "coordinates": [
          -17.145623,
          -62.65038
        ]
      },
      "properties": {
        "label": "Atorvastatin",
        "level": 3,
        "pos": "-67149.614,-276898.164",
        "src_id": "1060",
        "weight": "0.0"
      }
    },
    {
      "type": "Feature",
      "id": "1216",
      "geometry": {
        "type": "Point",
        "coordinates": [
          -18.148453,
          -62.364688
        ]
      },
      "properties": {
        "label": "Etonogestrel",
        "level": 3,
        "pos": "-70465.052,-274545.483",
        "src_id": "285",
        "weight": "0.0"
      }
    },
    {
      "type": "Feature",
      "id": "1217",
      "geometry": {
        "type": "Point",
        "coordinates": [
          -20.603757,
          -60.550775
        ]
      },
      "properties": {
        "label": "Lovastatin",
        "level": 3,
        "pos": "-78582.492,-260108.955",
        "src_id": "218",
        "weight": "127.0"
      }
    },
    {
      "type": "Feature",
      "id": "1168",
      "geometry": {
        "type": "Point",
        "coordinates": [
          -19.352104,
          -60.211591
        ]
      },
      "properties": {
        "label": "Noonan syndrome",
        "level": 3,
        "pos": "-74444.418,-257499.96700000003",
        "src_id": "181929",
        "weight": "127.0"
      }
    },
    {
      "type": "Feature",
      "id": "382",
      "geometry": {
        "type": "Point",
        "coordinates": [
          -18.094489,
          -55.138305
        ]
      },
      "properties": {
        "label": "Dementia Alzheimer's type",
        "level": 1,
        "pos": "-70286.639,-221361.29700000002",
        "src_id": "174972",
        "weight": "274.0"
      }
    },
    {
      "type": "Feature",
      "id": "117",
      "geometry": {
        "type": "Point",
        "coordinates": [
          -11.069975,
          -57.510078
        ]
      },
      "properties": {
        "label": "Dementia",
        "level": 2,
        "pos": "-47063.011000000006,-237628.22600000002",
        "src_id": "174971",
        "weight": "16194.0"
      }
    },
    {
      "type": "Feature",
      "id": "583",
      "geometry": {
        "type": "Point",
        "coordinates": [
          -13.947652,
          -52.019464
        ]
      },
      "properties": {
        "label": "Memantine",
        "level": 1,
        "pos": "-56576.846000000005,-201379.995",
        "src_id": "1028",
        "weight": "0.0"
      }
    },
    {
      "type": "Feature",
      "id": "1193",
      "geometry": {
        "type": "Point",
        "coordinates": [
          -21.970386,
          -59.067357
        ]
      },
      "properties": {
        "label": "Apolipoprotein",
        "level": 4,
        "pos": "-83100.683,-248892.935",
        "src_id": "170743",
        "weight": "0.0"
      }
    },
    {
      "type": "Feature",
      "id": "1116",
      "geometry": {
        "type": "Point",
        "coordinates": [
          -11.637133,
          -56.371751
        ]
      },
      "properties": {
        "label": "Immunohistochemistry",
        "level": 4,
        "pos": "-48938.082,-229694.671",
        "src_id": "178780",
        "weight": "0.0"
      }
    },
    {
      "type": "Feature",
      "id": "20",
      "geometry": {
        "type": "Point",
        "coordinates": [
          25.393068,
          29.398709
        ]
      },
      "properties": {
        "label": "Fatigue",
        "level": 2,
        "pos": "73486.856,147975.992",
        "src_id": "176597",
        "weight": "21206.5"
      }
    },
    {
      "type": "Feature",
      "id": "345",
      "geometry": {
        "type": "Point",
        "coordinates": [
          26.47697,
          22.045781
        ]
      },
      "properties": {
        "label": "Anxiety",
        "level": 2,
        "pos": "77070.327,116917.917",
        "src_id": "170661",
        "weight": "2916.5"
      }
    },
    {
      "type": "Feature",
      "id": "90",
      "geometry": {
        "type": "Point",
        "coordinates": [
          28.530971,
          14.894859
        ]
      },
      "properties": {
        "label": "Stress",
        "level": 2,
        "pos": "83861.03,88234.337",
        "src_id": "186464",
        "weight": "15868.0"
      }
    },
    {
      "type": "Feature",
      "id": "1149",
      "geometry": {
        "type": "Point",
        "coordinates": [
          29.822142,
          23.906238
        ]
      },
      "properties": {
        "label": "Social phobia",
        "level": 3,
        "pos": "88129.754,124600.382",
        "src_id": "186090",
        "weight": "67.0"
      }
    },
    {
      "type": "Feature",
      "id": "1183",
      "geometry": {
        "type": "Point",
        "coordinates": [
          27.096364,
          28.841955
        ]
      },
      "properties": {
        "label": "Emergency care",
        "level": 3,
        "pos": "79118.09599999999,145553.216",
        "src_id": "175775",
        "weight": "47.0"
      }
    },
    {
      "type": "Feature",
      "id": "1273",
      "geometry": {
        "type": "Point",
        "coordinates": [
          38.190391,
          15.807184
        ]
      },
      "properties": {
        "label": "Vitamin C",
        "level": 3,
        "pos": "115795.883,91830.934",
        "src_id": "118",
        "weight": "0.0"
      }
    },
    {
      "type": "Feature",
      "id": "557",
      "geometry": {
        "type": "Point",
        "coordinates": [
          28.324171,
          7.486823
        ]
      },
      "properties": {
        "label": "Post-traumatic stress disorder",
        "level": 2,
        "pos": "83177.327,59505.068",
        "src_id": "183910",
        "weight": "0.0"
      }
    },
    {
      "type": "Feature",
      "id": "1173",
      "geometry": {
        "type": "Point",
        "coordinates": [
          36.618562,
          16.413998
        ]
      },
      "properties": {
        "label": "Merycism",
        "level": 3,
        "pos": "110599.281,94232.057",
        "src_id": "180788",
        "weight": "52.0"
      }
    },
    {
      "type": "Feature",
      "id": "26",
      "geometry": {
        "type": "Point",
        "coordinates": [
          45.82485,
          -28.51756
        ]
      },
      "properties": {
        "label": "Haemorrhage",
        "level": 2,
        "pos": "141036.043,-82222.825",
        "src_id": "177684",
        "weight": "15485.25"
      }
    },
    {
      "type": "Feature",
      "id": "967",
      "geometry": {
        "type": "Point",
        "coordinates": [
          38.772279,
          -25.786056
        ]
      },
      "properties": {
        "label": "Phlebotomy",
        "level": 2,
        "pos": "117719.65400000001,-70551.235",
        "src_id": "183411",
        "weight": "0.0"
      }
    },
    {
      "type": "Feature",
      "id": "547",
      "geometry": {
        "type": "Point",
        "coordinates": [
          31.478317,
          -21.733622
        ]
      },
      "properties": {
        "label": "Contraception",
        "level": 2,
        "pos": "93605.19600000001,-53714.276",
        "src_id": "174350",
        "weight": "0.0"
      }
    },
    {
      "type": "Feature",
      "id": "801",
      "geometry": {
        "type": "Point",
        "coordinates": [
          48.900462,
          -25.826677
        ]
      },
      "properties": {
        "label": "Levonorgestrel",
        "level": 3,
        "pos": "151204.274,-70722.761",
        "src_id": "357",
        "weight": "0.0"
      }
    },
    {
      "type": "Feature",
      "id": "986",
      "geometry": {
        "type": "Point",
        "coordinates": [
          48.034474,
          -26.812637
        ]
      },
      "properties": {
        "label": "Colposcopy",
        "level": 4,
        "pos": "148341.238,-74904.47600000001",
        "src_id": "173968",
        "weight": "0.0"
      }
    },
    {
      "type": "Feature",
      "id": "1030",
      "geometry": {
        "type": "Point",
        "coordinates": [
          37.310444,
          -22.343103
        ]
      },
      "properties": {
        "label": "Intra-uterine contraceptive device",
        "level": 4,
        "pos": "112886.697,-56213.892",
        "src_id": "179325",
        "weight": "0.0"
      }
    },
    {
      "type": "Feature",
      "id": "456",
      "geometry": {
        "type": "Point",
        "coordinates": [
          28.141683,
          -20.79312
        ]
      },
      "properties": {
        "label": "Progesterone",
        "level": 2,
        "pos": "82574.015,-49877.699",
        "src_id": "385",
        "weight": "0.0"
      }
    },
    {
      "type": "Feature",
      "id": "658",
      "geometry": {
        "type": "Point",
        "coordinates": [
          50.667275,
          -29.231089
        ]
      },
      "properties": {
        "label": "Oral contraception",
        "level": 4,
        "pos": "157045.5,-85320.44",
        "src_id": "182298",
        "weight": "0.0"
      }
    },
    {
      "type": "Feature",
      "id": "711",
      "geometry": {
        "type": "Point",
        "coordinates": [
          53.419081,
          -28.662037
        ]
      },
      "properties": {
        "label": "Eslicarbazepine acetate",
        "level": 3,
        "pos": "166143.197,-82848.325",
        "src_id": "8064",
        "weight": "0.0"
      }
    },
    {
      "type": "Feature",
      "id": "309",
      "geometry": {
        "type": "Point",
        "coordinates": [
          -20.915232,
          -12.757008
        ]
      },
      "properties": {
        "label": "Hypoaesthesia",
        "level": 3,
        "pos": "-79612.251,-17939.450999999997",
        "src_id": "178564",
        "weight": "1538.0"
      }
    },
    {
      "type": "Feature",
      "id": "919",
      "geometry": {
        "type": "Point",
        "coordinates": [
          -13.229413,
          -15.691997
        ]
      },
      "properties": {
        "label": "Spinal cord injury",
        "level": 1,
        "pos": "-54202.292,-29451.209",
        "src_id": "186211",
        "weight": "0.0"
      }
    },
    {
      "type": "Feature",
      "id": "263",
      "geometry": {
        "type": "Point",
        "coordinates": [
          -23.118679,
          -14.623663
        ]
      },
      "properties": {
        "label": "Paraesthesia",
        "level": 3,
        "pos": "-86897.02900000001,-25243.446",
        "src_id": "182787",
        "weight": "158.0"
      }
    },
    {
      "type": "Feature",
      "id": "830",
      "geometry": {
        "type": "Point",
        "coordinates": [
          -19.523044,
          -18.233827
        ]
      },
      "properties": {
        "label": "Tizanidine",
        "level": 3,
        "pos": "-75009.559,-39554.535",
        "src_id": "683",
        "weight": "0.0"
      }
    },
    {
      "type": "Feature",
      "id": "374",
      "geometry": {
        "type": "Point",
        "coordinates": [
          -21.696742,
          -16.361982
        ]
      },
      "properties": {
        "label": "Tramadol",
        "level": 1,
        "pos": "-82195.986,-32101.194999999996",
        "src_id": "184",
        "weight": "0.0"
      }
    },
    {
      "type": "Feature",
      "id": "509",
      "geometry": {
        "type": "Point",
        "coordinates": [
          -9.760931,
          -22.548093
        ]
      },
      "properties": {
        "label": "Allodynia",
        "level": 1,
        "pos": "-42735.197,-57057.04",
        "src_id": "170023",
        "weight": "1272.0"
      }
    },
    {
      "type": "Feature",
      "id": "1090",
      "geometry": {
        "type": "Point",
        "coordinates": [
          -23.817342,
          -16.295549
        ]
      },
      "properties": {
        "label": "Dantrolene",
        "level": 4,
        "pos": "-89206.873,-31838.025999999998",
        "src_id": "1203",
        "weight": "0.0"
      }
    },
    {
      "type": "Feature",
      "id": "1202",
      "geometry": {
        "type": "Point",
        "coordinates": [
          -4.445581,
          -28.10886
        ]
      },
      "properties": {
        "label": "Rufinamide",
        "level": 4,
        "pos": "-25162.207,-80458.002",
        "src_id": "5476",
        "weight": "0.0"
      }
    },
    {
      "type": "Feature",
      "id": "1160",
      "geometry": {
        "type": "Point",
        "coordinates": [
          -12.89319,
          -19.247468
        ]
      },
      "properties": {
        "label": "Post herpetic neuralgia",
        "level": 3,
        "pos": "-53090.705,-43623.71799999999",
        "src_id": "183865",
        "weight": "0.0"
      }
    },
    {
      "type": "Feature",
      "id": "125",
      "geometry": {
        "type": "Point",
        "coordinates": [
          30.834836,
          -43.58717
        ]
      },
      "properties": {
        "label": "Infection",
        "level": 2,
        "pos": "91477.8,-153506.609",
        "src_id": "178954",
        "weight": "11716.0"
      }
    },
    {
      "type": "Feature",
      "id": "22",
      "geometry": {
        "type": "Point",
        "coordinates": [
          31.045623,
          -44.095001
        ]
      },
      "properties": {
        "label": "Pyrexia",
        "level": 2,
        "pos": "92174.68,-156183.23",
        "src_id": "184658",
        "weight": "17034.0"
      }
    },
    {
      "type": "Feature",
      "id": "288",
      "geometry": {
        "type": "Point",
        "coordinates": [
          24.505737,
          -47.007406
        ]
      },
      "properties": {
        "label": "Volvulus",
        "level": 2,
        "pos": "70553.268,-171998.887",
        "src_id": "188707",
        "weight": "82.0"
      }
    },
    {
      "type": "Feature",
      "id": "340",
      "geometry": {
        "type": "Point",
        "coordinates": [
          17.485857,
          -46.387568
        ]
      },
      "properties": {
        "label": "Ivermectin",
        "level": 2,
        "pos": "47344.955,-168563.198",
        "src_id": "589",
        "weight": "1.0"
      }
    },
    {
      "type": "Feature",
      "id": "317",
      "geometry": {
        "type": "Point",
        "coordinates": [
          23.888015,
          -43.895712
        ]
      },
      "properties": {
        "label": "Onchocerciasis",
        "level": 3,
        "pos": "68511.029,-155130.119",
        "src_id": "182215",
        "weight": "0.0"
      }
    },
    {
      "type": "Feature",
      "id": "324",
      "geometry": {
        "type": "Point",
        "coordinates": [
          25.862506,
          -45.946445
        ]
      },
      "properties": {
        "label": "Serology test",
        "level": 3,
        "pos": "75038.856,-166141.807",
        "src_id": "185776",
        "weight": "48.0"
      }
    },
    {
      "type": "Feature",
      "id": "675",
      "geometry": {
        "type": "Point",
        "coordinates": [
          17.619822,
          -43.732111
        ]
      },
      "properties": {
        "label": "Moxidectin",
        "level": 2,
        "pos": "47787.864,-154268.229",
        "src_id": "9229",
        "weight": "0.0"
      }
    },
    {
      "type": "Feature",
      "id": "13",
      "geometry": {
        "type": "Point",
        "coordinates": [
          -37.515129,
          3.416525
        ]
      },
      "properties": {
        "label": "Inflammation",
        "level": 2,
        "pos": "-134492.896,43958.085",
        "src_id": "178993",
        "weight": "17389.0"
      }
    },
    {
      "type": "Feature",
      "id": "92",
      "geometry": {
        "type": "Point",
        "coordinates": [
          -30.581031,
          6.966366
        ]
      },
      "properties": {
        "label": "Lymphocyte count",
        "level": 3,
        "pos": "-111568.189,57510.691999999995",
        "src_id": "180276",
        "weight": "56.0"
      }
    },
    {
      "type": "Feature",
      "id": "673",
      "geometry": {
        "type": "Point",
        "coordinates": [
          -32.109791,
          5.35386
        ]
      },
      "properties": {
        "label": "Asthma",
        "level": 2,
        "pos": "-116622.40199999999,51344.897000000004",
        "src_id": "171037",
        "weight": "0.0"
      }
    },
    {
      "type": "Feature",
      "id": "1139",
      "geometry": {
        "type": "Point",
        "coordinates": [
          -43.561471,
          0.890828
        ]
      },
      "properties": {
        "label": "Ferumoxytol",
        "level": 4,
        "pos": "-154482.612,34349.020000000004",
        "src_id": "5488",
        "weight": "0.0"
      }
    },
    {
      "type": "Feature",
      "id": "1114",
      "geometry": {
        "type": "Point",
        "coordinates": [
          -46.809087,
          0.229966
        ]
      },
      "properties": {
        "label": "Iron deficiency anaemia",
        "level": 4,
        "pos": "-165219.50100000002,31836.596",
        "src_id": "179433",
        "weight": "0.0"
      }
    },
    {
      "type": "Feature",
      "id": "318",
      "geometry": {
        "type": "Point",
        "coordinates": [
          -34.022093,
          4.198448
        ]
      },
      "properties": {
        "label": "Migraine",
        "level": 3,
        "pos": "-122944.631,46937.188",
        "src_id": "180996",
        "weight": "3878.0"
      }
    },
    {
      "type": "Feature",
      "id": "413",
      "geometry": {
        "type": "Point",
        "coordinates": [
          -38.749037,
          1.479245
        ]
      },
      "properties": {
        "label": "Trigeminal neuralgia",
        "level": 3,
        "pos": "-138572.303,36586.388",
        "src_id": "187430",
        "weight": "50.0"
      }
    },
    {
      "type": "Feature",
      "id": "760",
      "geometry": {
        "type": "Point",
        "coordinates": [
          -27.868882,
          7.921765
        ]
      },
      "properties": {
        "label": "Caffeine",
        "level": 2,
        "pos": "-102601.595,61173.583",
        "src_id": "192",
        "weight": "0.0"
      }
    },
    {
      "type": "Feature",
      "id": "1147",
      "geometry": {
        "type": "Point",
        "coordinates": [
          -36.554649,
          2.773461
        ]
      },
      "properties": {
        "label": "Spina bifida",
        "level": 4,
        "pos": "-131317.468,41509.880000000005",
        "src_id": "186194",
        "weight": "0.0"
      }
    },
    {
      "type": "Feature",
      "id": "414",
      "geometry": {
        "type": "Point",
        "coordinates": [
          -27.753452,
          9.511393
        ]
      },
      "properties": {
        "label": "Premedication",
        "level": 2,
        "pos": "-102219.975,67287.40999999999",
        "src_id": "184047",
        "weight": "0.0"
      }
    },
    {
      "type": "Feature",
      "id": "680",
      "geometry": {
        "type": "Point",
        "coordinates": [
          -28.96498,
          6.349162
        ]
      },
      "properties": {
        "label": "Methylphenidate",
        "level": 3,
        "pos": "-106225.386,55148.428",
        "src_id": "411",
        "weight": "0.0"
      }
    },
    {
      "type": "Feature",
      "id": "6",
      "geometry": {
        "type": "Point",
        "coordinates": [
          -28.29068,
          30.866502
        ]
      },
      "properties": {
        "label": "Rash",
        "level": 2,
        "pos": "-103996.104,154427.97999999998",
        "src_id": "184786",
        "weight": "18682.75"
      }
    },
    {
      "type": "Feature",
      "id": "39",
      "geometry": {
        "type": "Point",
        "coordinates": [
          -23.90665,
          24.79069
        ]
      },
      "properties": {
        "label": "Elderly",
        "level": 2,
        "pos": "-89502.126,128290.954",
        "src_id": "175648",
        "weight": "14687.75"
      }
    },
    {
      "type": "Feature",
      "id": "349",
      "geometry": {
        "type": "Point",
        "coordinates": [
          -19.187018,
          18.422338
        ]
      },
      "properties": {
        "label": "Carbamazepine",
        "level": 2,
        "pos": "-73898.628,102234.216",
        "src_id": "551",
        "weight": "6899.0"
      }
    },
    {
      "type": "Feature",
      "id": "1266",
      "geometry": {
        "type": "Point",
        "coordinates": [
          -28.911971,
          29.881317
        ]
      },
      "properties": {
        "label": "Itraconazole",
        "level": 4,
        "pos": "-106050.137,150086.848",
        "src_id": "1151",
        "weight": "0.0"
      }
    },
    {
      "type": "Feature",
      "id": "1133",
      "geometry": {
        "type": "Point",
        "coordinates": [
          -25.291927,
          28.934075
        ]
      },
      "properties": {
        "label": "Adverse drug reaction",
        "level": 3,
        "pos": "-94081.967,145953.195",
        "src_id": "169884",
        "weight": "56.0"
      }
    },
    {
      "type": "Feature",
      "id": "260",
      "geometry": {
        "type": "Point",
        "coordinates": [
          -13.905339,
          15.339548
        ]
      },
      "properties": {
        "label": "Blood sodium",
        "level": 2,
        "pos": "-56436.959,89985.44499999999",
        "src_id": "172362",
        "weight": "2339.25"
      }
    },
    {
      "type": "Feature",
      "id": "1270",
      "geometry": {
        "type": "Point",
        "coordinates": [
          -26.547948,
          22.847146
        ]
      },
      "properties": {
        "label": "Ritonavir",
        "level": 4,
        "pos": "-98234.478,120214.09199999999",
        "src_id": "492",
        "weight": "0.0"
      }
    },
    {
      "type": "Feature",
      "id": "1267",
      "geometry": {
        "type": "Point",
        "coordinates": [
          -25.458435,
          22.150236
        ]
      },
      "properties": {
        "label": "Tipranavir",
        "level": 4,
        "pos": "-94632.456,117346.492",
        "src_id": "918",
        "weight": "0.0"
      }
    },
    {
      "type": "Feature",
      "id": "1263",
      "geometry": {
        "type": "Point",
        "coordinates": [
          -25.244575,
          23.694097
        ]
      },
      "properties": {
        "label": "Dolutegravir",
        "level": 4,
        "pos": "-93925.42199999999,123718.962",
        "src_id": "7884",
        "weight": "0.0"
      }
    },
    {
      "type": "Feature",
      "id": "1260",
      "geometry": {
        "type": "Point",
        "coordinates": [
          -24.555648,
          21.189223
        ]
      },
      "properties": {
        "label": "Lettuce",
        "level": 4,
        "pos": "-91647.76999999999,113415.291",
        "src_id": "8609",
        "weight": "0.0"
      }
    },
    {
      "type": "Feature",
      "id": "1237",
      "geometry": {
        "type": "Point",
        "coordinates": [
          -22.140367,
          21.800901
        ]
      },
      "properties": {
        "label": "Hepatic fibrosis",
        "level": 4,
        "pos": "-83662.65400000001,115914.432",
        "src_id": "177897",
        "weight": "0.0"
      }
    },
    {
      "type": "Feature",
      "id": "689",
      "geometry": {
        "type": "Point",
        "coordinates": [
          -17.441913,
          -60.740456
        ]
      },
      "properties": {
        "label": "Neurocysticercosis",
        "level": 3,
        "pos": "-68129.168,-261579.905",
        "src_id": "181717",
        "weight": "207.0"
      }
    },
    {
      "type": "Feature",
      "id": "24",
      "geometry": {
        "type": "Point",
        "coordinates": [
          -32.818563,
          -15.733855
        ]
      },
      "properties": {
        "label": "Tumour necrosis",
        "level": 3,
        "pos": "-118965.664,-29616.513000000003",
        "src_id": "187516",
        "weight": "5728.25"
      }
    },
    {
      "type": "Feature",
      "id": "669",
      "geometry": {
        "type": "Point",
        "coordinates": [
          -26.10236,
          -20.363645
        ]
      },
      "properties": {
        "label": "Coronary artery disease",
        "level": 1,
        "pos": "-96761.331,-48133.765",
        "src_id": "174453",
        "weight": "0.0"
      }
    },
    {
      "type": "Feature",
      "id": "537",
      "geometry": {
        "type": "Point",
        "coordinates": [
          -33.904389,
          -17.563746
        ]
      },
      "properties": {
        "label": "Arteriosclerosis",
        "level": 1,
        "pos": "-122555.495,-36877.632",
        "src_id": "170910",
        "weight": "0.0"
      }
    },
    {
      "type": "Feature",
      "id": "352",
      "geometry": {
        "type": "Point",
        "coordinates": [
          -34.365442,
          -16.918014
        ]
      },
      "properties": {
        "label": "Vitamin A",
        "level": 3,
        "pos": "-124079.76999999999,-34307.355",
        "src_id": "154",
        "weight": "0.0"
      }
    },
    {
      "type": "Feature",
      "id": "507",
      "geometry": {
        "type": "Point",
        "coordinates": [
          -19.495128,
          -24.651639
        ]
      },
      "properties": {
        "label": "Cardiac disorder",
        "level": 1,
        "pos": "-74917.26800000001,-65784.261",
        "src_id": "173028",
        "weight": "0.0"
      }
    },
    {
      "type": "Feature",
      "id": "347",
      "geometry": {
        "type": "Point",
        "coordinates": [
          -33.989853,
          -16.326799
        ]
      },
      "properties": {
        "label": "Cholesterol",
        "level": 3,
        "pos": "-122838.044,-31961.81",
        "src_id": "4273",
        "weight": "1273.0"
      }
    },
    {
      "type": "Feature",
      "id": "677",
      "geometry": {
        "type": "Point",
        "coordinates": [
          -22.737245,
          -27.143871
        ]
      },
      "properties": {
        "label": "Leptin",
        "level": 3,
        "pos": "-85635.983,-76317.438",
        "src_id": "4788",
        "weight": "0.0"
      }
    },
    {
      "type": "Feature",
      "id": "676",
      "geometry": {
        "type": "Point",
        "coordinates": [
          -20.506537,
          -26.580002
        ]
      },
      "properties": {
        "label": "Beta carotene",
        "level": 3,
        "pos": "-78261.071,-73914.58799999999",
        "src_id": "5813",
        "weight": "0.0"
      }
    },
    {
      "type": "Feature",
      "id": "617",
      "geometry": {
        "type": "Point",
        "coordinates": [
          -20.222137,
          -25.253203
        ]
      },
      "properties": {
        "label": "Ghrelin",
        "level": 3,
        "pos": "-77320.819,-68306.568",
        "src_id": "9563",
        "weight": "0.0"
      }
    },
    {
      "type": "Feature",
      "id": "663",
      "geometry": {
        "type": "Point",
        "coordinates": [
          -23.495935,
          -26.472572
        ]
      },
      "properties": {
        "label": "Hyperthyroidism",
        "level": 3,
        "pos": "-88144.27,-73458.144",
        "src_id": "178535",
        "weight": "0.0"
      }
    },
    {
      "type": "Feature",
      "id": "662",
      "geometry": {
        "type": "Point",
        "coordinates": [
          -21.386578,
          -25.843916
        ]
      },
      "properties": {
        "label": "Hypothyroidism",
        "level": 3,
        "pos": "-81170.557,-70795.56999999999",
        "src_id": "178664",
        "weight": "0.0"
      }
    },
    {
      "type": "Feature",
      "id": "302",
      "geometry": {
        "type": "Point",
        "coordinates": [
          -40.340106,
          -13.057931
        ]
      },
      "properties": {
        "label": "Blood triglycerides",
        "level": 3,
        "pos": "-143832.513,-19113.067000000003",
        "src_id": "172398",
        "weight": "1273.0"
      }
    },
    {
      "type": "Feature",
      "id": "961",
      "geometry": {
        "type": "Point",
        "coordinates": [
          -39.33698,
          -12.332986
        ]
      },
      "properties": {
        "label": "Subarachnoid haemorrhage",
        "level": 4,
        "pos": "-140516.088,-16288.094999999998",
        "src_id": "186491",
        "weight": "0.0"
      }
    },
    {
      "type": "Feature",
      "id": "1233",
      "geometry": {
        "type": "Point",
        "coordinates": [
          -37.442872,
          -13.734546
        ]
      },
      "properties": {
        "label": "Low density lipoprotein",
        "level": 4,
        "pos": "-134254.008,-21757.195",
        "src_id": "180138",
        "weight": "0.0"
      }
    },
    {
      "type": "Feature",
      "id": "879",
      "geometry": {
        "type": "Point",
        "coordinates": [
          -22.585446,
          -45.815307
        ]
      },
      "properties": {
        "label": "Sargramostim",
        "level": 1,
        "pos": "-85134.125,-165425.704",
        "src_id": "20",
        "weight": "0.0"
      }
    },
    {
      "type": "Feature",
      "id": "871",
      "geometry": {
        "type": "Point",
        "coordinates": [
          -14.469871,
          -47.556898
        ]
      },
      "properties": {
        "label": "Isotretinoin",
        "level": 3,
        "pos": "-58303.352,-175078.148",
        "src_id": "968",
        "weight": "0.0"
      }
    },
    {
      "type": "Feature",
      "id": "870",
      "geometry": {
        "type": "Point",
        "coordinates": [
          -14.364012,
          -48.019881
        ]
      },
      "properties": {
        "label": "Topotecan",
        "level": 3,
        "pos": "-57953.37,-177697.792",
        "src_id": "1015",
        "weight": "0.0"
      }
    },
    {
      "type": "Feature",
      "id": "632",
      "geometry": {
        "type": "Point",
        "coordinates": [
          -29.549635,
          -42.097747
        ]
      },
      "properties": {
        "label": "Metastatic neoplasm",
        "level": 1,
        "pos": "-108158.314,-145783.872",
        "src_id": "180917",
        "weight": "0.0"
      }
    },
    {
      "type": "Feature",
      "id": "72",
      "geometry": {
        "type": "Point",
        "coordinates": [
          -15.612187,
          -49.141377
        ]
      },
      "properties": {
        "label": "Neoplasm",
        "level": 3,
        "pos": "-62079.937,-184142.55800000002",
        "src_id": "181635",
        "weight": "4040.0"
      }
    },
    {
      "type": "Feature",
      "id": "842",
      "geometry": {
        "type": "Point",
        "coordinates": [
          -15.674925,
          -48.44142
        ]
      },
      "properties": {
        "label": "Neuroblastoma",
        "level": 3,
        "pos": "-62287.363999999994,-180103.46899999998",
        "src_id": "181713",
        "weight": "0.0"
      }
    },
    {
      "type": "Feature",
      "id": "602",
      "geometry": {
        "type": "Point",
        "coordinates": [
          -31.332548,
          -47.217877
        ]
      },
      "properties": {
        "label": "Radiotherapy",
        "level": 1,
        "pos": "-114052.773,-173174.562",
        "src_id": "184752",
        "weight": "0.0"
      }
    },
    {
      "type": "Feature",
      "id": "766",
      "geometry": {
        "type": "Point",
        "coordinates": [
          -20.613364,
          -49.391539
        ]
      },
      "properties": {
        "label": "Stem cell transplant",
        "level": 1,
        "pos": "-78614.252,-185599.935",
        "src_id": "186381",
        "weight": "0.0"
      }
    },
    {
      "type": "Feature",
      "id": "827",
      "geometry": {
        "type": "Point",
        "coordinates": [
          -32.290782,
          -41.235999
        ]
      },
      "properties": {
        "label": "Carvedilol",
        "level": 1,
        "pos": "-117220.772,-141398.408",
        "src_id": "1120",
        "weight": "0.0"
      }
    },
    {
      "type": "Feature",
      "id": "269",
      "geometry": {
        "type": "Point",
        "coordinates": [
          -38.51073,
          -50.344515
        ]
      },
      "properties": {
        "label": "Chemotherapy",
        "level": 1,
        "pos": "-137784.437,-191220.791",
        "src_id": "173517",
        "weight": "8930.0"
      }
    },
    {
      "type": "Feature",
      "id": "992",
      "geometry": {
        "type": "Point",
        "coordinates": [
          -34.443912,
          -50.614439
        ]
      },
      "properties": {
        "label": "Brachytherapy",
        "level": 3,
        "pos": "-124339.203,-192833.301",
        "src_id": "172569",
        "weight": "0.0"
      }
    },
    {
      "type": "Feature",
      "id": "1120",
      "geometry": {
        "type": "Point",
        "coordinates": [
          -26.464075,
          -48.715264
        ]
      },
      "properties": {
        "label": "Glioblastoma",
        "level": 3,
        "pos": "-97957.189,-181676.983",
        "src_id": "177384",
        "weight": "0.0"
      }
    },
    {
      "type": "Feature",
      "id": "124",
      "geometry": {
        "type": "Point",
        "coordinates": [
          -15.424569,
          -50.556404
        ]
      },
      "properties": {
        "label": "Cyclophosphamide",
        "level": 3,
        "pos": "-61459.656,-192485.815",
        "src_id": "518",
        "weight": "0.0"
      }
    },
    {
      "type": "Feature",
      "id": "1143",
      "geometry": {
        "type": "Point",
        "coordinates": [
          -19.256577,
          -50.826686
        ]
      },
      "properties": {
        "label": "Busulfan",
        "level": 1,
        "pos": "-74128.605,-194107.76",
        "src_id": "994",
        "weight": "0.0"
      }
    },
    {
      "type": "Feature",
      "id": "285",
      "geometry": {
        "type": "Point",
        "coordinates": [
          -40.465917,
          -42.292219
        ]
      },
      "properties": {
        "label": "Breast cancer",
        "level": 3,
        "pos": "-144248.454,-146781.75400000002",
        "src_id": "172645",
        "weight": "481.5"
      }
    },
    {
      "type": "Feature",
      "id": "716",
      "geometry": {
        "type": "Point",
        "coordinates": [
          -34.323365,
          -40.907669
        ]
      },
      "properties": {
        "label": "Verapamil",
        "level": 1,
        "pos": "-123940.65999999999,-139742.78",
        "src_id": "648",
        "weight": "0.0"
      }
    },
    {
      "type": "Feature",
      "id": "358",
      "geometry": {
        "type": "Point",
        "coordinates": [
          -40.316045,
          -42.795754
        ]
      },
      "properties": {
        "label": "Cardiac failure",
        "level": 3,
        "pos": "-143752.963,-149379.908",
        "src_id": "173035",
        "weight": "368.0"
      }
    },
    {
      "type": "Feature",
      "id": "814",
      "geometry": {
        "type": "Point",
        "coordinates": [
          -25.939542,
          -44.517717
        ]
      },
      "properties": {
        "label": "Lymphoma",
        "level": 4,
        "pos": "-96223.036,-158428.81600000002",
        "src_id": "180308",
        "weight": "0.0"
      }
    },
    {
      "type": "Feature",
      "id": "5",
      "geometry": {
        "type": "Point",
        "coordinates": [
          -40.737465,
          -49.532688
        ]
      },
      "properties": {
        "label": "Neoplasm malignant",
        "level": 1,
        "pos": "-145146.209,-186425.509",
        "src_id": "181636",
        "weight": "43886.25"
      }
    },
    {
      "type": "Feature",
      "id": "171",
      "geometry": {
        "type": "Point",
        "coordinates": [
          -32.958959,
          -51.43435
        ]
      },
      "properties": {
        "label": "Pethidine",
        "level": 3,
        "pos": "-119429.824,-197788.90000000002",
        "src_id": "443",
        "weight": "2.0"
      }
    },
    {
      "type": "Feature",
      "id": "987",
      "geometry": {
        "type": "Point",
        "coordinates": [
          -33.009345,
          -51.049199
        ]
      },
      "properties": {
        "label": "Cervix carcinoma",
        "level": 4,
        "pos": "-119596.399,-195450.101",
        "src_id": "173462",
        "weight": "0.0"
      }
    },
    {
      "type": "Feature",
      "id": "497",
      "geometry": {
        "type": "Point",
        "coordinates": [
          -25.064352,
          -50.48377
        ]
      },
      "properties": {
        "label": "Temozolomide",
        "level": 3,
        "pos": "-93329.591,-192051.53699999998",
        "src_id": "839",
        "weight": "0.0"
      }
    },
    {
      "type": "Feature",
      "id": "727",
      "geometry": {
        "type": "Point",
        "coordinates": [
          -24.020223,
          -50.088554
        ]
      },
      "properties": {
        "label": "Transplant",
        "level": 3,
        "pos": "-89877.607,-189700.142",
        "src_id": "187334",
        "weight": "1386.0"
      }
    },
    {
      "type": "Feature",
      "id": "82",
      "geometry": {
        "type": "Point",
        "coordinates": [
          1.466553,
          46.765162
        ]
      },
      "properties": {
        "label": "Induction and maintenance of anaesthesia",
        "level": 2,
        "pos": "-5616.197999999999,232576.208",
        "src_id": "178930",
        "weight": "17589.0"
      }
    },
    {
      "type": "Feature",
      "id": "133",
      "geometry": {
        "type": "Point",
        "coordinates": [
          61.56866,
          9.491974
        ]
      },
      "properties": {
        "label": "Infusion",
        "level": 2,
        "pos": "193086.387,67212.559",
        "src_id": "179021",
        "weight": "17442.0"
      }
    },
    {
      "type": "Feature",
      "id": "249",
      "geometry": {
        "type": "Point",
        "coordinates": [
          63.641687,
          8.997167
        ]
      },
      "properties": {
        "label": "Hypotension",
        "level": 2,
        "pos": "199939.993,65306.78399999999",
        "src_id": "178653",
        "weight": "1538.0"
      }
    },
    {
      "type": "Feature",
      "id": "25",
      "geometry": {
        "type": "Point",
        "coordinates": [
          57.734313,
          4.547194
        ]
      },
      "properties": {
        "label": "Injection",
        "level": 2,
        "pos": "180409.72,48266.826",
        "src_id": "179084",
        "weight": "19400.5"
      }
    },
    {
      "type": "Feature",
      "id": "1245",
      "geometry": {
        "type": "Point",
        "coordinates": [
          68.711256,
          12.0604
        ]
      },
      "properties": {
        "label": "Chromosomal deletion",
        "level": 4,
        "pos": "216700.414,77152.668",
        "src_id": "173684",
        "weight": "0.0"
      }
    },
    {
      "type": "Feature",
      "id": "1231",
      "geometry": {
        "type": "Point",
        "coordinates": [
          69.514717,
          11.28414
        ]
      },
      "properties": {
        "label": "Neurodevelopmental disorder",
        "level": 4,
        "pos": "219356.72199999998,74139.36099999999",
        "src_id": "181721",
        "weight": "0.0"
      }
    },
    {
      "type": "Feature",
      "id": "178",
      "geometry": {
        "type": "Point",
        "coordinates": [
          61.293624,
          8.103661
        ]
      },
      "properties": {
        "label": "Respiratory depression",
        "level": 2,
        "pos": "192177.103,61871.882999999994",
        "src_id": "185127",
        "weight": "1070.0"
      }
    },
    {
      "type": "Feature",
      "id": "153",
      "geometry": {
        "type": "Point",
        "coordinates": [
          56.974027,
          1.945593
        ]
      },
      "properties": {
        "label": "Lorazepam",
        "level": 2,
        "pos": "177896.153,38360.024000000005",
        "src_id": "177",
        "weight": "6865.0"
      }
    },
    {
      "type": "Feature",
      "id": "971",
      "geometry": {
        "type": "Point",
        "coordinates": [
          -39.223165,
          -47.869872
        ]
      },
      "properties": {
        "label": "Metastases to meninges",
        "level": 4,
        "pos": "-140139.81100000002,-176846.449",
        "src_id": "180869",
        "weight": "0.0"
      }
    },
    {
      "type": "Feature",
      "id": "596",
      "geometry": {
        "type": "Point",
        "coordinates": [
          -27.559752,
          -39.51137
        ]
      },
      "properties": {
        "label": "Drug resistance",
        "level": 1,
        "pos": "-101579.59,-132791.80299999999",
        "src_id": "175397",
        "weight": "381.0"
      }
    },
    {
      "type": "Feature",
      "id": "862",
      "geometry": {
        "type": "Point",
        "coordinates": [
          -41.414964,
          -53.195657
        ]
      },
      "properties": {
        "label": "Egg",
        "level": 4,
        "pos": "-147386.082,-208743.55800000002",
        "src_id": "8599",
        "weight": "0.0"
      }
    },
    {
      "type": "Feature",
      "id": "1125",
      "geometry": {
        "type": "Point",
        "coordinates": [
          -35.432644,
          -50.213675
        ]
      },
      "properties": {
        "label": "Colonoscopy",
        "level": 4,
        "pos": "-127608.026,-190442.46000000002",
        "src_id": "173940",
        "weight": "0.0"
      }
    },
    {
      "type": "Feature",
      "id": "1171",
      "geometry": {
        "type": "Point",
        "coordinates": [
          -24.546939,
          -49.140718
        ]
      },
      "properties": {
        "label": "Myeloid leukaemia",
        "level": 4,
        "pos": "-91618.983,-184138.72699999998",
        "src_id": "181351",
        "weight": "0.0"
      }
    },
    {
      "type": "Feature",
      "id": "89",
      "geometry": {
        "type": "Point",
        "coordinates": [
          -37.243833,
          -36.464878
        ]
      },
      "properties": {
        "label": "Immune Globulin Human",
        "level": 3,
        "pos": "-133595.96899999998,-118093.432",
        "src_id": "28",
        "weight": "1262.0"
      }
    },
    {
      "type": "Feature",
      "id": "1117",
      "geometry": {
        "type": "Point",
        "coordinates": [
          -41.396017,
          -35.14122
        ]
      },
      "properties": {
        "label": "Immunoglobulin therapy",
        "level": 3,
        "pos": "-147323.444,-111888.807",
        "src_id": "178774",
        "weight": "0.0"
      }
    },
    {
      "type": "Feature",
      "id": "777",
      "geometry": {
        "type": "Point",
        "coordinates": [
          -39.769301,
          -34.439061
        ]
      },
      "properties": {
        "label": "Musculoskeletal stiffness",
        "level": 3,
        "pos": "-141945.38,-108638.50200000001",
        "src_id": "181286",
        "weight": "0.0"
      }
    },
    {
      "type": "Feature",
      "id": "1099",
      "geometry": {
        "type": "Point",
        "coordinates": [
          -41.585789,
          -33.25377
        ]
      },
      "properties": {
        "label": "Stiff person syndrome",
        "level": 3,
        "pos": "-147950.837,-103212.99100000001",
        "src_id": "186411",
        "weight": "0.0"
      }
    },
    {
      "type": "Feature",
      "id": "931",
      "geometry": {
        "type": "Point",
        "coordinates": [
          -40.912739,
          -30.343938
        ]
      },
      "properties": {
        "label": "Intraocular pressure test",
        "level": 3,
        "pos": "-145725.679,-90195.146",
        "src_id": "179354",
        "weight": "0.0"
      }
    },
    {
      "type": "Feature",
      "id": "116",
      "geometry": {
        "type": "Point",
        "coordinates": [
          57.508173,
          -5.231946
        ]
      },
      "properties": {
        "label": "Rituximab",
        "level": 3,
        "pos": "179662.08000000002,11045.297",
        "src_id": "71",
        "weight": "0.0"
      }
    },
    {
      "type": "Feature",
      "id": "115",
      "geometry": {
        "type": "Point",
        "coordinates": [
          62.971942,
          0.704053
        ]
      },
      "properties": {
        "label": "Glutathione",
        "level": 3,
        "pos": "197725.75900000002,33638.919",
        "src_id": "135",
        "weight": "0.0"
      }
    },
    {
      "type": "Feature",
      "id": "114",
      "geometry": {
        "type": "Point",
        "coordinates": [
          60.275114,
          1.360897
        ]
      },
      "properties": {
        "label": "Methylprednisolone",
        "level": 3,
        "pos": "188809.81900000002,36136.352",
        "src_id": "945",
        "weight": "0.0"
      }
    },
    {
      "type": "Feature",
      "id": "113",
      "geometry": {
        "type": "Point",
        "coordinates": [
          63.03329,
          2.020194
        ]
      },
      "properties": {
        "label": "Azathioprine",
        "level": 3,
        "pos": "197928.577,38643.785",
        "src_id": "979",
        "weight": "0.0"
      }
    },
    {
      "type": "Feature",
      "id": "112",
      "geometry": {
        "type": "Point",
        "coordinates": [
          60.814728,
          2.103504
        ]
      },
      "properties": {
        "label": "Urea",
        "level": 3,
        "pos": "190593.832,38960.700000000004",
        "src_id": "3677",
        "weight": "0.0"
      }
    },
    {
      "type": "Feature",
      "id": "111",
      "geometry": {
        "type": "Point",
        "coordinates": [
          62.995774,
          -0.306333
        ]
      },
      "properties": {
        "label": "Ammonia",
        "level": 3,
        "pos": "197804.546,29797.842",
        "src_id": "9063",
        "weight": "0.0"
      }
    },
    {
      "type": "Feature",
      "id": "110",
      "geometry": {
        "type": "Point",
        "coordinates": [
          65.973052,
          1.40731
        ]
      },
      "properties": {
        "label": "Von Willebrand Factor Human",
        "level": 3,
        "pos": "207647.679,36312.839",
        "src_id": "10756",
        "weight": "0.0"
      }
    },
    {
      "type": "Feature",
      "id": "109",
      "geometry": {
        "type": "Point",
        "coordinates": [
          59.726072,
          0.205129
        ]
      },
      "properties": {
        "label": "Autoimmune disorder",
        "level": 3,
        "pos": "186994.645,31742.179",
        "src_id": "171135",
        "weight": "0.0"
      }
    },
    {
      "type": "Feature",
      "id": "108",
      "geometry": {
        "type": "Point",
        "coordinates": [
          65.40852,
          0.637077
        ]
      },
      "properties": {
        "label": "Blood copper",
        "level": 3,
        "pos": "205781.288,33384.291",
        "src_id": "172045",
        "weight": "0.0"
      }
    },
    {
      "type": "Feature",
      "id": "121",
      "geometry": {
        "type": "Point",
        "coordinates": [
          52.230892,
          -12.449728
        ]
      },
      "properties": {
        "label": "Blood pyruvic acid",
        "level": 3,
        "pos": "162214.949,-16742.473",
        "src_id": "172349",
        "weight": "0.0"
      }
    },
    {
      "type": "Feature",
      "id": "107",
      "geometry": {
        "type": "Point",
        "coordinates": [
          66.380114,
          -0.035911
        ]
      },
      "properties": {
        "label": "Carnitine deficiency",
        "level": 3,
        "pos": "208993.462,30825.862999999998",
        "src_id": "173165",
        "weight": "0.0"
      }
    },
    {
      "type": "Feature",
      "id": "106",
      "geometry": {
        "type": "Point",
        "coordinates": [
          62.544908,
          -1.022637
        ]
      },
      "properties": {
        "label": "Cataplexy",
        "level": 3,
        "pos": "196313.954,27074.589",
        "src_id": "173217",
        "weight": "0.0"
      }
    },
    {
      "type": "Feature",
      "id": "105",
      "geometry": {
        "type": "Point",
        "coordinates": [
          65.39023,
          -0.792256
        ]
      },
      "properties": {
        "label": "Coeliac disease",
        "level": 3,
        "pos": "205720.823,27950.5",
        "src_id": "173886",
        "weight": "0.0"
      }
    },
    {
      "type": "Feature",
      "id": "104",
      "geometry": {
        "type": "Point",
        "coordinates": [
          63.630531,
          -1.828473
        ]
      },
      "properties": {
        "label": "CSF culture",
        "level": 3,
        "pos": "199903.111,24010.214",
        "src_id": "174608",
        "weight": "0.0"
      }
    },
    {
      "type": "Feature",
      "id": "103",
      "geometry": {
        "type": "Point",
        "coordinates": [
          66.096219,
          -1.415408
        ]
      },
      "properties": {
        "label": "Diapedesis",
        "level": 3,
        "pos": "208054.883,25581.12",
        "src_id": "175186",
        "weight": "0.0"
      }
    },
    {
      "type": "Feature",
      "id": "102",
      "geometry": {
        "type": "Point",
        "coordinates": [
          66.15031,
          -2.024649
        ]
      },
      "properties": {
        "label": "Dysmorphism",
        "level": 3,
        "pos": "208233.711,23264.017",
        "src_id": "175488",
        "weight": "0.0"
      }
    },
    {
      "type": "Feature",
      "id": "101",
      "geometry": {
        "type": "Point",
        "coordinates": [
          63.946437,
          -5.011385
        ]
      },
      "properties": {
        "label": "Growth retardation",
        "level": 3,
        "pos": "200947.52399999998,11887.127",
        "src_id": "177553",
        "weight": "0.0"
      }
    },
    {
      "type": "Feature",
      "id": "100",
      "geometry": {
        "type": "Point",
        "coordinates": [
          66.77884,
          -2.787145
        ]
      },
      "properties": {
        "label": "Karyotype analysis",
        "level": 3,
        "pos": "210311.683,20362.787",
        "src_id": "179554",
        "weight": "0.0"
      }
    },
    {
      "type": "Feature",
      "id": "99",
      "geometry": {
        "type": "Point",
        "coordinates": [
          63.64025,
          -3.422526
        ]
      },
      "properties": {
        "label": "Non-Hodgkin's lymphoma",
        "level": 3,
        "pos": "199935.23500000002,17943.808",
        "src_id": "181884",
        "weight": "0.0"
      }
    },
    {
      "type": "Feature",
      "id": "98",
      "geometry": {
        "type": "Point",
        "coordinates": [
          68.108056,
          -3.611966
        ]
      },
      "properties": {
        "label": "Plasmapheresis",
        "level": 3,
        "pos": "214706.184,17222.292",
        "src_id": "183563",
        "weight": "0.0"
      }
    },
    {
      "type": "Feature",
      "id": "97",
      "geometry": {
        "type": "Point",
        "coordinates": [
          68.512979,
          -4.843732
        ]
      },
      "properties": {
        "label": "Porphyria",
        "level": 3,
        "pos": "216044.88900000002,12526.828",
        "src_id": "183819",
        "weight": "0.0"
      }
    },
    {
      "type": "Feature",
      "id": "96",
      "geometry": {
        "type": "Point",
        "coordinates": [
          63.834156,
          -4.234385
        ]
      },
      "properties": {
        "label": "Red blood cell sedimentation rate",
        "level": 3,
        "pos": "200576.31100000002,14850.581999999999",
        "src_id": "184909",
        "weight": "0.0"
      }
    },
    {
      "type": "Feature",
      "id": "95",
      "geometry": {
        "type": "Point",
        "coordinates": [
          64.994084,
          -6.104919
        ]
      },
      "properties": {
        "label": "Teratoma",
        "level": 3,
        "pos": "204411.127,7710.3330000000005",
        "src_id": "186775",
        "weight": "0.0"
      }
    },
    {
      "type": "Feature",
      "id": "94",
      "geometry": {
        "type": "Point",
        "coordinates": [
          68.553979,
          -5.450012
        ]
      },
      "properties": {
        "label": "Wegener's granulomatosis",
        "level": 3,
        "pos": "216180.43800000002,10212.699",
        "src_id": "188817",
        "weight": "0.0"
      }
    },
    {
      "type": "Feature",
      "id": "692",
      "geometry": {
        "type": "Point",
        "coordinates": [
          48.378022,
          -8.729574
        ]
      },
      "properties": {
        "label": "Medical diet",
        "level": 2,
        "pos": "149477.039,-2352.47",
        "src_id": "180654",
        "weight": "0.0"
      }
    },
    {
      "type": "Feature",
      "id": "909",
      "geometry": {
        "type": "Point",
        "coordinates": [
          42.429349,
          -11.289726
        ]
      },
      "properties": {
        "label": "Acetylcysteine",
        "level": 2,
        "pos": "129810.23099999999,-12236.259",
        "src_id": "5439",
        "weight": "0.0"
      }
    },
    {
      "type": "Feature",
      "id": "1093",
      "geometry": {
        "type": "Point",
        "coordinates": [
          52.871901,
          -9.906818
        ]
      },
      "properties": {
        "label": "L-Cysteine",
        "level": 2,
        "pos": "164334.17700000003,-6887.719",
        "src_id": "143",
        "weight": "0.0"
      }
    },
    {
      "type": "Feature",
      "id": "49",
      "geometry": {
        "type": "Point",
        "coordinates": [
          -39.514707,
          -20.876166
        ]
      },
      "properties": {
        "label": "Pyridoxine",
        "level": 3,
        "pos": "-141103.67299999998,-50215.488",
        "src_id": "156",
        "weight": "727.0"
      }
    },
    {
      "type": "Feature",
      "id": "763",
      "geometry": {
        "type": "Point",
        "coordinates": [
          -32.850795,
          -24.827992
        ]
      },
      "properties": {
        "label": "L-Lysine",
        "level": 1,
        "pos": "-119072.22,-66522.419",
        "src_id": "116",
        "weight": "0.0"
      }
    },
    {
      "type": "Feature",
      "id": "839",
      "geometry": {
        "type": "Point",
        "coordinates": [
          -31.647755,
          -20.421396
        ]
      },
      "properties": {
        "label": "Peripheral sensory neuropathy",
        "level": 1,
        "pos": "-115094.867,-48367.98",
        "src_id": "183206",
        "weight": "0.0"
      }
    },
    {
      "type": "Feature",
      "id": "800",
      "geometry": {
        "type": "Point",
        "coordinates": [
          -31.545193,
          -26.871272
        ]
      },
      "properties": {
        "label": "Vorinostat",
        "level": 1,
        "pos": "-114755.79000000001,-75154.296",
        "src_id": "2413",
        "weight": "0.0"
      }
    },
    {
      "type": "Feature",
      "id": "337",
      "geometry": {
        "type": "Point",
        "coordinates": [
          -39.926124,
          -17.37176
        ]
      },
      "properties": {
        "label": "Blood albumin",
        "level": 1,
        "pos": "-142463.84800000003,-36112.511",
        "src_id": "171917",
        "weight": "1002.0"
      }
    },
    {
      "type": "Feature",
      "id": "838",
      "geometry": {
        "type": "Point",
        "coordinates": [
          -29.197965,
          -27.426028
        ]
      },
      "properties": {
        "label": "Prealbumin",
        "level": 3,
        "pos": "-106995.65699999999,-77524.34999999999",
        "src_id": "183987",
        "weight": "0.0"
      }
    },
    {
      "type": "Feature",
      "id": "864",
      "geometry": {
        "type": "Point",
        "coordinates": [
          -33.874774,
          -25.436917
        ]
      },
      "properties": {
        "label": "Romidepsin",
        "level": 1,
        "pos": "-122457.577,-69079.34899999999",
        "src_id": "5456",
        "weight": "0.0"
      }
    },
    {
      "type": "Feature",
      "id": "201",
      "geometry": {
        "type": "Point",
        "coordinates": [
          -23.38101,
          -16.954158
        ]
      },
      "properties": {
        "label": "Baclofen",
        "level": 3,
        "pos": "-87764.322,-34450.988000000005",
        "src_id": "172",
        "weight": "1527.5"
      }
    },
    {
      "type": "Feature",
      "id": "74",
      "geometry": {
        "type": "Point",
        "coordinates": [
          -45.21511,
          -17.380708
        ]
      },
      "properties": {
        "label": "L-Carnitine",
        "level": 3,
        "pos": "-159949.683,-36148.151",
        "src_id": "570",
        "weight": "1038.0"
      }
    },
    {
      "type": "Feature",
      "id": "863",
      "geometry": {
        "type": "Point",
        "coordinates": [
          -36.298264,
          -18.72109
        ]
      },
      "properties": {
        "label": "Uric Acid",
        "level": 1,
        "pos": "-130469.83700000001,-41507.570999999996",
        "src_id": "7814",
        "weight": "2544.0"
      }
    },
    {
      "type": "Feature",
      "id": "375",
      "geometry": {
        "type": "Point",
        "coordinates": [
          -43.789578,
          -19.350282
        ]
      },
      "properties": {
        "label": "Urine calcium",
        "level": 1,
        "pos": "-155236.751,-44037.842",
        "src_id": "187901",
        "weight": "0.0"
      }
    },
    {
      "type": "Feature",
      "id": "1179",
      "geometry": {
        "type": "Point",
        "coordinates": [
          -37.708721,
          -18.622037
        ]
      },
      "properties": {
        "label": "Gout",
        "level": 4,
        "pos": "-135132.927,-41110.098999999995",
        "src_id": "177495",
        "weight": "0.0"
      }
    },
    {
      "type": "Feature",
      "id": "222",
      "geometry": {
        "type": "Point",
        "coordinates": [
          -52.597443,
          -19.265902
        ]
      },
      "properties": {
        "label": "Creatinine",
        "level": 3,
        "pos": "-184356.292,-43697.953",
        "src_id": "9515",
        "weight": "1464.0"
      }
    },
    {
      "type": "Feature",
      "id": "311",
      "geometry": {
        "type": "Point",
        "coordinates": [
          -55.501523,
          -18.76931
        ]
      },
      "properties": {
        "label": "Blood phosphorus",
        "level": 4,
        "pos": "-193957.423,-41701.148",
        "src_id": "172294",
        "weight": "0.0"
      }
    },
    {
      "type": "Feature",
      "id": "614",
      "geometry": {
        "type": "Point",
        "coordinates": [
          -47.085008,
          -19.399342
        ]
      },
      "properties": {
        "label": "Blood bicarbonate",
        "level": 4,
        "pos": "-166131.72,-44235.543",
        "src_id": "171966",
        "weight": "0.0"
      }
    },
    {
      "type": "Feature",
      "id": "1131",
      "geometry": {
        "type": "Point",
        "coordinates": [
          -46.715468,
          -24.530579
        ]
      },
      "properties": {
        "label": "Blood cholesterol increased",
        "level": 4,
        "pos": "-164909.994,-65278.13999999999",
        "src_id": "172027",
        "weight": "0.0"
      }
    },
    {
      "type": "Feature",
      "id": "1210",
      "geometry": {
        "type": "Point",
        "coordinates": [
          -45.608663,
          -18.716092
        ]
      },
      "properties": {
        "label": "Probenecid",
        "level": 4,
        "pos": "-161250.80399999997,-41487.509000000005",
        "src_id": "1017",
        "weight": "0.0"
      }
    },
    {
      "type": "Feature",
      "id": "73",
      "geometry": {
        "type": "Point",
        "coordinates": [
          -8.970252,
          -58.05718
        ]
      },
      "properties": {
        "label": "Oxcarbazepine",
        "level": 2,
        "pos": "-40121.151,-241529.56399999998",
        "src_id": "762",
        "weight": "14647.5"
      }
    },
    {
      "type": "Feature",
      "id": "194",
      "geometry": {
        "type": "Point",
        "coordinates": [
          -12.462505,
          -56.736586
        ]
      },
      "properties": {
        "label": "Levetiracetam",
        "level": 2,
        "pos": "-51666.835,-232211.127",
        "src_id": "1186",
        "weight": "7896.0"
      }
    },
    {
      "type": "Feature",
      "id": "1250",
      "geometry": {
        "type": "Point",
        "coordinates": [
          -14.374502,
          -61.095464
        ]
      },
      "properties": {
        "label": "Blood antidiuretic hormone",
        "level": 4,
        "pos": "-57988.053,-264356.491",
        "src_id": "171945",
        "weight": "0.0"
      }
    },
    {
      "type": "Feature",
      "id": "35",
      "geometry": {
        "type": "Point",
        "coordinates": [
          -0.143521,
          6.402024
        ]
      },
      "properties": {
        "label": "Tiagabine",
        "level": 2,
        "pos": "-10939.24,55350.64",
        "src_id": "892",
        "weight": "9416.75"
      }
    },
    {
      "type": "Feature",
      "id": "209",
      "geometry": {
        "type": "Point",
        "coordinates": [
          6.318466,
          4.625522
        ]
      },
      "properties": {
        "label": "Pregabalin",
        "level": 2,
        "pos": "10424.630000000001,48565.551",
        "src_id": "221",
        "weight": "2412.0"
      }
    },
    {
      "type": "Feature",
      "id": "187",
      "geometry": {
        "type": "Point",
        "coordinates": [
          -2.173485,
          13.662162
        ]
      },
      "properties": {
        "label": "Gabapentin",
        "level": 2,
        "pos": "-17650.467,83398.727",
        "src_id": "982",
        "weight": "16789.0"
      }
    },
    {
      "type": "Feature",
      "id": "399",
      "geometry": {
        "type": "Point",
        "coordinates": [
          -0.224106,
          4.209881
        ]
      },
      "properties": {
        "label": "Zonisamide",
        "level": 2,
        "pos": "-11205.661,46980.769",
        "src_id": "895",
        "weight": "0.0"
      }
    },
    {
      "type": "Feature",
      "id": "165",
      "geometry": {
        "type": "Point",
        "coordinates": [
          -1.56717,
          10.035812
        ]
      },
      "properties": {
        "label": "Complex partial seizures",
        "level": 3,
        "pos": "-15645.941,69310.367",
        "src_id": "174011",
        "weight": "3958.0"
      }
    },
    {
      "type": "Feature",
      "id": "85",
      "geometry": {
        "type": "Point",
        "coordinates": [
          -17.418868,
          -9.542188
        ]
      },
      "properties": {
        "label": "Vigabatrin",
        "level": 3,
        "pos": "-68052.984,-5481.357",
        "src_id": "1064",
        "weight": "39.0"
      }
    },
    {
      "type": "Feature",
      "id": "825",
      "geometry": {
        "type": "Point",
        "coordinates": [
          -7.906072,
          -13.553115
        ]
      },
      "properties": {
        "label": "Taurine",
        "level": 3,
        "pos": "-36602.880999999994,-21047.457000000002",
        "src_id": "1860",
        "weight": "0.0"
      }
    },
    {
      "type": "Feature",
      "id": "1108",
      "geometry": {
        "type": "Point",
        "coordinates": [
          -11.526872,
          -13.783577
        ]
      },
      "properties": {
        "label": "Optical coherence tomography",
        "level": 4,
        "pos": "-48573.551,-21949.104",
        "src_id": "182287",
        "weight": "0.0"
      }
    },
    {
      "type": "Feature",
      "id": "359",
      "geometry": {
        "type": "Point",
        "coordinates": [
          16.724866,
          -38.324614
        ]
      },
      "properties": {
        "label": "Potassium",
        "level": 3,
        "pos": "44829.062999999995,-126993.084",
        "src_id": "1306",
        "weight": "0.0"
      }
    },
    {
      "type": "Feature",
      "id": "995",
      "geometry": {
        "type": "Point",
        "coordinates": [
          22.471814,
          -41.153828
        ]
      },
      "properties": {
        "label": "Benign familial neonatal convulsions",
        "level": 4,
        "pos": "63828.949,-140983.28100000002",
        "src_id": "171356",
        "weight": "0.0"
      }
    },
    {
      "type": "Feature",
      "id": "1038",
      "geometry": {
        "type": "Point",
        "coordinates": [
          17.887786,
          -37.523518
        ]
      },
      "properties": {
        "label": "Dysuria",
        "level": 3,
        "pos": "48673.77,-123132.348",
        "src_id": "175513",
        "weight": "0.0"
      }
    },
    {
      "type": "Feature",
      "id": "978",
      "geometry": {
        "type": "Point",
        "coordinates": [
          26.306651,
          -42.802695
        ]
      },
      "properties": {
        "label": "Haemorrhage intracranial",
        "level": 4,
        "pos": "76507.245,-149415.874",
        "src_id": "177688",
        "weight": "0.0"
      }
    },
    {
      "type": "Feature",
      "id": "678",
      "geometry": {
        "type": "Point",
        "coordinates": [
          24.586839,
          -41.61897
        ]
      },
      "properties": {
        "label": "Ezogabine",
        "level": 3,
        "pos": "70821.399,-143340.11899999998",
        "src_id": "4664",
        "weight": "2545.0"
      }
    },
    {
      "type": "Feature",
      "id": "403",
      "geometry": {
        "type": "Point",
        "coordinates": [
          13.20778,
          -38.224509
        ]
      },
      "properties": {
        "label": "Urinary retention",
        "level": 3,
        "pos": "33201.282,-126508.329",
        "src_id": "187841",
        "weight": "0.0"
      }
    },
    {
      "type": "Feature",
      "id": "1015",
      "geometry": {
        "type": "Point",
        "coordinates": [
          22.481859,
          -40.297581
        ]
      },
      "properties": {
        "label": "Urinary hesitation",
        "level": 4,
        "pos": "63862.158,-136688.032",
        "src_id": "187833",
        "weight": "0.0"
      }
    },
    {
      "type": "Feature",
      "id": "1224",
      "geometry": {
        "type": "Point",
        "coordinates": [
          29.582276,
          -41.545764
        ]
      },
      "properties": {
        "label": "Pigmentation disorder",
        "level": 4,
        "pos": "87336.73,-142968.074",
        "src_id": "183486",
        "weight": "0.0"
      }
    },
    {
      "type": "Feature",
      "id": "1220",
      "geometry": {
        "type": "Point",
        "coordinates": [
          29.369589,
          -40.622872
        ]
      },
      "properties": {
        "label": "Retinal pigmentation",
        "level": 4,
        "pos": "86633.573,-138313.312",
        "src_id": "185239",
        "weight": "0.0"
      }
    },
    {
      "type": "Feature",
      "id": "906",
      "geometry": {
        "type": "Point",
        "coordinates": [
          13.748278,
          -38.723909
        ]
      },
      "properties": {
        "label": "Bronchospasm",
        "level": 2,
        "pos": "34988.212,-128933.32100000001",
        "src_id": "172778",
        "weight": "0.0"
      }
    },
    {
      "type": "Feature",
      "id": "56",
      "geometry": {
        "type": "Point",
        "coordinates": [
          53.03517,
          -34.408911
        ]
      },
      "properties": {
        "label": "Magnesium",
        "level": 2,
        "pos": "164873.957,-108499.553",
        "src_id": "1330",
        "weight": "4163.5"
      }
    },
    {
      "type": "Feature",
      "id": "70",
      "geometry": {
        "type": "Point",
        "coordinates": [
          48.964741,
          -33.418085
        ]
      },
      "properties": {
        "label": "Glucose",
        "level": 2,
        "pos": "151416.77899999998,-103960.658",
        "src_id": "8280",
        "weight": "5633.5"
      }
    },
    {
      "type": "Feature",
      "id": "126",
      "geometry": {
        "type": "Point",
        "coordinates": [
          57.156663,
          -34.045525
        ]
      },
      "properties": {
        "label": "Calcium",
        "level": 2,
        "pos": "178499.956,-106828.769",
        "src_id": "1327",
        "weight": "18692.0"
      }
    },
    {
      "type": "Feature",
      "id": "155",
      "geometry": {
        "type": "Point",
        "coordinates": [
          45.386785,
          -32.527958
        ]
      },
      "properties": {
        "label": "Fasting",
        "level": 2,
        "pos": "139587.762,-99927.051",
        "src_id": "176590",
        "weight": "6436.0"
      }
    },
    {
      "type": "Feature",
      "id": "218",
      "geometry": {
        "type": "Point",
        "coordinates": [
          42.857599,
          -34.616337
        ]
      },
      "properties": {
        "label": "Constipation",
        "level": 2,
        "pos": "131226.05899999998,-109456.507",
        "src_id": "174340",
        "weight": "360.5"
      }
    },
    {
      "type": "Feature",
      "id": "1070",
      "geometry": {
        "type": "Point",
        "coordinates": [
          52.189205,
          -34.956731
        ]
      },
      "properties": {
        "label": "Hepatic enzyme",
        "level": 4,
        "pos": "162077.126,-111032.125",
        "src_id": "177892",
        "weight": "0.0"
      }
    },
    {
      "type": "Feature",
      "id": "1227",
      "geometry": {
        "type": "Point",
        "coordinates": [
          53.018168,
          -30.170294
        ]
      },
      "properties": {
        "label": "Overweight",
        "level": 4,
        "pos": "164817.746,-89430.928",
        "src_id": "182592",
        "weight": "0.0"
      }
    },
    {
      "type": "Feature",
      "id": "119",
      "geometry": {
        "type": "Point",
        "coordinates": [
          -47.148748,
          -12.512614
        ]
      },
      "properties": {
        "label": "Iron",
        "level": 3,
        "pos": "-166342.45,-16987.324999999997",
        "src_id": "1525",
        "weight": "4.5"
      }
    },
    {
      "type": "Feature",
      "id": "118",
      "geometry": {
        "type": "Point",
        "coordinates": [
          -53.716465,
          -8.780477
        ]
      },
      "properties": {
        "label": "Ferrous asparto glycinate",
        "level": 3,
        "pos": "-188055.87099999998,-2548.265",
        "src_id": "9108",
        "weight": "4.5"
      }
    },
    {
      "type": "Feature",
      "id": "59",
      "geometry": {
        "type": "Point",
        "coordinates": [
          -37.813576,
          -17.480241
        ]
      },
      "properties": {
        "label": "Lipids",
        "level": 3,
        "pos": "-135479.592,-36544.742",
        "src_id": "180038",
        "weight": "4515.0"
      }
    },
    {
      "type": "Feature",
      "id": "1011",
      "geometry": {
        "type": "Point",
        "coordinates": [
          -30.286135,
          -19.957047
        ]
      },
      "properties": {
        "label": "Methionine",
        "level": 1,
        "pos": "-110593.236,-46487.182",
        "src_id": "126",
        "weight": "0.0"
      }
    },
    {
      "type": "Feature",
      "id": "653",
      "geometry": {
        "type": "Point",
        "coordinates": [
          -39.635548,
          -16.892516
        ]
      },
      "properties": {
        "label": "Folic Acid",
        "level": 3,
        "pos": "-141503.181,-34206.055",
        "src_id": "150",
        "weight": "0.0"
      }
    },
    {
      "type": "Feature",
      "id": "724",
      "geometry": {
        "type": "Point",
        "coordinates": [
          -33.626973,
          -19.684062
        ]
      },
      "properties": {
        "label": "Cyanocobalamin",
        "level": 1,
        "pos": "-121638.32800000001,-45384.07",
        "src_id": "108",
        "weight": "0.0"
      }
    },
    {
      "type": "Feature",
      "id": "994",
      "geometry": {
        "type": "Point",
        "coordinates": [
          -27.287914,
          -26.643441
        ]
      },
      "properties": {
        "label": "Blood homocysteine",
        "level": 3,
        "pos": "-100680.868,-74184.326",
        "src_id": "172188",
        "weight": "0.0"
      }
    },
    {
      "type": "Feature",
      "id": "976",
      "geometry": {
        "type": "Point",
        "coordinates": [
          -26.874633,
          -25.910595
        ]
      },
      "properties": {
        "label": "Hyperhomocysteinaemia",
        "level": 3,
        "pos": "-99314.534,-71077.29500000001",
        "src_id": "178465",
        "weight": "0.0"
      }
    },
    {
      "type": "Feature",
      "id": "11",
      "geometry": {
        "type": "Point",
        "coordinates": [
          -0.86902,
          -25.891518
        ]
      },
      "properties": {
        "label": "Zinc",
        "level": 2,
        "pos": "-13337.803,-70996.683",
        "src_id": "1526",
        "weight": "12408.5"
      }
    },
    {
      "type": "Feature",
      "id": "17",
      "geometry": {
        "type": "Point",
        "coordinates": [
          3.606547,
          -31.775188
        ]
      },
      "properties": {
        "label": "Selenium",
        "level": 3,
        "pos": "1458.801,-96546.977",
        "src_id": "9080",
        "weight": "686.0"
      }
    },
    {
      "type": "Feature",
      "id": "438",
      "geometry": {
        "type": "Point",
        "coordinates": [
          -2.117174,
          -32.63307
        ]
      },
      "properties": {
        "label": "Glycine",
        "level": 2,
        "pos": "-17464.297,-100401.255",
        "src_id": "137",
        "weight": "144.0"
      }
    },
    {
      "type": "Feature",
      "id": "1187",
      "geometry": {
        "type": "Point",
        "coordinates": [
          7.497184,
          -37.547433
        ]
      },
      "properties": {
        "label": "Blood zinc",
        "level": 4,
        "pos": "14321.566,-123247.004",
        "src_id": "172422",
        "weight": "0.0"
      }
    },
    {
      "type": "Feature",
      "id": "956",
      "geometry": {
        "type": "Point",
        "coordinates": [
          3.356121,
          -35.702049
        ]
      },
      "properties": {
        "label": "Acetamide",
        "level": 3,
        "pos": "630.867,-114505.076",
        "src_id": "2589",
        "weight": "76.0"
      }
    },
    {
      "type": "Feature",
      "id": "1138",
      "geometry": {
        "type": "Point",
        "coordinates": [
          -2.34182,
          -26.301229
        ]
      },
      "properties": {
        "label": "Capsaicin",
        "level": 2,
        "pos": "-18207.003,-72731.01800000001",
        "src_id": "5830",
        "weight": "0.0"
      }
    },
    {
      "type": "Feature",
      "id": "10",
      "geometry": {
        "type": "Point",
        "coordinates": [
          -13.851209,
          -9.20138
        ]
      },
      "properties": {
        "label": "gamma-Aminobutyric acid",
        "level": 2,
        "pos": "-56258.001,-4168.243",
        "src_id": "2399",
        "weight": "9755.0"
      }
    },
    {
      "type": "Feature",
      "id": "1230",
      "geometry": {
        "type": "Point",
        "coordinates": [
          -9.600953,
          -10.819019
        ]
      },
      "properties": {
        "label": "Neurofibromatosis",
        "level": 4,
        "pos": "-42206.303,-10413.016000000001",
        "src_id": "181728",
        "weight": "0.0"
      }
    },
    {
      "type": "Feature",
      "id": "69",
      "geometry": {
        "type": "Point",
        "coordinates": [
          45.317619,
          -38.202935
        ]
      },
      "properties": {
        "label": "Acidosis",
        "level": 3,
        "pos": "139359.087,-126403.94600000001",
        "src_id": "169637",
        "weight": "2477.0"
      }
    },
    {
      "type": "Feature",
      "id": "1207",
      "geometry": {
        "type": "Point",
        "coordinates": [
          45.287402,
          -38.757285
        ]
      },
      "properties": {
        "label": "Sodium bicarbonate",
        "level": 3,
        "pos": "139259.187,-129095.992",
        "src_id": "1336",
        "weight": "0.0"
      }
    },