{
  "type": "FeatureCollection",
  "features": [
    {
      "type": "Feature",
      "id": "1429",
      "geometry": {
        "type": "Point",
        "coordinates": [
          -38.729483,
          32.922799
        ]
      },
      "properties": {
        "label": "Etanercept",
        "level": 3,
        "pos": "-111423.03300000001,187915.885",
        "src_id": "5",
        "weight": "0.0"
      }
    },
    {
      "type": "Feature",
      "id": "1098",
      "geometry": {
        "type": "Point",
        "coordinates": [
          -37.48698,
          33.261712
        ]
      },
      "properties": {
        "label": "Water",
        "level": 3,
        "pos": "-106144.43699999999,189673.148",
        "src_id": "8089",
        "weight": "1764.0"
      }
    },
    {
      "type": "Feature",
      "id": "187",
      "geometry": {
        "type": "Point",
        "coordinates": [
          -34.966256,
          28.729268
        ]
      },
      "properties": {
        "label": "Injection",
        "level": 2,
        "pos": "-95435.505,166694.374",
        "src_id": "179084",
        "weight": "1802.5"
      }
    },
    {
      "type": "Feature",
      "id": "1765",
      "geometry": {
        "type": "Point",
        "coordinates": [
          -41.26184,
          37.893202
        ]
      },
      "properties": {
        "label": "Interferon beta-1a",
        "level": 3,
        "pos": "-122181.375,214423.36599999998",
        "src_id": "59",
        "weight": "0.0"
      }
    },
    {
      "type": "Feature",
      "id": "586",
      "geometry": {
        "type": "Point",
        "coordinates": [
          -30.592753,
          31.815199
        ]
      },
      "properties": {
        "label": "Adalimumab",
        "level": 2,
        "pos": "-76855.31899999999,182219.216",
        "src_id": "50",
        "weight": "0.0"
      }
    },
    {
      "type": "Feature",
      "id": "921",
      "geometry": {
        "type": "Point",
        "coordinates": [
          -36.409587,
          28.245908
        ]
      },
      "properties": {
        "label": "Glatiramer Acetate",
        "level": 3,
        "pos": "-101567.285,164305.40899999999",
        "src_id": "4930",
        "weight": "0.0"
      }
    },
    {
      "type": "Feature",
      "id": "694",
      "geometry": {
        "type": "Point",
        "coordinates": [
          -35.234435,
          25.922115
        ]
      },
      "properties": {
        "label": "Hydrocortisone",
        "level": 3,
        "pos": "-96574.829,152966.47400000002",
        "src_id": "727",
        "weight": "1764.0"
      }
    },
    {
      "type": "Feature",
      "id": "1406",
      "geometry": {
        "type": "Point",
        "coordinates": [
          -34.055842,
          30.834528
        ]
      },
      "properties": {
        "label": "Enoxaparin",
        "level": 4,
        "pos": "-91567.75,177232.188",
        "src_id": "1209",
        "weight": "0.0"
      }
    },
    {
      "type": "Feature",
      "id": "1396",
      "geometry": {
        "type": "Point",
        "coordinates": [
          -36.153937,
          30.807825
        ]
      },
      "properties": {
        "label": "Hyaluronic acid",
        "level": 4,
        "pos": "-100481.20400000001,177097.124",
        "src_id": "7794",
        "weight": "0.0"
      }
    },
    {
      "type": "Feature",
      "id": "1232",
      "geometry": {
        "type": "Point",
        "coordinates": [
          -28.492966,
          31.544813
        ]
      },
      "properties": {
        "label": "Tocilizumab",
        "level": 3,
        "pos": "-67934.677,180839.01499999998",
        "src_id": "5528",
        "weight": "0.0"
      }
    },
    {
      "type": "Feature",
      "id": "984",
      "geometry": {
        "type": "Point",
        "coordinates": [
          -32.391758,
          25.959961
        ]
      },
      "properties": {
        "label": "Crohn's disease",
        "level": 3,
        "pos": "-84498.126,153149.293",
        "src_id": "174559",
        "weight": "0.0"
      }
    },
    {
      "type": "Feature",
      "id": "696",
      "geometry": {
        "type": "Point",
        "coordinates": [
          -29.359763,
          27.772638
        ]
      },
      "properties": {
        "label": "Varicella",
        "level": 1,
        "pos": "-71617.144,161976.787",
        "src_id": "188263",
        "weight": "0.0"
      }
    },
    {
      "type": "Feature",
      "id": "1712",
      "geometry": {
        "type": "Point",
        "coordinates": [
          -38.352549,
          31.628159
        ]
      },
      "properties": {
        "label": "Phenol",
        "level": 4,
        "pos": "-109821.685,181264.03",
        "src_id": "3075",
        "weight": "0.0"
      }
    },
    {
      "type": "Feature",
      "id": "1196",
      "geometry": {
        "type": "Point",
        "coordinates": [
          -31.626426,
          27.865365
        ]
      },
      "properties": {
        "label": "Colitis ulcerative",
        "level": 4,
        "pos": "-81246.72700000001,162432.234",
        "src_id": "173909",
        "weight": "0.0"
      }
    },
    {
      "type": "Feature",
      "id": "549",
      "geometry": {
        "type": "Point",
        "coordinates": [
          -27.242168,
          32.989378
        ]
      },
      "properties": {
        "label": "Tonsillitis",
        "level": 1,
        "pos": "-62620.854,188260.563",
        "src_id": "187154",
        "weight": "0.0"
      }
    },
    {
      "type": "Feature",
      "id": "972",
      "geometry": {
        "type": "Point",
        "coordinates": [
          -29.873126,
          26.263162
        ]
      },
      "properties": {
        "label": "Herpes zoster",
        "level": 4,
        "pos": "-73798.09,154616.088",
        "src_id": "178112",
        "weight": "0.0"
      }
    },
    {
      "type": "Feature",
      "id": "1062",
      "geometry": {
        "type": "Point",
        "coordinates": [
          -28.281143,
          26.754539
        ]
      },
      "properties": {
        "label": "Hepatitis B",
        "level": 1,
        "pos": "-67034.779,157001.396",
        "src_id": "177942",
        "weight": "0.0"
      }
    },
    {
      "type": "Feature",
      "id": "1428",
      "geometry": {
        "type": "Point",
        "coordinates": [
          -41.297741,
          -33.520587
        ]
      },
      "properties": {
        "label": "Leuprolide",
        "level": 3,
        "pos": "-122333.905,-118397.34300000001",
        "src_id": "7",
        "weight": "0.0"
      }
    },
    {
      "type": "Feature",
      "id": "91",
      "geometry": {
        "type": "Point",
        "coordinates": [
          -37.245769,
          -34.557343
        ]
      },
      "properties": {
        "label": "Endometriosis",
        "level": 2,
        "pos": "-105119.69499999999,-123832.334",
        "src_id": "175911",
        "weight": "6795.333333333334"
      }
    },
    {
      "type": "Feature",
      "id": "56",
      "geometry": {
        "type": "Point",
        "coordinates": [
          -34.51954,
          -29.071264
        ]
      },
      "properties": {
        "label": "Asthma",
        "level": 1,
        "pos": "-93537.69499999999,-95768.65",
        "src_id": "171037",
        "weight": "17377.933333333338"
      }
    },
    {
      "type": "Feature",
      "id": "229",
      "geometry": {
        "type": "Point",
        "coordinates": [
          -43.219619,
          -34.014139
        ]
      },
      "properties": {
        "label": "Pancreatitis",
        "level": 2,
        "pos": "-130498.71500000001,-120976.41",
        "src_id": "182725",
        "weight": "2356.6666666666656"
      }
    },
    {
      "type": "Feature",
      "id": "1215",
      "geometry": {
        "type": "Point",
        "coordinates": [
          -35.488395,
          -35.249144
        ]
      },
      "properties": {
        "label": "Adenomyosis",
        "level": 4,
        "pos": "-97653.73700000001,-127496.66100000001",
        "src_id": "169800",
        "weight": "0.0"
      }
    },
    {
      "type": "Feature",
      "id": "200",
      "geometry": {
        "type": "Point",
        "coordinates": [
          -31.989609,
          -25.696727
        ]
      },
      "properties": {
        "label": "Anaemia",
        "level": 1,
        "pos": "-82789.65599999999,-79256.232",
        "src_id": "170190",
        "weight": "681.75"
      }
    },
    {
      "type": "Feature",
      "id": "1745",
      "geometry": {
        "type": "Point",
        "coordinates": [
          -38.410362,
          -31.624257
        ]
      },
      "properties": {
        "label": "Montelukast",
        "level": 3,
        "pos": "-110067.289,-108621.44600000001",
        "src_id": "460",
        "weight": "0.0"
      }
    },
    {
      "type": "Feature",
      "id": "1614",
      "geometry": {
        "type": "Point",
        "coordinates": [
          -38.711452,
          -23.776679
        ]
      },
      "properties": {
        "label": "Emphysema",
        "level": 4,
        "pos": "-111346.42599999999,-70072.357",
        "src_id": "175786",
        "weight": "0.0"
      }
    },
    {
      "type": "Feature",
      "id": "1501",
      "geometry": {
        "type": "Point",
        "coordinates": [
          -37.74355,
          -31.0493
        ]
      },
      "properties": {
        "label": "Pulmonary function test",
        "level": 4,
        "pos": "-107234.438,-105697.27799999999",
        "src_id": "184512",
        "weight": "0.0"
      }
    },
    {
      "type": "Feature",
      "id": "766",
      "geometry": {
        "type": "Point",
        "coordinates": [
          -37.824591,
          -24.314805
        ]
      },
      "properties": {
        "label": "Cardiomyopathy",
        "level": 3,
        "pos": "-107578.72899999999,-72632.09700000001",
        "src_id": "173135",
        "weight": "0.0"
      }
    },
    {
      "type": "Feature",
      "id": "966",
      "geometry": {
        "type": "Point",
        "coordinates": [
          -35.391296,
          -24.614247
        ]
      },
      "properties": {
        "label": "Iron deficiency",
        "level": 4,
        "pos": "-97241.229,-74061.166",
        "src_id": "179432",
        "weight": "0.0"
      }
    },
    {
      "type": "Feature",
      "id": "1",
      "geometry": {
        "type": "Point",
        "coordinates": [
          -1.910606,
          -44.297423
        ]
      },
      "properties": {
        "label": "Pain",
        "level": 1,
        "pos": "44996.6,-178764.117",
        "src_id": "182630",
        "weight": "382483.9351190477"
      }
    },
    {
      "type": "Feature",
      "id": "1113",
      "geometry": {
        "type": "Point",
        "coordinates": [
          -0.382082,
          -45.992981
        ]
      },
      "properties": {
        "label": "Polymyxin B Sulfate",
        "level": 2,
        "pos": "51490.312000000005,-189208.056",
        "src_id": "767",
        "weight": "3525.9999999999995"
      }
    },
    {
      "type": "Feature",
      "id": "4",
      "geometry": {
        "type": "Point",
        "coordinates": [
          3.515924,
          -51.480607
        ]
      },
      "properties": {
        "label": "Surgery",
        "level": 1,
        "pos": "68050.42400000001,-225402.435",
        "src_id": "186589",
        "weight": "153067.46666666667"
      }
    },
    {
      "type": "Feature",
      "id": "3",
      "geometry": {
        "type": "Point",
        "coordinates": [
          -10.575298,
          -42.33044
        ]
      },
      "properties": {
        "label": "Depression",
        "level": 1,
        "pos": "8185.924999999999,-167019.221",
        "src_id": "175023",
        "weight": "181459.45773809552"
      }
    },
    {
      "type": "Feature",
      "id": "1709",
      "geometry": {
        "type": "Point",
        "coordinates": [
          5.422845,
          -45.013964
        ]
      },
      "properties": {
        "label": "Arachidonic Acid",
        "level": 4,
        "pos": "76151.704,-183139.899",
        "src_id": "4289",
        "weight": "0.0"
      }
    },
    {
      "type": "Feature",
      "id": "1702",
      "geometry": {
        "type": "Point",
        "coordinates": [
          5.116934,
          -44.081804
        ]
      },
      "properties": {
        "label": "Dimethyl fumarate",
        "level": 4,
        "pos": "74852.08,-177457.85499999998",
        "src_id": "7867",
        "weight": "0.0"
      }
    },
    {
      "type": "Feature",
      "id": "1681",
      "geometry": {
        "type": "Point",
        "coordinates": [
          5.284352,
          -44.532078
        ]
      },
      "properties": {
        "label": "Nefopam",
        "level": 4,
        "pos": "75563.32999999999,-180191.166",
        "src_id": "9951",
        "weight": "0.0"
      }
    },
    {
      "type": "Feature",
      "id": "1178",
      "geometry": {
        "type": "Point",
        "coordinates": [
          2.44944,
          -47.865984
        ]
      },
      "properties": {
        "label": "Hypermobility syndrome",
        "level": 4,
        "pos": "63519.618,-201124.095",
        "src_id": "178486",
        "weight": "0.0"
      }
    },
    {
      "type": "Feature",
      "id": "1655",
      "geometry": {
        "type": "Point",
        "coordinates": [
          1.539196,
          -47.499602
        ]
      },
      "properties": {
        "label": "Apparent death",
        "level": 4,
        "pos": "59652.583,-198760.049",
        "src_id": "170770",
        "weight": "0.0"
      }
    },
    {
      "type": "Feature",
      "id": "1653",
      "geometry": {
        "type": "Point",
        "coordinates": [
          2.884312,
          -46.258196
        ]
      },
      "properties": {
        "label": "Arthroscopic surgery",
        "level": 4,
        "pos": "65367.109,-190870.329",
        "src_id": "170964",
        "weight": "0.0"
      }
    },
    {
      "type": "Feature",
      "id": "1649",
      "geometry": {
        "type": "Point",
        "coordinates": [
          3.278768,
          -45.790357
        ]
      },
      "properties": {
        "label": "Autoimmune arthritis",
        "level": 4,
        "pos": "67042.902,-187943.449",
        "src_id": "171134",
        "weight": "0.0"
      }
    },
    {
      "type": "Feature",
      "id": "1644",
      "geometry": {
        "type": "Point",
        "coordinates": [
          3.685768,
          -45.41246
        ]
      },
      "properties": {
        "label": "Blood count",
        "level": 4,
        "pos": "68771.98,-185597.153",
        "src_id": "172065",
        "weight": "0.0"
      }
    },
    {
      "type": "Feature",
      "id": "1641",
      "geometry": {
        "type": "Point",
        "coordinates": [
          2.490691,
          -47.045266
        ]
      },
      "properties": {
        "label": "Brain oedema",
        "level": 4,
        "pos": "63694.87,-195851.291",
        "src_id": "172613",
        "weight": "0.0"
      }
    },
    {
      "type": "Feature",
      "id": "1640",
      "geometry": {
        "type": "Point",
        "coordinates": [
          3.173349,
          -46.63578
        ]
      },
      "properties": {
        "label": "Breakthrough pain",
        "level": 4,
        "pos": "66595.036,-193250.815",
        "src_id": "172640",
        "weight": "0.0"
      }
    },
    {
      "type": "Feature",
      "id": "1285",
      "geometry": {
        "type": "Point",
        "coordinates": [
          1.203404,
          -48.253116
        ]
      },
      "properties": {
        "label": "Seasonal allergy",
        "level": 4,
        "pos": "58226.024000000005,-203640.263",
        "src_id": "185647",
        "weight": "0.0"
      }
    },
    {
      "type": "Feature",
      "id": "1343",
      "geometry": {
        "type": "Point",
        "coordinates": [
          -0.736617,
          -47.234463
        ]
      },
      "properties": {
        "label": "Dysmenorrhoea",
        "level": 4,
        "pos": "49984.121,-197059.535",
        "src_id": "175486",
        "weight": "0.0"
      }
    },
    {
      "type": "Feature",
      "id": "1604",
      "geometry": {
        "type": "Point",
        "coordinates": [
          -1.035679,
          -48.077085
        ]
      },
      "properties": {
        "label": "Flank pain",
        "level": 4,
        "pos": "48713.602,-202493.803",
        "src_id": "176738",
        "weight": "0.0"
      }
    },
    {
      "type": "Feature",
      "id": "1603",
      "geometry": {
        "type": "Point",
        "coordinates": [
          -4.694778,
          -48.822087
        ]
      },
      "properties": {
        "label": "Flea infestation",
        "level": 4,
        "pos": "33168.452000000005,-207373.095",
        "src_id": "176749",
        "weight": "0.0"
      }
    },
    {
      "type": "Feature",
      "id": "1601",
      "geometry": {
        "type": "Point",
        "coordinates": [
          -4.042707,
          -49.527054
        ]
      },
      "properties": {
        "label": "Gallbladder pain",
        "level": 4,
        "pos": "35938.68,-212057.43899999998",
        "src_id": "177017",
        "weight": "0.0"
      }
    },
    {
      "type": "Feature",
      "id": "1591",
      "geometry": {
        "type": "Point",
        "coordinates": [
          -7.19444,
          -48.695153
        ]
      },
      "properties": {
        "label": "Haematemesis",
        "level": 4,
        "pos": "22548.998,-206536.67799999999",
        "src_id": "177585",
        "weight": "0.0"
      }
    },
    {
      "type": "Feature",
      "id": "1582",
      "geometry": {
        "type": "Point",
        "coordinates": [
          -1.461037,
          -49.313417
        ]
      },
      "properties": {
        "label": "Hyperaesthesia",
        "level": 4,
        "pos": "46906.532,-210630.808",
        "src_id": "178414",
        "weight": "0.0"
      }
    },
    {
      "type": "Feature",
      "id": "1571",
      "geometry": {
        "type": "Point",
        "coordinates": [
          -6.828127,
          -49.171783
        ]
      },
      "properties": {
        "label": "Intervertebral disc degeneration",
        "level": 4,
        "pos": "24105.229000000003,-209688.412",
        "src_id": "179257",
        "weight": "0.0"
      }
    },
    {
      "type": "Feature",
      "id": "1553",
      "geometry": {
        "type": "Point",
        "coordinates": [
          -2.634945,
          -48.468305
        ]
      },
      "properties": {
        "label": "Medial tibial stress syndrome",
        "level": 4,
        "pos": "41919.346,-205047.122",
        "src_id": "180624",
        "weight": "0.0"
      }
    },
    {
      "type": "Feature",
      "id": "1551",
      "geometry": {
        "type": "Point",
        "coordinates": [
          -4.000879,
          -48.077974
        ]
      },
      "properties": {
        "label": "Menorrhagia",
        "level": 4,
        "pos": "36116.38,-202499.577",
        "src_id": "180772",
        "weight": "0.0"
      }
    },
    {
      "type": "Feature",
      "id": "1542",
      "geometry": {
        "type": "Point",
        "coordinates": [
          -7.255179,
          -48.270063
        ]
      },
      "properties": {
        "label": "Musculoskeletal chest pain",
        "level": 4,
        "pos": "22290.959000000003,-203750.837",
        "src_id": "181281",
        "weight": "0.0"
      }
    },
    {
      "type": "Feature",
      "id": "1537",
      "geometry": {
        "type": "Point",
        "coordinates": [
          -7.199562,
          -47.853095
        ]
      },
      "properties": {
        "label": "Nerve compression",
        "level": 4,
        "pos": "22527.235,-201040.653",
        "src_id": "181678",
        "weight": "0.0"
      }
    },
    {
      "type": "Feature",
      "id": "1518",
      "geometry": {
        "type": "Point",
        "coordinates": [
          4.195403,
          -47.439257
        ]
      },
      "properties": {
        "label": "Plantar fasciitis",
        "level": 4,
        "pos": "70937.09300000001,-198372.267",
        "src_id": "183542",
        "weight": "0.0"
      }
    },
    {
      "type": "Feature",
      "id": "1474",
      "geometry": {
        "type": "Point",
        "coordinates": [
          1.533678,
          -48.77492
        ]
      },
      "properties": {
        "label": "Therapeutic procedure",
        "level": 4,
        "pos": "59629.140999999996,-207062.048",
        "src_id": "186884",
        "weight": "0.0"
      }
    },
    {
      "type": "Feature",
      "id": "1469",
      "geometry": {
        "type": "Point",
        "coordinates": [
          0.612514,
          -49.171163
        ]
      },
      "properties": {
        "label": "Torticollis",
        "level": 4,
        "pos": "55715.71,-209684.286",
        "src_id": "187194",
        "weight": "0.0"
      }
    },
    {
      "type": "Feature",
      "id": "1462",
      "geometry": {
        "type": "Point",
        "coordinates": [
          -4.527707,
          -47.67841
        ]
      },
      "properties": {
        "label": "Victim of abuse",
        "level": 4,
        "pos": "33878.231999999996,-199911.72",
        "src_id": "188522",
        "weight": "0.0"
      }
    },
    {
      "type": "Feature",
      "id": "1449",
      "geometry": {
        "type": "Point",
        "coordinates": [
          -2.399412,
          -47.444755
        ]
      },
      "properties": {
        "label": "Kratom",
        "level": 4,
        "pos": "42919.975999999995,-198407.577",
        "src_id": "239925",
        "weight": "0.0"
      }
    },
    {
      "type": "Feature",
      "id": "1257",
      "geometry": {
        "type": "Point",
        "coordinates": [
          2.579594,
          -49.558763
        ]
      },
      "properties": {
        "label": "Gramicidin D",
        "level": 3,
        "pos": "64072.559,-212269.72",
        "src_id": "27",
        "weight": "0.0"
      }
    },
    {
      "type": "Feature",
      "id": "1242",
      "geometry": {
        "type": "Point",
        "coordinates": [
          2.472458,
          -49.918486
        ]
      },
      "properties": {
        "label": "Neomycin",
        "level": 3,
        "pos": "63617.409999999996,-214687.618",
        "src_id": "980",
        "weight": "0.0"
      }
    },
    {
      "type": "Feature",
      "id": "1420",
      "geometry": {
        "type": "Point",
        "coordinates": [
          3.366101,
          -50.27267
        ]
      },
      "properties": {
        "label": "Bacitracin",
        "level": 3,
        "pos": "67413.916,-217085.981",
        "src_id": "613",
        "weight": "1763.9999999999998"
      }
    },
    {
      "type": "Feature",
      "id": "30",
      "geometry": {
        "type": "Point",
        "coordinates": [
          1.561856,
          -57.620733
        ]
      },
      "properties": {
        "label": "Injury",
        "level": 2,
        "pos": "59748.849,-271500.097",
        "src_id": "179153",
        "weight": "6136.333333333334"
      }
    },
    {
      "type": "Feature",
      "id": "117",
      "geometry": {
        "type": "Point",
        "coordinates": [
          7.374693,
          -54.900688
        ]
      },
      "properties": {
        "label": "Scar",
        "level": 3,
        "pos": "84443.838,-250215.381",
        "src_id": "185551",
        "weight": "1764.0"
      }
    },
    {
      "type": "Feature",
      "id": "986",
      "geometry": {
        "type": "Point",
        "coordinates": [
          9.733607,
          -54.32078
        ]
      },
      "properties": {
        "label": "Cleft lip",
        "level": 4,
        "pos": "94465.339,-245865.476",
        "src_id": "173778",
        "weight": "0.0"
      }
    },
    {
      "type": "Feature",
      "id": "1662",
      "geometry": {
        "type": "Point",
        "coordinates": [
          9.221227,
          -48.514038
        ]
      },
      "properties": {
        "label": "Aneurysm",
        "level": 4,
        "pos": "92288.56899999999,-205346.883",
        "src_id": "170319",
        "weight": "0.0"
      }
    },
    {
      "type": "Feature",
      "id": "1660",
      "geometry": {
        "type": "Point",
        "coordinates": [
          8.164189,
          -48.103422
        ]
      },
      "properties": {
        "label": "Ankle fracture",
        "level": 4,
        "pos": "87797.9,-202665.075",
        "src_id": "170418",
        "weight": "0.0"
      }
    },
    {
      "type": "Feature",
      "id": "1316",
      "geometry": {
        "type": "Point",
        "coordinates": [
          3.439044,
          -55.519035
        ]
      },
      "properties": {
        "label": "Hip arthroplasty",
        "level": 4,
        "pos": "67723.814,-254923.177",
        "src_id": "178152",
        "weight": "0.0"
      }
    },
    {
      "type": "Feature",
      "id": "971",
      "geometry": {
        "type": "Point",
        "coordinates": [
          -2.558848,
          -53.304257
        ]
      },
      "properties": {
        "label": "Hip dysplasia",
        "level": 4,
        "pos": "42242.636,-238386.173",
        "src_id": "178155",
        "weight": "0.0"
      }
    },
    {
      "type": "Feature",
      "id": "1139",
      "geometry": {
        "type": "Point",
        "coordinates": [
          0.525883,
          -55.076251
        ]
      },
      "properties": {
        "label": "Social phobia",
        "level": 4,
        "pos": "55347.670999999995,-251544.619",
        "src_id": "186090",
        "weight": "0.0"
      }
    },
    {
      "type": "Feature",
      "id": "1372",
      "geometry": {
        "type": "Point",
        "coordinates": [
          8.269312,
          -52.75737
        ]
      },
      "properties": {
        "label": "Arthrogram",
        "level": 4,
        "pos": "88244.504,-234435.801",
        "src_id": "170954",
        "weight": "0.0"
      }
    },
    {
      "type": "Feature",
      "id": "1371",
      "geometry": {
        "type": "Point",
        "coordinates": [
          5.714726,
          -53.542787
        ]
      },
      "properties": {
        "label": "Arthroscopy",
        "level": 4,
        "pos": "77391.706,-240125.011",
        "src_id": "170965",
        "weight": "0.0"
      }
    },
    {
      "type": "Feature",
      "id": "1211",
      "geometry": {
        "type": "Point",
        "coordinates": [
          -1.571757,
          -55.10963
        ]
      },
      "properties": {
        "label": "Atrophy",
        "level": 4,
        "pos": "46436.146,-251798.001",
        "src_id": "171099",
        "weight": "0.0"
      }
    },
    {
      "type": "Feature",
      "id": "1205",
      "geometry": {
        "type": "Point",
        "coordinates": [
          -3.39089,
          -54.43035
        ]
      },
      "properties": {
        "label": "Blood pressure decreased",
        "level": 4,
        "pos": "38707.832,-246682.642",
        "src_id": "172312",
        "weight": "0.0"
      }
    },
    {
      "type": "Feature",
      "id": "1642",
      "geometry": {
        "type": "Point",
        "coordinates": [
          7.532968,
          -48.65813
        ]
      },
      "properties": {
        "label": "Bone graft",
        "level": 4,
        "pos": "85116.249,-206293.118",
        "src_id": "172483",
        "weight": "0.0"
      }
    },
    {
      "type": "Feature",
      "id": "1364",
      "geometry": {
        "type": "Point",
        "coordinates": [
          5.108044,
          -54.190858
        ]
      },
      "properties": {
        "label": "Bone pain",
        "level": 4,
        "pos": "74814.313,-244899.359",
        "src_id": "172523",
        "weight": "0.0"
      }
    },
    {
      "type": "Feature",
      "id": "1639",
      "geometry": {
        "type": "Point",
        "coordinates": [
          8.188641,
          -49.026515
        ]
      },
      "properties": {
        "label": "Bunion",
        "level": 4,
        "pos": "87901.776,-208724.626",
        "src_id": "172809",
        "weight": "0.0"
      }
    },
    {
      "type": "Feature",
      "id": "1633",
      "geometry": {
        "type": "Point",
        "coordinates": [
          8.371912,
          -49.582226
        ]
      },
      "properties": {
        "label": "Cholecystectomy",
        "level": 4,
        "pos": "88680.384,-212426.882",
        "src_id": "173591",
        "weight": "0.0"
      }
    },
    {
      "type": "Feature",
      "id": "1631",
      "geometry": {
        "type": "Point",
        "coordinates": [
          11.088917,
          -49.668462
        ]
      },
      "properties": {
        "label": "Chronic sinusitis",
        "level": 4,
        "pos": "100223.185,-213005.167",
        "src_id": "173733",
        "weight": "0.0"
      }
    },
    {
      "type": "Feature",
      "id": "1630",
      "geometry": {
        "type": "Point",
        "coordinates": [
          10.111228,
          -49.234485
        ]
      },
      "properties": {
        "label": "Circumcision",
        "level": 4,
        "pos": "96069.61,-210105.276",
        "src_id": "173760",
        "weight": "0.0"
      }
    },
    {
      "type": "Feature",
      "id": "1179",
      "geometry": {
        "type": "Point",
        "coordinates": [
          -0.424807,
          -54.101143
        ]
      },
      "properties": {
        "label": "Hydrocephalus",
        "level": 4,
        "pos": "51308.802,-244234.00100000002",
        "src_id": "178376",
        "weight": "0.0"
      }
    },
    {
      "type": "Feature",
      "id": "1624",
      "geometry": {
        "type": "Point",
        "coordinates": [
          9.032752,
          -50.038714
        ]
      },
      "properties": {
        "label": "Dental care",
        "level": 4,
        "pos": "91487.856,-215499.758",
        "src_id": "174985",
        "weight": "0.0"
      }
    },
    {
      "type": "Feature",
      "id": "1347",
      "geometry": {
        "type": "Point",
        "coordinates": [
          5.70298,
          -54.831691
        ]
      },
      "properties": {
        "label": "Dental operation",
        "level": 4,
        "pos": "77341.813,-249694.57",
        "src_id": "175001",
        "weight": "0.0"
      }
    },
    {
      "type": "Feature",
      "id": "835",
      "geometry": {
        "type": "Point",
        "coordinates": [
          -2.951435,
          -52.669839
        ]
      },
      "properties": {
        "label": "Hernia",
        "level": 4,
        "pos": "40574.791,-233808.146",
        "src_id": "178084",
        "weight": "0.0"
      }
    },
    {
      "type": "Feature",
      "id": "1342",
      "geometry": {
        "type": "Point",
        "coordinates": [
          3.08386,
          -53.838115
        ]
      },
      "properties": {
        "label": "Dysplasia",
        "level": 4,
        "pos": "66214.864,-242291.528",
        "src_id": "175498",
        "weight": "0.0"
      }
    },
    {
      "type": "Feature",
      "id": "1616",
      "geometry": {
        "type": "Point",
        "coordinates": [
          10.181808,
          -48.885627
        ]
      },
      "properties": {
        "label": "Ectopic pregnancy",
        "level": 4,
        "pos": "96369.459,-207792.586",
        "src_id": "175604",
        "weight": "0.0"
      }
    },
    {
      "type": "Feature",
      "id": "1340",
      "geometry": {
        "type": "Point",
        "coordinates": [
          6.68871,
          -53.162264
        ]
      },
      "properties": {
        "label": "Emergency care",
        "level": 4,
        "pos": "81529.543,-237355.674",
        "src_id": "175775",
        "weight": "0.0"
      }
    },
    {
      "type": "Feature",
      "id": "1339",
      "geometry": {
        "type": "Point",
        "coordinates": [
          3.793099,
          -54.514237
        ]
      },
      "properties": {
        "label": "Endotracheal intubation",
        "level": 4,
        "pos": "69227.965,-247309.72600000002",
        "src_id": "175952",
        "weight": "0.0"
      }
    },
    {
      "type": "Feature",
      "id": "1262",
      "geometry": {
        "type": "Point",
        "coordinates": [
          -2.129383,
          -53.656294
        ]
      },
      "properties": {
        "label": "Hippocampus",
        "level": 4,
        "pos": "44067.164,-240955.896",
        "src_id": "240385",
        "weight": "0.0"
      }
    },
    {
      "type": "Feature",
      "id": "1334",
      "geometry": {
        "type": "Point",
        "coordinates": [
          2.955071,
          -54.856739
        ]
      },
      "properties": {
        "label": "Facial asymmetry",
        "level": 4,
        "pos": "65667.71699999999,-249883.535",
        "src_id": "176483",
        "weight": "0.0"
      }
    },
    {
      "type": "Feature",
      "id": "1599",
      "geometry": {
        "type": "Point",
        "coordinates": [
          11.268474,
          -50.124502
        ]
      },
      "properties": {
        "label": "Gastric bypass",
        "level": 4,
        "pos": "100985.997,-216080.49500000002",
        "src_id": "177066",
        "weight": "0.0"
      }
    },
    {
      "type": "Feature",
      "id": "1320",
      "geometry": {
        "type": "Point",
        "coordinates": [
          1.694235,
          -54.150021
        ]
      },
      "properties": {
        "label": "Groin pain",
        "level": 4,
        "pos": "60311.244,-244596.316",
        "src_id": "177544",
        "weight": "0.0"
      }
    },
    {
      "type": "Feature",
      "id": "1589",
      "geometry": {
        "type": "Point",
        "coordinates": [
          8.930514,
          -50.469121
        ]
      },
      "properties": {
        "label": "Haemostasis",
        "level": 4,
        "pos": "91053.519,-218423.953",
        "src_id": "177719",
        "weight": "0.0"
      }
    },
    {
      "type": "Feature",
      "id": "1319",
      "geometry": {
        "type": "Point",
        "coordinates": [
          3.435714,
          -55.975088
        ]
      },
      "properties": {
        "label": "Hand fracture",
        "level": 4,
        "pos": "67709.657,-258442.971",
        "src_id": "177751",
        "weight": "0.0"
      }
    },
    {
      "type": "Feature",
      "id": "1315",
      "geometry": {
        "type": "Point",
        "coordinates": [
          1.000149,
          -55.782927
        ]
      },
      "properties": {
        "label": "Hip fracture",
        "level": 4,
        "pos": "57362.521,-256954.856",
        "src_id": "178156",
        "weight": "0.0"
      }
    },
    {
      "type": "Feature",
      "id": "1314",
      "geometry": {
        "type": "Point",
        "coordinates": [
          -1.623514,
          -55.422471
        ]
      },
      "properties": {
        "label": "Histology",
        "level": 4,
        "pos": "46216.271,-254183.153",
        "src_id": "178172",
        "weight": "0.0"
      }
    },
    {
      "type": "Feature",
      "id": "1570",
      "geometry": {
        "type": "Point",
        "coordinates": [
          11.772926,
          -50.54961
        ]
      },
      "properties": {
        "label": "Intestinal obstruction",
        "level": 4,
        "pos": "103129.092,-218973.737",
        "src_id": "179287",
        "weight": "0.0"
      }
    },
    {
      "type": "Feature",
      "id": "1566",
      "geometry": {
        "type": "Point",
        "coordinates": [
          9.89095,
          -50.916381
        ]
      },
      "properties": {
        "label": "Knee arthroplasty",
        "level": 4,
        "pos": "95133.79299999999,-221490.981",
        "src_id": "179624",
        "weight": "0.0"
      }
    },
    {
      "type": "Feature",
      "id": "1564",
      "geometry": {
        "type": "Point",
        "coordinates": [
          9.877672,
          -52.3823
        ]
      },
      "properties": {
        "label": "Leg amputation",
        "level": 4,
        "pos": "95077.383,-231755.115",
        "src_id": "179847",
        "weight": "0.0"
      }
    },
    {
      "type": "Feature",
      "id": "1563",
      "geometry": {
        "type": "Point",
        "coordinates": [
          10.848798,
          -52.772262
        ]
      },
      "properties": {
        "label": "Leiomyosarcoma",
        "level": 4,
        "pos": "99203.06999999999,-234542.712",
        "src_id": "179853",
        "weight": "0.0"
      }
    },
    {
      "type": "Feature",
      "id": "1304",
      "geometry": {
        "type": "Point",
        "coordinates": [
          0.559155,
          -55.397574
        ]
      },
      "properties": {
        "label": "Local anaesthesia",
        "level": 4,
        "pos": "55489.024,-253992.637",
        "src_id": "180103",
        "weight": "0.0"
      }
    },
    {
      "type": "Feature",
      "id": "1552",
      "geometry": {
        "type": "Point",
        "coordinates": [
          7.160276,
          -54.01521
        ]
      },
      "properties": {
        "label": "Medulloblastoma",
        "level": 4,
        "pos": "83532.91900000001,-243598.027",
        "src_id": "180665",
        "weight": "0.0"
      }
    },
    {
      "type": "Feature",
      "id": "1302",
      "geometry": {
        "type": "Point",
        "coordinates": [
          0.353021,
          -54.470225
        ]
      },
      "properties": {
        "label": "Meniscus lesion",
        "level": 4,
        "pos": "54613.292,-246980.55500000002",
        "src_id": "180761",
        "weight": "0.0"
      }
    },
    {
      "type": "Feature",
      "id": "1531",
      "geometry": {
        "type": "Point",
        "coordinates": [
          10.83822,
          -52.025027
        ]
      },
      "properties": {
        "label": "Oral pain",
        "level": 4,
        "pos": "99158.12800000001,-229222.728",
        "src_id": "182321",
        "weight": "0.0"
      }
    },
    {
      "type": "Feature",
      "id": "1528",
      "geometry": {
        "type": "Point",
        "coordinates": [
          10.334677,
          -53.128373
        ]
      },
      "properties": {
        "label": "Osteotomy",
        "level": 4,
        "pos": "97018.90000000001,-237110.22",
        "src_id": "182467",
        "weight": "0.0"
      }
    },
    {
      "type": "Feature",
      "id": "1527",
      "geometry": {
        "type": "Point",
        "coordinates": [
          8.673085,
          -53.318699
        ]
      },
      "properties": {
        "label": "Otoplasty",
        "level": 4,
        "pos": "89959.872,-238491.17200000002",
        "src_id": "182490",
        "weight": "0.0"
      }
    },
    {
      "type": "Feature",
      "id": "1291",
      "geometry": {
        "type": "Point",
        "coordinates": [
          -3.143599,
          -54.778179
        ]
      },
      "properties": {
        "label": "Peripheral nerve decompression",
        "level": 4,
        "pos": "39758.407,-249291.25999999998",
        "src_id": "183182",
        "weight": "0.0"
      }
    },
    {
      "type": "Feature",
      "id": "1272",
      "geometry": {
        "type": "Point",
        "coordinates": [
          -2.514157,
          -54.019913
        ]
      },
      "properties": {
        "label": "Traction",
        "level": 4,
        "pos": "42432.495,-243632.804",
        "src_id": "187287",
        "weight": "0.0"
      }
    },
    {
      "type": "Feature",
      "id": "1524",
      "geometry": {
        "type": "Point",
        "coordinates": [
          11.234204,
          -53.507896
        ]
      },
      "properties": {
        "label": "Peroneal nerve palsy",
        "level": 4,
        "pos": "100840.415,-239870.053",
        "src_id": "183290",
        "weight": "0.0"
      }
    },
    {
      "type": "Feature",
      "id": "1516",
      "geometry": {
        "type": "Point",
        "coordinates": [
          7.845814,
          -53.689731
        ]
      },
      "properties": {
        "label": "Plica syndrome",
        "level": 4,
        "pos": "86445.334,-241201.085",
        "src_id": "183665",
        "weight": "0.0"
      }
    },
    {
      "type": "Feature",
      "id": "1507",
      "geometry": {
        "type": "Point",
        "coordinates": [
          10.458789,
          -54.009021
        ]
      },
      "properties": {
        "label": "Procedural pain",
        "level": 4,
        "pos": "97546.16500000001,-243552.27500000002",
        "src_id": "184110",
        "weight": "0.0"
      }
    },
    {
      "type": "Feature",
      "id": "1505",
      "geometry": {
        "type": "Point",
        "coordinates": [
          9.455927,
          -55.060469
        ]
      },
      "properties": {
        "label": "Psoriatic arthropathy",
        "level": 4,
        "pos": "93285.66399999999,-251424.888",
        "src_id": "184426",
        "weight": "0.0"
      }
    },
    {
      "type": "Feature",
      "id": "1502",
      "geometry": {
        "type": "Point",
        "coordinates": [
          7.411802,
          -54.508128
        ]
      },
      "properties": {
        "label": "Pulmonary embolism",
        "level": 4,
        "pos": "84601.493,-247264.017",
        "src_id": "184505",
        "weight": "0.0"
      }
    },
    {
      "type": "Feature",
      "id": "1496",
      "geometry": {
        "type": "Point",
        "coordinates": [
          7.575267,
          -55.376931
        ]
      },
      "properties": {
        "label": "Retinopathy",
        "level": 4,
        "pos": "85295.952,-253834.768",
        "src_id": "185266",
        "weight": "0.0"
      }
    },
    {
      "type": "Feature",
      "id": "1484",
      "geometry": {
        "type": "Point",
        "coordinates": [
          6.747368,
          -55.696263
        ]
      },
      "properties": {
        "label": "Skin cosmetic procedure",
        "level": 4,
        "pos": "81778.73599999999,-256286.133",
        "src_id": "185929",
        "weight": "0.0"
      }
    },
    {
      "type": "Feature",
      "id": "1455",
      "geometry": {
        "type": "Point",
        "coordinates": [
          4.928339,
          -55.195232
        ]
      },
      "properties": {
        "label": "Wisdom teeth removal",
        "level": 4,
        "pos": "74050.864,-252448.77500000002",
        "src_id": "188871",
        "weight": "0.0"
      }
    },
    {
      "type": "Feature",
      "id": "2",
      "geometry": {
        "type": "Point",
        "coordinates": [
          -8.524532,
          -42.187321
        ]
      },
      "properties": {
        "label": "Anxiety",
        "level": 1,
        "pos": "16898.304,-166179.212",
        "src_id": "170661",
        "weight": "122849.1297619048"
      }
    },
    {
      "type": "Feature",
      "id": "13",
      "geometry": {
        "type": "Point",
        "coordinates": [
          -8.684601,
          -41.755995
        ]
      },
      "properties": {
        "label": "Insomnia",
        "level": 1,
        "pos": "16218.274999999998,-163659.062",
        "src_id": "179162",
        "weight": "26546.083333333292"
      }
    },
    {
      "type": "Feature",
      "id": "35",
      "geometry": {
        "type": "Point",
        "coordinates": [
          -17.155399,
          -43.952554
        ]
      },
      "properties": {
        "label": "Completed suicide",
        "level": 1,
        "pos": "-19768.677,-176677.114",
        "src_id": "174010",
        "weight": "23570.249999999996"
      }
    },
    {
      "type": "Feature",
      "id": "1402",
      "geometry": {
        "type": "Point",
        "coordinates": [
          -12.550988,
          -46.743515
        ]
      },
      "properties": {
        "label": "Propericiazine",
        "level": 4,
        "pos": "-207.507,-193933.08099999998",
        "src_id": "1540",
        "weight": "0.0"
      }
    },
    {
      "type": "Feature",
      "id": "1664",
      "geometry": {
        "type": "Point",
        "coordinates": [
          -14.946019,
          -46.387069
        ]
      },
      "properties": {
        "label": "Affect lability",
        "level": 4,
        "pos": "-10382.454,-191680.96",
        "src_id": "169892",
        "weight": "0.0"
      }
    },
    {
      "type": "Feature",
      "id": "1637",
      "geometry": {
        "type": "Point",
        "coordinates": [
          -14.63873,
          -46.772584
        ]
      },
      "properties": {
        "label": "Cancer pain",
        "level": 4,
        "pos": "-9076.981,-194117.395",
        "src_id": "172918",
        "weight": "0.0"
      }
    },
    {
      "type": "Feature",
      "id": "1611",
      "geometry": {
        "type": "Point",
        "coordinates": [
          -13.851844,
          -47.221507
        ]
      },
      "properties": {
        "label": "Exhibitionism",
        "level": 4,
        "pos": "-5734.013,-196976.65699999998",
        "src_id": "176271",
        "weight": "0.0"
      }
    },
    {
      "type": "Feature",
      "id": "1525",
      "geometry": {
        "type": "Point",
        "coordinates": [
          -10.890319,
          -47.107336
        ]
      },
      "properties": {
        "label": "Peripheral coldness",
        "level": 4,
        "pos": "6847.601,-196247.212",
        "src_id": "183178",
        "weight": "0.0"
      }
    },
    {
      "type": "Feature",
      "id": "1487",
      "geometry": {
        "type": "Point",
        "coordinates": [
          -12.331201,
          -47.597924
        ]
      },
      "properties": {
        "label": "Self-injurious ideation",
        "level": 4,
        "pos": "726.2180000000001,-199392.843",
        "src_id": "185697",
        "weight": "0.0"
      }
    },
    {
      "type": "Feature",
      "id": "207",
      "geometry": {
        "type": "Point",
        "coordinates": [
          4.814874,
          -60.691439
        ]
      },
      "properties": {
        "label": "Contusion",
        "level": 3,
        "pos": "73568.82299999999,-297537.853",
        "src_id": "174362",
        "weight": "1764.0"
      }
    },
    {
      "type": "Feature",
      "id": "167",
      "geometry": {
        "type": "Point",
        "coordinates": [
          0.458761,
          -61.235392
        ]
      },
      "properties": {
        "label": "Wound",
        "level": 3,
        "pos": "55062.513000000006,-302406.272",
        "src_id": "188883",
        "weight": "0.0"
      }
    },
    {
      "type": "Feature",
      "id": "128",
      "geometry": {
        "type": "Point",
        "coordinates": [
          0.126905,
          -60.923987
        ]
      },
      "properties": {
        "label": "Accident",
        "level": 3,
        "pos": "53652.672000000006,-299608.98500000004",
        "src_id": "169612",
        "weight": "0.0"
      }
    },
    {
      "type": "Feature",
      "id": "420",
      "geometry": {
        "type": "Point",
        "coordinates": [
          5.559656,
          -60.412208
        ]
      },
      "properties": {
        "label": "Fracture",
        "level": 3,
        "pos": "76732.916,-295070.633",
        "src_id": "176874",
        "weight": "0.0"
      }
    },
    {
      "type": "Feature",
      "id": "995",
      "geometry": {
        "type": "Point",
        "coordinates": [
          7.432515,
          -58.510887
        ]
      },
      "properties": {
        "label": "Alcohol poisoning",
        "level": 4,
        "pos": "84689.485,-278810.94200000004",
        "src_id": "169959",
        "weight": "0.0"
      }
    },
    {
      "type": "Feature",
      "id": "1377",
      "geometry": {
        "type": "Point",
        "coordinates": [
          3.728596,
          -61.043223
        ]
      },
      "properties": {
        "label": "Airway complication of anaesthesia",
        "level": 4,
        "pos": "68953.93400000001,-300676.807",
        "src_id": "169923",
        "weight": "0.0"
      }
    },
    {
      "type": "Feature",
      "id": "1337",
      "geometry": {
        "type": "Point",
        "coordinates": [
          2.090282,
          -61.377149
        ]
      },
      "properties": {
        "label": "Epicondylitis",
        "level": 4,
        "pos": "61993.789,-303688.817",
        "src_id": "176057",
        "weight": "0.0"
      }
    },
    {
      "type": "Feature",
      "id": "1610",
      "geometry": {
        "type": "Point",
        "coordinates": [
          5.839249,
          -59.602013
        ]
      },
      "properties": {
        "label": "Exophthalmos",
        "level": 4,
        "pos": "77920.725,-288029.80000000005",
        "src_id": "176276",
        "weight": "0.0"
      }
    },
    {
      "type": "Feature",
      "id": "1329",
      "geometry": {
        "type": "Point",
        "coordinates": [
          -2.859058,
          -60.372931
        ]
      },
      "properties": {
        "label": "Foreign body",
        "level": 4,
        "pos": "40967.238000000005,-294725.289",
        "src_id": "176862",
        "weight": "0.0"
      }
    },
    {
      "type": "Feature",
      "id": "1561",
      "geometry": {
        "type": "Point",
        "coordinates": [
          -2.655045,
          -60.66045
        ]
      },
      "properties": {
        "label": "Lip injury",
        "level": 4,
        "pos": "41833.958000000006,-297262.99",
        "src_id": "180013",
        "weight": "0.0"
      }
    },
    {
      "type": "Feature",
      "id": "1273",
      "geometry": {
        "type": "Point",
        "coordinates": [
          6.319838,
          -60.109838
        ]
      },
      "properties": {
        "label": "Tracheostomy",
        "level": 4,
        "pos": "79962.436,-292422.722",
        "src_id": "187282",
        "weight": "0.0"
      }
    },
    {
      "type": "Feature",
      "id": "1127",
      "geometry": {
        "type": "Point",
        "coordinates": [
          -1.740211,
          -60.942129
        ]
      },
      "properties": {
        "label": "Wrist fracture",
        "level": 4,
        "pos": "45720.502,-299771.213",
        "src_id": "188907",
        "weight": "0.0"
      }
    },
    {
      "type": "Feature",
      "id": "1176",
      "geometry": {
        "type": "Point",
        "coordinates": [
          9.808666,
          -58.465353
        ]
      },
      "properties": {
        "label": "Keloid scar",
        "level": 4,
        "pos": "94784.22,-278432.506",
        "src_id": "179563",
        "weight": "0.0"
      }
    },
    {
      "type": "Feature",
      "id": "1143",
      "geometry": {
        "type": "Point",
        "coordinates": [
          11.187956,
          -58.004752
        ]
      },
      "properties": {
        "label": "Skin graft",
        "level": 4,
        "pos": "100643.92599999999,-274631.735",
        "src_id": "185944",
        "weight": "0.0"
      }
    },
    {
      "type": "Feature",
      "id": "1472",
      "geometry": {
        "type": "Point",
        "coordinates": [
          9.23556,
          -58.801883
        ]
      },
      "properties": {
        "label": "Thyroidectomy",
        "level": 4,
        "pos": "92349.459,-281241.082",
        "src_id": "187048",
        "weight": "0.0"
      }
    },
    {
      "type": "Feature",
      "id": "727",
      "geometry": {
        "type": "Point",
        "coordinates": [
          12.082168,
          -57.41777
        ]
      },
      "properties": {
        "label": "Plastic surgery",
        "level": 4,
        "pos": "104442.856,-269858.323",
        "src_id": "183578",
        "weight": "0.0"
      }
    },
    {
      "type": "Feature",
      "id": "1356",
      "geometry": {
        "type": "Point",
        "coordinates": [
          14.232699,
          -56.642105
        ]
      },
      "properties": {
        "label": "Cleft lip repair",
        "level": 4,
        "pos": "113579.077,-263666.484",
        "src_id": "173780",
        "weight": "0.0"
      }
    },
    {
      "type": "Feature",
      "id": "1199",
      "geometry": {
        "type": "Point",
        "coordinates": [
          11.589789,
          -57.704112
        ]
      },
      "properties": {
        "label": "Cleft palate",
        "level": 4,
        "pos": "102351.056,-272177.216",
        "src_id": "173781",
        "weight": "0.0"
      }
    },
    {
      "type": "Feature",
      "id": "145",
      "geometry": {
        "type": "Point",
        "coordinates": [
          -8.137963,
          -42.870734
        ]
      },
      "properties": {
        "label": "Panic attack",
        "level": 3,
        "pos": "18540.582000000002,-170207.739",
        "src_id": "182745",
        "weight": "36.0"
      }
    },
    {
      "type": "Feature",
      "id": "1724",
      "geometry": {
        "type": "Point",
        "coordinates": [
          -2.23561,
          -43.279885
        ]
      },
      "properties": {
        "label": "Atorvastatin",
        "level": 4,
        "pos": "43615.865999999995,-172640.94199999998",
        "src_id": "1060",
        "weight": "0.0"
      }
    },
    {
      "type": "Feature",
      "id": "1230",
      "geometry": {
        "type": "Point",
        "coordinates": [
          -4.333276,
          -43.281967
        ]
      },
      "properties": {
        "label": "Bisacodyl",
        "level": 4,
        "pos": "34704.236000000004,-172653.362",
        "src_id": "7970",
        "weight": "0.0"
      }
    },
    {
      "type": "Feature",
      "id": "1185",
      "geometry": {
        "type": "Point",
        "coordinates": [
          -6.272161,
          -43.261613
        ]
      },
      "properties": {
        "label": "Feeling cold",
        "level": 4,
        "pos": "26467.168999999998,-172531.929",
        "src_id": "176623",
        "weight": "0.0"
      }
    },
    {
      "type": "Feature",
      "id": "1165",
      "geometry": {
        "type": "Point",
        "coordinates": [
          -5.514811,
          -42.860671
        ]
      },
      "properties": {
        "label": "Mutism",
        "level": 4,
        "pos": "29684.664,-170148.101",
        "src_id": "181288",
        "weight": "0.0"
      }
    },
    {
      "type": "Feature",
      "id": "1489",
      "geometry": {
        "type": "Point",
        "coordinates": [
          -5.613652,
          -42.443206
        ]
      },
      "properties": {
        "label": "Schizophrenia, paranoid type",
        "level": 4,
        "pos": "29264.748,-167682.426",
        "src_id": "185578",
        "weight": "0.0"
      }
    },
    {
      "type": "Feature",
      "id": "1451",
      "geometry": {
        "type": "Point",
        "coordinates": [
          -10.199362,
          -42.247952
        ]
      },
      "properties": {
        "label": "Kava",
        "level": 4,
        "pos": "9783.035,-166534.843",
        "src_id": "239835",
        "weight": "0.0"
      }
    },
    {
      "type": "Feature",
      "id": "133",
      "geometry": {
        "type": "Point",
        "coordinates": [
          -2.301447,
          -42.476711
        ]
      },
      "properties": {
        "label": "Restlessness",
        "level": 3,
        "pos": "43336.165,-167879.71300000002",
        "src_id": "185171",
        "weight": "0.0"
      }
    },
    {
      "type": "Feature",
      "id": "977",
      "geometry": {
        "type": "Point",
        "coordinates": [
          -6.092244,
          -41.972366
        ]
      },
      "properties": {
        "label": "Gastric ulcer",
        "level": 4,
        "pos": "27231.517,-164921.143",
        "src_id": "177111",
        "weight": "0.0"
      }
    },
    {
      "type": "Feature",
      "id": "1283",
      "geometry": {
        "type": "Point",
        "coordinates": [
          -0.469815,
          -42.068399
        ]
      },
      "properties": {
        "label": "Sleep disorder",
        "level": 4,
        "pos": "51117.59,-165482.674",
        "src_id": "186000",
        "weight": "0.0"
      }
    },
    {
      "type": "Feature",
      "id": "1541",
      "geometry": {
        "type": "Point",
        "coordinates": [
          -13.89785,
          -43.148203
        ]
      },
      "properties": {
        "label": "Mydriasis",
        "level": 4,
        "pos": "-5929.464,-171856.064",
        "src_id": "181328",
        "weight": "0.0"
      }
    },
    {
      "type": "Feature",
      "id": "31",
      "geometry": {
        "type": "Point",
        "coordinates": [
          -15.569187,
          -38.664612
        ]
      },
      "properties": {
        "label": "Decreased appetite",
        "level": 1,
        "pos": "-13029.89,-146069.501",
        "src_id": "174910",
        "weight": "11634.933333333334"
      }
    },
    {
      "type": "Feature",
      "id": "1636",
      "geometry": {
        "type": "Point",
        "coordinates": [
          -20.196833,
          -48.363689
        ]
      },
      "properties": {
        "label": "Carbon monoxide poisoning",
        "level": 4,
        "pos": "-32689.768,-204362.417",
        "src_id": "172983",
        "weight": "0.0"
      }
    },
    {
      "type": "Feature",
      "id": "1308",
      "geometry": {
        "type": "Point",
        "coordinates": [
          -16.139773,
          -48.604792
        ]
      },
      "properties": {
        "label": "Intentional self-injury",
        "level": 4,
        "pos": "-15453.937,-205942.535",
        "src_id": "179209",
        "weight": "0.0"
      }
    },
    {
      "type": "Feature",
      "id": "1292",
      "geometry": {
        "type": "Point",
        "coordinates": [
          -17.24569,
          -49.031075
        ]
      },
      "properties": {
        "label": "Pain in jaw",
        "level": 4,
        "pos": "-20152.269,-208754.843",
        "src_id": "182633",
        "weight": "0.0"
      }
    },
    {
      "type": "Feature",
      "id": "1427",
      "geometry": {
        "type": "Point",
        "coordinates": [
          -11.983293,
          -25.213803
        ]
      },
      "properties": {
        "label": "Insulin Lispro",
        "level": 3,
        "pos": "2204.26,-76932.867",
        "src_id": "45",
        "weight": "0.0"
      }
    },
    {
      "type": "Feature",
      "id": "333",
      "geometry": {
        "type": "Point",
        "coordinates": [
          -14.608314,
          -20.812773
        ]
      },
      "properties": {
        "label": "Blood insulin",
        "level": 3,
        "pos": "-8947.756,-56154.956",
        "src_id": "172218",
        "weight": "495.91666666666674"
      }
    },
    {
      "type": "Feature",
      "id": "44",
      "geometry": {
        "type": "Point",
        "coordinates": [
          -16.457239,
          -18.589413
        ]
      },
      "properties": {
        "label": "Diabetes mellitus",
        "level": 1,
        "pos": "-16802.65,-45895.472",
        "src_id": "175126",
        "weight": "28232.0"
      }
    },
    {
      "type": "Feature",
      "id": "402",
      "geometry": {
        "type": "Point",
        "coordinates": [
          -13.214795,
          -26.778029
        ]
      },
      "properties": {
        "label": "Glucose",
        "level": 3,
        "pos": "-3027.598,-84493.01199999999",
        "src_id": "8280",
        "weight": "20.0"
      }
    },
    {
      "type": "Feature",
      "id": "1237",
      "geometry": {
        "type": "Point",
        "coordinates": [
          -10.503327,
          -24.178266
        ]
      },
      "properties": {
        "label": "Insulin Aspart",
        "level": 4,
        "pos": "8491.683,-71981.602",
        "src_id": "1280",
        "weight": "0.0"
      }
    },
    {
      "type": "Feature",
      "id": "970",
      "geometry": {
        "type": "Point",
        "coordinates": [
          -11.836398,
          -26.286553
        ]
      },
      "properties": {
        "label": "Hyperglycaemia",
        "level": 4,
        "pos": "2828.32,-82106.73",
        "src_id": "178459",
        "weight": "0.0"
      }
    },
    {
      "type": "Feature",
      "id": "1766",
      "geometry": {
        "type": "Point",
        "coordinates": [
          -20.706348,
          -23.193302
        ]
      },
      "properties": {
        "label": "Insulin Glargine",
        "level": 3,
        "pos": "-34854.366,-67309.305",
        "src_id": "46",
        "weight": "0.0"
      }
    },
    {
      "type": "Feature",
      "id": "9",
      "geometry": {
        "type": "Point",
        "coordinates": [
          -4.655476,
          -19.303467
        ]
      },
      "properties": {
        "label": "Neoplasm malignant",
        "level": 1,
        "pos": "33335.422,-49174.993",
        "src_id": "181636",
        "weight": "89084.91666666667"
      }
    },
    {
      "type": "Feature",
      "id": "162",
      "geometry": {
        "type": "Point",
        "coordinates": [
          -21.452536,
          -22.640713
        ]
      },
      "properties": {
        "label": "Obesity",
        "level": 1,
        "pos": "-38024.438,-64703.15700000001",
        "src_id": "181982",
        "weight": "2027.25"
      }
    },
    {
      "type": "Feature",
      "id": "82",
      "geometry": {
        "type": "Point",
        "coordinates": [
          -27.104614,
          -16.888197
        ]
      },
      "properties": {
        "label": "Impaired gastric emptying",
        "level": 1,
        "pos": "-62036.472,-38136.22",
        "src_id": "178795",
        "weight": "4895.75"
      }
    },
    {
      "type": "Feature",
      "id": "1255",
      "geometry": {
        "type": "Point",
        "coordinates": [
          -19.150051,
          -22.61731
        ]
      },
      "properties": {
        "label": "Metformin",
        "level": 3,
        "pos": "-28242.668999999998,-64593.024999999994",
        "src_id": "321",
        "weight": "1764.0"
      }
    },
    {
      "type": "Feature",
      "id": "1654",
      "geometry": {
        "type": "Point",
        "coordinates": [
          -23.156987,
          -18.011533
        ]
      },
      "properties": {
        "label": "Arteriosclerosis",
        "level": 4,
        "pos": "-45265.551,-43251.441999999995",
        "src_id": "170910",
        "weight": "0.0"
      }
    },
    {
      "type": "Feature",
      "id": "1643",
      "geometry": {
        "type": "Point",
        "coordinates": [
          -23.473742,
          -17.46704
        ]
      },
      "properties": {
        "label": "Blood glucose",
        "level": 4,
        "pos": "-46611.238999999994,-40768.099",
        "src_id": "172153",
        "weight": "0.0"
      }
    },
    {
      "type": "Feature",
      "id": "1323",
      "geometry": {
        "type": "Point",
        "coordinates": [
          -20.997861,
          -23.717896
        ]
      },
      "properties": {
        "label": "Glucose tolerance impaired",
        "level": 4,
        "pos": "-36092.824,-69793.38799999999",
        "src_id": "177436",
        "weight": "0.0"
      }
    },
    {
      "type": "Feature",
      "id": "1557",
      "geometry": {
        "type": "Point",
        "coordinates": [
          -23.038032,
          -19.07726
        ]
      },
      "properties": {
        "label": "Liver injury",
        "level": 4,
        "pos": "-44760.188,-48134.539",
        "src_id": "180088",
        "weight": "0.0"
      }
    },
    {
      "type": "Feature",
      "id": "1513",
      "geometry": {
        "type": "Point",
        "coordinates": [
          -17.684945,
          -24.792799
        ]
      },
      "properties": {
        "label": "Porphyria",
        "level": 4,
        "pos": "-22018.38,-74914.92700000001",
        "src_id": "183819",
        "weight": "0.0"
      }
    },
    {
      "type": "Feature",
      "id": "1467",
      "geometry": {
        "type": "Point",
        "coordinates": [
          -16.870856,
          -24.05087
        ]
      },
      "properties": {
        "label": "Type 1 diabetes mellitus",
        "level": 4,
        "pos": "-18559.843999999997,-71375.284",
        "src_id": "187539",
        "weight": "0.0"
      }
    },
    {
      "type": "Feature",
      "id": "1431",
      "geometry": {
        "type": "Point",
        "coordinates": [
          -15.112179,
          -24.542483
        ]
      },
      "properties": {
        "label": "Vicia",
        "level": 4,
        "pos": "-11088.364,-73718.375",
        "src_id": "240879",
        "weight": "0.0"
      }
    },
    {
      "type": "Feature",
      "id": "615",
      "geometry": {
        "type": "Point",
        "coordinates": [
          -5.933418,
          -26.432344
        ]
      },
      "properties": {
        "label": "Fructose",
        "level": 3,
        "pos": "27906.274,-82813.53199999999",
        "src_id": "3934",
        "weight": "1764.0"
      }
    },
    {
      "type": "Feature",
      "id": "413",
      "geometry": {
        "type": "Point",
        "coordinates": [
          -6.876823,
          -25.892078
        ]
      },
      "properties": {
        "label": "Drug tolerance",
        "level": 3,
        "pos": "23898.353,-80198.744",
        "src_id": "175408",
        "weight": "0.0"
      }
    },
    {
      "type": "Feature",
      "id": "1400",
      "geometry": {
        "type": "Point",
        "coordinates": [
          -8.669616,
          -26.022884
        ]
      },
      "properties": {
        "label": "Maltose",
        "level": 4,
        "pos": "16281.929000000002,-80830.709",
        "src_id": "3139",
        "weight": "0.0"
      }
    },
    {
      "type": "Feature",
      "id": "961",
      "geometry": {
        "type": "Point",
        "coordinates": [
          -6.707019,
          -28.466914
        ]
      },
      "properties": {
        "label": "Metabolic syndrome",
        "level": 4,
        "pos": "24619.738999999998,-92773.67599999999",
        "src_id": "180825",
        "weight": "0.0"
      }
    },
    {
      "type": "Feature",
      "id": "1224",
      "geometry": {
        "type": "Point",
        "coordinates": [
          -8.644894,
          -23.642178
        ]
      },
      "properties": {
        "label": "Insulin Degludec",
        "level": 4,
        "pos": "16386.96,-69434.228",
        "src_id": "8370",
        "weight": "0.0"
      }
    },
    {
      "type": "Feature",
      "id": "1759",
      "geometry": {
        "type": "Point",
        "coordinates": [
          1.760966,
          -18.255093
        ]
      },
      "properties": {
        "label": "Pyrimethamine",
        "level": 3,
        "pos": "60594.738,-44364.747",
        "src_id": "196",
        "weight": "0.0"
      }
    },
    {
      "type": "Feature",
      "id": "88",
      "geometry": {
        "type": "Point",
        "coordinates": [
          1.446395,
          -22.910974
        ]
      },
      "properties": {
        "label": "Childhood",
        "level": 2,
        "pos": "59258.331,-65976.45",
        "src_id": "173551",
        "weight": "1808.0"
      }
    },
    {
      "type": "Feature",
      "id": "348",
      "geometry": {
        "type": "Point",
        "coordinates": [
          -5.66756,
          -12.740835
        ]
      },
      "properties": {
        "label": "Chemotherapy",
        "level": 1,
        "pos": "29035.733,-19496.154000000002",
        "src_id": "173517",
        "weight": "0.0"
      }
    },
    {
      "type": "Feature",
      "id": "1744",
      "geometry": {
        "type": "Point",
        "coordinates": [
          1.681041,
          -18.759548
        ]
      },
      "properties": {
        "label": "Cisplatin",
        "level": 3,
        "pos": "60255.195,-46675.604",
        "src_id": "502",
        "weight": "0.0"
      }
    },
    {
      "type": "Feature",
      "id": "1725",
      "geometry": {
        "type": "Point",
        "coordinates": [
          5.724849,
          -19.817399
        ]
      },
      "properties": {
        "label": "Doxorubicin",
        "level": 4,
        "pos": "77434.71800000001,-51544.227",
        "src_id": "983",
        "weight": "0.0"
      }
    },
    {
      "type": "Feature",
      "id": "1704",
      "geometry": {
        "type": "Point",
        "coordinates": [
          3.278971,
          -21.361683
        ]
      },
      "properties": {
        "label": "Ellagic Acid",
        "level": 4,
        "pos": "67043.76000000001,-58710.549999999996",
        "src_id": "7816",
        "weight": "0.0"
      }
    },
    {
      "type": "Feature",
      "id": "1380",
      "geometry": {
        "type": "Point",
        "coordinates": [
          -0.337482,
          -24.061195
        ]
      },
      "properties": {
        "label": "Ammonia",
        "level": 4,
        "pos": "51679.794,-71424.398",
        "src_id": "9063",
        "weight": "0.0"
      }
    },
    {
      "type": "Feature",
      "id": "1667",
      "geometry": {
        "type": "Point",
        "coordinates": [
          3.154821,
          -21.907492
        ]
      },
      "properties": {
        "label": "Acute lymphocytic leukaemia",
        "level": 4,
        "pos": "66516.32800000001,-61261.223",
        "src_id": "169754",
        "weight": "0.0"
      }
    },
    {
      "type": "Feature",
      "id": "1656",
      "geometry": {
        "type": "Point",
        "coordinates": [
          1.195164,
          -19.839852
        ]
      },
      "properties": {
        "label": "Apoptosis",
        "level": 4,
        "pos": "58191.015,-51647.915",
        "src_id": "170769",
        "weight": "0.0"
      }
    },
    {
      "type": "Feature",
      "id": "1207",
      "geometry": {
        "type": "Point",
        "coordinates": [
          -0.230862,
          -22.0253
        ]
      },
      "properties": {
        "label": "Bereavement",
        "level": 4,
        "pos": "52132.75,-61813.032999999996",
        "src_id": "171426",
        "weight": "0.0"
      }
    },
    {
      "type": "Feature",
      "id": "1078",
      "geometry": {
        "type": "Point",
        "coordinates": [
          2.877168,
          -22.412245
        ]
      },
      "properties": {
        "label": "Bone neoplasm malignant",
        "level": 4,
        "pos": "65336.761999999995,-63628.734000000004",
        "src_id": "172521",
        "weight": "0.0"
      }
    },
    {
      "type": "Feature",
      "id": "1635",
      "geometry": {
        "type": "Point",
        "coordinates": [
          0.628617,
          -16.120577
        ]
      },
      "properties": {
        "label": "Cell death",
        "level": 4,
        "pos": "55784.121,-34658.388",
        "src_id": "173279",
        "weight": "0.0"
      }
    },
    {
      "type": "Feature",
      "id": "1626",
      "geometry": {
        "type": "Point",
        "coordinates": [
          0.242795,
          -16.632861
        ]
      },
      "properties": {
        "label": "Colorectal cancer",
        "level": 4,
        "pos": "54145.011,-36977.844",
        "src_id": "173947",
        "weight": "0.0"
      }
    },
    {
      "type": "Feature",
      "id": "1617",
      "geometry": {
        "type": "Point",
        "coordinates": [
          -1.093457,
          -19.327017
        ]
      },
      "properties": {
        "label": "Economic problem",
        "level": 4,
        "pos": "48468.144,-49283.389",
        "src_id": "175590",
        "weight": "0.0"
      }
    },
    {
      "type": "Feature",
      "id": "1598",
      "geometry": {
        "type": "Point",
        "coordinates": [
          2.571838,
          -19.316507
        ]
      },
      "properties": {
        "label": "Gastrointestinal carcinoma",
        "level": 4,
        "pos": "64039.609,-49235.014",
        "src_id": "177182",
        "weight": "0.0"
      }
    },
    {
      "type": "Feature",
      "id": "1596",
      "geometry": {
        "type": "Point",
        "coordinates": [
          0.36162,
          -18.760457
        ]
      },
      "properties": {
        "label": "Glioma",
        "level": 4,
        "pos": "54649.822,-46679.766",
        "src_id": "177386",
        "weight": "0.0"
      }
    },
    {
      "type": "Feature",
      "id": "1595",
      "geometry": {
        "type": "Point",
        "coordinates": [
          -0.475239,
          -20.359786
        ]
      },
      "properties": {
        "label": "Glossectomy",
        "level": 4,
        "pos": "51094.549,-54052.971",
        "src_id": "177419",
        "weight": "0.0"
      }
    },
    {
      "type": "Feature",
      "id": "1583",
      "geometry": {
        "type": "Point",
        "coordinates": [
          0.770922,
          -20.876209
        ]
      },
      "properties": {
        "label": "Hodgkin's disease",
        "level": 4,
        "pos": "56388.68,-56449.82",
        "src_id": "178228",
        "weight": "0.0"
      }
    },
    {
      "type": "Feature",
      "id": "1138",
      "geometry": {
        "type": "Point",
        "coordinates": [
          3.849321,
          -17.684021
        ]
      },
      "properties": {
        "label": "Squamous cell carcinoma",
        "level": 4,
        "pos": "69466.81,-41756.806",
        "src_id": "186342",
        "weight": "0.0"
      }
    },
    {
      "type": "Feature",
      "id": "1549",
      "geometry": {
        "type": "Point",
        "coordinates": [
          -0.166248,
          -21.43634
        ]
      },
      "properties": {
        "label": "Mesothelioma",
        "level": 4,
        "pos": "52407.245,-59058.872",
        "src_id": "180809",
        "weight": "0.0"
      }
    },
    {
      "type": "Feature",
      "id": "1301",
      "geometry": {
        "type": "Point",
        "coordinates": [
          -0.154067,
          -23.342046
        ]
      },
      "properties": {
        "label": "Metastasis",
        "level": 4,
        "pos": "52459.005,-68012.643",
        "src_id": "180907",
        "weight": "0.0"
      }
    },
    {
      "type": "Feature",
      "id": "1534",
      "geometry": {
        "type": "Point",
        "coordinates": [
          4.092766,
          -20.825159
        ]
      },
      "properties": {
        "label": "Non-Hodgkin's lymphoma",
        "level": 4,
        "pos": "70501.053,-56212.524000000005",
        "src_id": "181884",
        "weight": "0.0"
      }
    },
    {
      "type": "Feature",
      "id": "1532",
      "geometry": {
        "type": "Point",
        "coordinates": [
          3.778717,
          -20.32818
        ]
      },
      "properties": {
        "label": "Oesophageal carcinoma",
        "level": 4,
        "pos": "69166.859,-53906.542",
        "src_id": "182083",
        "weight": "0.0"
      }
    },
    {
      "type": "Feature",
      "id": "1529",
      "geometry": {
        "type": "Point",
        "coordinates": [
          1.105531,
          -15.554927
        ]
      },
      "properties": {
        "label": "Organ failure",
        "level": 4,
        "pos": "57810.22,-32104.263000000003",
        "src_id": "182351",
        "weight": "0.0"
      }
    },
    {
      "type": "Feature",
      "id": "1512",
      "geometry": {
        "type": "Point",
        "coordinates": [
          1.653179,
          -17.167503
        ]
      },
      "properties": {
        "label": "Positron emission tomogram",
        "level": 4,
        "pos": "60136.819,-39405.144",
        "src_id": "183853",
        "weight": "0.0"
      }
    },
    {
      "type": "Feature",
      "id": "1495",
      "geometry": {
        "type": "Point",
        "coordinates": [
          4.280342,
          -18.258845
        ]
      },
      "properties": {
        "label": "Rhabdomyosarcoma",
        "level": 4,
        "pos": "71297.94499999999,-44381.907",
        "src_id": "185324",
        "weight": "0.0"
      }
    },
    {
      "type": "Feature",
      "id": "1492",
      "geometry": {
        "type": "Point",
        "coordinates": [
          4.600193,
          -18.797602
        ]
      },
      "properties": {
        "label": "Sarcoma",
        "level": 4,
        "pos": "72656.776,-46850.205",
        "src_id": "185514",
        "weight": "0.0"
      }
    },
    {
      "type": "Feature",
      "id": "1473",
      "geometry": {
        "type": "Point",
        "coordinates": [
          0.435943,
          -17.749526
        ]
      },
      "properties": {
        "label": "Thyroid cancer",
        "level": 4,
        "pos": "54965.572,-42055.529",
        "src_id": "187010",
        "weight": "0.0"
      }
    },
    {
      "type": "Feature",
      "id": "17",
      "geometry": {
        "type": "Point",
        "coordinates": [
          -19.146276,
          -28.181377
        ]
      },
      "properties": {
        "label": "Exercise adequate",
        "level": 1,
        "pos": "-28226.631999999998,-91364.625",
        "src_id": "176259",
        "weight": "11876.566666666675"
      }
    },
    {
      "type": "Feature",
      "id": "206",
      "geometry": {
        "type": "Point",
        "coordinates": [
          -24.57136,
          -25.574213
        ]
      },
      "properties": {
        "label": "Overweight",
        "level": 3,
        "pos": "-51274.305,-78665.932",
        "src_id": "182592",
        "weight": "5.0"
      }
    },
    {
      "type": "Feature",
      "id": "26",
      "geometry": {
        "type": "Point",
        "coordinates": [
          -36.041724,
          -15.272155
        ]
      },
      "properties": {
        "label": "Nausea",
        "level": 2,
        "pos": "-100004.48,-30830.079999999998",
        "src_id": "181546",
        "weight": "9914.683333333332"
      }
    },
    {
      "type": "Feature",
      "id": "87",
      "geometry": {
        "type": "Point",
        "coordinates": [
          -33.460951,
          -19.610376
        ]
      },
      "properties": {
        "label": "Autonomic nervous system imbalance",
        "level": 1,
        "pos": "-89040.44,-50588.939000000006",
        "src_id": "171159",
        "weight": "8970.916666666666"
      }
    },
    {
      "type": "Feature",
      "id": "32",
      "geometry": {
        "type": "Point",
        "coordinates": [
          -34.043692,
          -16.987593
        ]
      },
      "properties": {
        "label": "Migraine",
        "level": 1,
        "pos": "-91516.128,-38587.573",
        "src_id": "180996",
        "weight": "12622.800000000001"
      }
    },
    {
      "type": "Feature",
      "id": "153",
      "geometry": {
        "type": "Point",
        "coordinates": [
          -30.587429,
          -22.139357
        ]
      },
      "properties": {
        "label": "Syncope",
        "level": 3,
        "pos": "-76832.705,-62347.709",
        "src_id": "186636",
        "weight": "49.0"
      }
    },
    {
      "type": "Feature",
      "id": "1338",
      "geometry": {
        "type": "Point",
        "coordinates": [
          -33.594379,
          -19.051207
        ]
      },
      "properties": {
        "label": "Enteral nutrition",
        "level": 4,
        "pos": "-89607.29000000001,-48014.8",
        "src_id": "175965",
        "weight": "0.0"
      }
    },
    {
      "type": "Feature",
      "id": "1151",
      "geometry": {
        "type": "Point",
        "coordinates": [
          -31.069865,
          -17.182157
        ]
      },
      "properties": {
        "label": "Pyloroplasty",
        "level": 4,
        "pos": "-78882.26400000001,-39471.77099999999",
        "src_id": "184643",
        "weight": "0.0"
      }
    },
    {
      "type": "Feature",
      "id": "1720",
      "geometry": {
        "type": "Point",
        "coordinates": [
          -17.483312,
          -22.47465
        ]
      },
      "properties": {
        "label": "Sitagliptin",
        "level": 3,
        "pos": "-21161.769,-63922.034",
        "src_id": "1244",
        "weight": "0.0"
      }
    },
    {
      "type": "Feature",
      "id": "1713",
      "geometry": {
        "type": "Point",
        "coordinates": [
          -1.734604,
          -29.183799
        ]
      },
      "properties": {
        "label": "Sucrose",
        "level": 4,
        "pos": "45744.323000000004,-96328.27399999999",
        "src_id": "2619",
        "weight": "0.0"
      }
    },
    {
      "type": "Feature",
      "id": "171",
      "geometry": {
        "type": "Point",
        "coordinates": [
          7.255054,
          -26.876698
        ]
      },
      "properties": {
        "label": "Flashback",
        "level": 3,
        "pos": "83935.573,-84973.318",
        "src_id": "176739",
        "weight": "0.0"
      }
    },
    {
      "type": "Feature",
      "id": "823",
      "geometry": {
        "type": "Point",
        "coordinates": [
          7.354389,
          -26.392016
        ]
      },
      "properties": {
        "label": "Sepia",
        "level": 4,
        "pos": "84357.57800000001,-82617.932",
        "src_id": "240755",
        "weight": "0.0"
      }
    },
    {
      "type": "Feature",
      "id": "667",
      "geometry": {
        "type": "Point",
        "coordinates": [
          7.72292,
          -25.885314
        ]
      },
      "properties": {
        "label": "Flounder",
        "level": 4,
        "pos": "85923.229,-80166.076",
        "src_id": "8601",
        "weight": "0.0"
      }
    },
    {
      "type": "Feature",
      "id": "1629",
      "geometry": {
        "type": "Point",
        "coordinates": [
          8.001825,
          -24.671471
        ]
      },
      "properties": {
        "label": "Clang associations",
        "level": 4,
        "pos": "87108.117,-74334.65599999999",
        "src_id": "173773",
        "weight": "0.0"
      }
    },
    {
      "type": "Feature",
      "id": "1296",
      "geometry": {
        "type": "Point",
        "coordinates": [
          7.903366,
          -25.17022
        ]
      },
      "properties": {
        "label": "Neuroblastoma",
        "level": 4,
        "pos": "86689.832,-76723.64899999999",
        "src_id": "181713",
        "weight": "0.0"
      }
    },
    {
      "type": "Feature",
      "id": "884",
      "geometry": {
        "type": "Point",
        "coordinates": [
          -6.329807,
          -15.725712
        ]
      },
      "properties": {
        "label": "Radiotherapy",
        "level": 4,
        "pos": "26222.266,-32874.667",
        "src_id": "184752",
        "weight": "0.0"
      }
    },
    {
      "type": "Feature",
      "id": "1363",
      "geometry": {
        "type": "Point",
        "coordinates": [
          -6.898079,
          -17.941846
        ]
      },
      "properties": {
        "label": "Bone sarcoma",
        "level": 4,
        "pos": "23808.052,-42933.187",
        "src_id": "172526",
        "weight": "0.0"
      }
    },
    {
      "type": "Feature",
      "id": "1175",
      "geometry": {
        "type": "Point",
        "coordinates": [
          9.13622,
          -20.268373
        ]
      },
      "properties": {
        "label": "Lip and/or oral cavity cancer",
        "level": 4,
        "pos": "91927.43400000001,-53629.544",
        "src_id": "179997",
        "weight": "0.0"
      }
    },
    {
      "type": "Feature",
      "id": "6",
      "geometry": {
        "type": "Point",
        "coordinates": [
          -15.314705,
          -33.148493
        ]
      },
      "properties": {
        "label": "Weight",
        "level": 1,
        "pos": "-11948.762,-116462.678",
        "src_id": "188818",
        "weight": "70261.43333333332"
      }
    },
    {
      "type": "Feature",
      "id": "24",
      "geometry": {
        "type": "Point",
        "coordinates": [
          -11.420383,
          -27.866258
        ]
      },
      "properties": {
        "label": "Thermal burn",
        "level": 2,
        "pos": "4595.702,-89813.939",
        "src_id": "186899",
        "weight": "8961.916666666668"
      }
    },
    {
      "type": "Feature",
      "id": "164",
      "geometry": {
        "type": "Point",
        "coordinates": [
          -13.800163,
          -31.061655
        ]
      },
      "properties": {
        "label": "Hyperhidrosis",
        "level": 2,
        "pos": "-5514.454,-105759.929",
        "src_id": "178464",
        "weight": "1774.0"
      }
    },
    {
      "type": "Feature",
      "id": "1346",
      "geometry": {
        "type": "Point",
        "coordinates": [
          -20.048854,
          -33.245149
        ]
      },
      "properties": {
        "label": "Dependence",
        "level": 4,
        "pos": "-32061.096999999998,-116964.44499999999",
        "src_id": "175013",
        "weight": "0.0"
      }
    },
    {
      "type": "Feature",
      "id": "1612",
      "geometry": {
        "type": "Point",
        "coordinates": [
          -23.172454,
          -28.750043
        ]
      },
      "properties": {
        "label": "Exercise lack of",
        "level": 4,
        "pos": "-45331.259000000005,-94174.625",
        "src_id": "176263",
        "weight": "0.0"
      }
    },
    {
      "type": "Feature",
      "id": "1574",
      "geometry": {
        "type": "Point",
        "coordinates": [
          -21.955705,
          -33.250769
        ]
      },
      "properties": {
        "label": "Impatience",
        "level": 4,
        "pos": "-40162.081,-116993.631",
        "src_id": "178801",
        "weight": "0.0"
      }
    },
    {
      "type": "Feature",
      "id": "1267",
      "geometry": {
        "type": "Point",
        "coordinates": [
          -15.271811,
          -31.955359
        ]
      },
      "properties": {
        "label": "Hoodia",
        "level": 4,
        "pos": "-11766.532,-110313.586",
        "src_id": "239827",
        "weight": "0.0"
      }
    },
    {
      "type": "Feature",
      "id": "69",
      "geometry": {
        "type": "Point",
        "coordinates": [
          -44.210142,
          -14.054269
        ]
      },
      "properties": {
        "label": "Dizziness",
        "level": 2,
        "pos": "-134706.807,-25361.409",
        "src_id": "175317",
        "weight": "2392.0"
      }
    },
    {
      "type": "Feature",
      "id": "1374",
      "geometry": {
        "type": "Point",
        "coordinates": [
          -42.146288,
          -14.11248
        ]
      },
      "properties": {
        "label": "Aphagia",
        "level": 4,
        "pos": "-125938.833,-25622.11",
        "src_id": "170723",
        "weight": "0.0"
      }
    },
    {
      "type": "Feature",
      "id": "1360",
      "geometry": {
        "type": "Point",
        "coordinates": [
          -42.656928,
          -13.516955
        ]
      },
      "properties": {
        "label": "Burning sensation",
        "level": 4,
        "pos": "-128108.21100000001,-22958.100000000002",
        "src_id": "172834",
        "weight": "0.0"
      }
    },
    {
      "type": "Feature",
      "id": "1622",
      "geometry": {
        "type": "Point",
        "coordinates": [
          -44.106796,
          -14.640269
        ]
      },
      "properties": {
        "label": "Disorientation",
        "level": 4,
        "pos": "-134267.755,-27988.928",
        "src_id": "175277",
        "weight": "0.0"
      }
    },
    {
      "type": "Feature",
      "id": "1609",
      "geometry": {
        "type": "Point",
        "coordinates": [
          -41.628949,
          -14.791108
        ]
      },
      "properties": {
        "label": "Eye irritation",
        "level": 4,
        "pos": "-123740.985,-28666.388000000003",
        "src_id": "176416",
        "weight": "0.0"
      }
    },
    {
      "type": "Feature",
      "id": "173",
      "geometry": {
        "type": "Point",
        "coordinates": [
          -40.021395,
          -21.685106
        ]
      },
      "properties": {
        "label": "Tachycardia",
        "level": 3,
        "pos": "-116911.53199999999,-60220.799",
        "src_id": "186706",
        "weight": "1764.0"
      }
    },
    {
      "type": "Feature",
      "id": "1754",
      "geometry": {
        "type": "Point",
        "coordinates": [
          -32.948644,
          -24.174236
        ]
      },
      "properties": {
        "label": "Theophylline",
        "level": 3,
        "pos": "-86863.979,-71962.41",
        "src_id": "268",
        "weight": "0.0"
      }
    },
    {
      "type": "Feature",
      "id": "516",
      "geometry": {
        "type": "Point",
        "coordinates": [
          -32.976599,
          -20.141134
        ]
      },
      "properties": {
        "label": "Raynaud's phenomenon",
        "level": 3,
        "pos": "-86982.745,-53040.583",
        "src_id": "184805",
        "weight": "329.5"
      }
    },
    {
      "type": "Feature",
      "id": "256",
      "geometry": {
        "type": "Point",
        "coordinates": [
          -39.990147,
          -18.499136
        ]
      },
      "properties": {
        "label": "Costochondritis",
        "level": 3,
        "pos": "-116778.778,-45481.835",
        "src_id": "174490",
        "weight": "0.0"
      }
    },
    {
      "type": "Feature",
      "id": "1405",
      "geometry": {
        "type": "Point",
        "coordinates": [
          -41.066555,
          -16.18083
        ]
      },
      "properties": {
        "label": "Metoclopramide",
        "level": 4,
        "pos": "-121351.742,-34930.880000000005",
        "src_id": "1217",
        "weight": "0.0"
      }
    },
    {
      "type": "Feature",
      "id": "1522",
      "geometry": {
        "type": "Point",
        "coordinates": [
          -40.972391,
          -17.637737
        ]
      },
      "properties": {
        "label": "Photophobia",
        "level": 4,
        "pos": "-120951.69900000001,-41545.813",
        "src_id": "183449",
        "weight": "0.0"
      }
    },
    {
      "type": "Feature",
      "id": "579",
      "geometry": {
        "type": "Point",
        "coordinates": [
          -25.483445,
          -26.351243
        ]
      },
      "properties": {
        "label": "Hypoglycaemia",
        "level": 4,
        "pos": "-55149.169,-82420.24100000001",
        "src_id": "178590",
        "weight": "0.0"
      }
    },
    {
      "type": "Feature",
      "id": "1152",
      "geometry": {
        "type": "Point",
        "coordinates": [
          -26.063536,
          -24.933719
        ]
      },
      "properties": {
        "label": "Postural orthostatic tachycardia syndrome",
        "level": 4,
        "pos": "-57613.598000000005,-75589.61200000001",
        "src_id": "183964",
        "weight": "0.0"
      }
    },
    {
      "type": "Feature",
      "id": "1294",
      "geometry": {
        "type": "Point",
        "coordinates": [
          -29.17945,
          -28.180271
        ]
      },
      "properties": {
        "label": "Orthostatic intolerance",
        "level": 4,
        "pos": "-70851.106,-91359.173",
        "src_id": "182399",
        "weight": "0.0"
      }
    },
    {
      "type": "Feature",
      "id": "609",
      "geometry": {
        "type": "Point",
        "coordinates": [
          -29.798469,
          33.575229
        ]
      },
      "properties": {
        "label": "Breath odour",
        "level": 2,
        "pos": "-73480.921,191304.821",
        "src_id": "172706",
        "weight": "0.0"
      }
    },
    {
      "type": "Feature",
      "id": "1134",
      "geometry": {
        "type": "Point",
        "coordinates": [
          -29.265592,
          33.040814
        ]
      },
      "properties": {
        "label": "Tonsillectomy",
        "level": 3,
        "pos": "-71217.072,188527.02",
        "src_id": "187153",
        "weight": "1764.0"
      }
    },
    {
      "type": "Feature",
      "id": "1309",
      "geometry": {
        "type": "Point",
        "coordinates": [
          -28.704511,
          35.746718
        ]
      },
      "properties": {
        "label": "Infectious mononucleosis",
        "level": 4,
        "pos": "-68833.399,202774.244",
        "src_id": "178967",
        "weight": "0.0"
      }
    },
    {
      "type": "Feature",
      "id": "377",
      "geometry": {
        "type": "Point",
        "coordinates": [
          -31.728066,
          26.659535
        ]
      },
      "properties": {
        "label": "Elderly",
        "level": 4,
        "pos": "-81678.531,156539.421",
        "src_id": "175648",
        "weight": "0.0"
      }
    },
    {
      "type": "Feature",
      "id": "795",
      "geometry": {
        "type": "Point",
        "coordinates": [
          -33.2712,
          22.707324
        ]
      },
      "properties": {
        "label": "Poliomyelitis",
        "level": 1,
        "pos": "-88234.31,137639.42700000003",
        "src_id": "183747",
        "weight": "1764.0"
      }
    },
    {
      "type": "Feature",
      "id": "974",
      "geometry": {
        "type": "Point",
        "coordinates": [
          -30.293155,
          22.239341
        ]
      },
      "properties": {
        "label": "Hepatitis A",
        "level": 1,
        "pos": "-75582.51699999999,135439.452",
        "src_id": "177930",
        "weight": "0.0"
      }
    },
    {
      "type": "Feature",
      "id": "675",
      "geometry": {
        "type": "Point",
        "coordinates": [
          -54.108622,
          -51.047793
        ]
      },
      "properties": {
        "label": "Infliximab",
        "level": 2,
        "pos": "-176759.063,-222397.717",
        "src_id": "63",
        "weight": "0.0"
      }
    },
    {
      "type": "Feature",
      "id": "240",
      "geometry": {
        "type": "Point",
        "coordinates": [
          -57.581854,
          -53.617093
        ]
      },
      "properties": {
        "label": "Prednisone",
        "level": 2,
        "pos": "-191514.576,-240668.691",
        "src_id": "622",
        "weight": "1764.0"
      }
    },
    {
      "type": "Feature",
      "id": "446",
      "geometry": {
        "type": "Point",
        "coordinates": [
          -51.976841,
          -52.196755
        ]
      },
      "properties": {
        "label": "Methotrexate",
        "level": 2,
        "pos": "-167702.498,-230437.423",
        "src_id": "550",
        "weight": "0.0"
      }
    },
    {
      "type": "Feature",
      "id": "616",
      "geometry": {
        "type": "Point",
        "coordinates": [
          -49.277155,
          -49.491188
        ]
      },
      "properties": {
        "label": "Prednisolone",
        "level": 2,
        "pos": "-156233.27800000002,-211817.495",
        "src_id": "846",
        "weight": "0.0"
      }
    },
    {
      "type": "Feature",
      "id": "222",
      "geometry": {
        "type": "Point",
        "coordinates": [
          -58.097249,
          -53.938504
        ]
      },
      "properties": {
        "label": "Infusion",
        "level": 2,
        "pos": "-193704.164,-243031.457",
        "src_id": "179021",
        "weight": "3543.25"
      }
    },
    {
      "type": "Feature",
      "id": "1254",
      "geometry": {
        "type": "Point",
        "coordinates": [
          -49.784488,
          -54.209876
        ]
      },
      "properties": {
        "label": "Ipratropium bromide",
        "level": 2,
        "pos": "-158388.61,-245040.592",
        "src_id": "322",
        "weight": "0.0"
      }
    },
    {
      "type": "Feature",
      "id": "1351",
      "geometry": {
        "type": "Point",
        "coordinates": [
          -55.898863,
          -53.557271
        ]
      },
      "properties": {
        "label": "Cushingoid",
        "level": 4,
        "pos": "-184364.636,-240230.913",
        "src_id": "174732",
        "weight": "0.0"
      }
    },
    {
      "type": "Feature",
      "id": "1060",
      "geometry": {
        "type": "Point",
        "coordinates": [
          -54.924632,
          -52.767033
        ]
      },
      "properties": {
        "label": "Immunodeficiency",
        "level": 4,
        "pos": "-180225.76200000002,-234505.174",
        "src_id": "178769",
        "weight": "0.0"
      }
    },
    {
      "type": "Feature",
      "id": "588",
      "geometry": {
        "type": "Point",
        "coordinates": [
          -46.25986,
          -54.471743
        ]
      },
      "properties": {
        "label": "Polymyositis",
        "level": 2,
        "pos": "-143414.738,-246991.906",
        "src_id": "183780",
        "weight": "0.0"
      }
    },
    {
      "type": "Feature",
      "id": "1122",
      "geometry": {
        "type": "Point",
        "coordinates": [
          -49.006888,
          -51.318647
        ]
      },
      "properties": {
        "label": "Mesalazine",
        "level": 3,
        "pos": "-155085.089,-224274.75400000002",
        "src_id": "235",
        "weight": "0.0"
      }
    },
    {
      "type": "Feature",
      "id": "518",
      "geometry": {
        "type": "Point",
        "coordinates": [
          -46.771536,
          -49.060287
        ]
      },
      "properties": {
        "label": "Encephalitis",
        "level": 2,
        "pos": "-145588.516,-208948.437",
        "src_id": "175799",
        "weight": "1764.0"
      }
    },
    {
      "type": "Feature",
      "id": "880",
      "geometry": {
        "type": "Point",
        "coordinates": [
          -49.027393,
          -52.205418
        ]
      },
      "properties": {
        "label": "Vasculitis",
        "level": 4,
        "pos": "-155172.2,-230498.82400000002",
        "src_id": "188335",
        "weight": "0.0"
      }
    },
    {
      "type": "Feature",
      "id": "1764",
      "geometry": {
        "type": "Point",
        "coordinates": [
          -54.362522,
          -56.175998
        ]
      },
      "properties": {
        "label": "Rituximab",
        "level": 3,
        "pos": "-177837.717,-260006.74800000002",
        "src_id": "71",
        "weight": "0.0"
      }
    },
    {
      "type": "Feature",
      "id": "355",
      "geometry": {
        "type": "Point",
        "coordinates": [
          -59.200546,
          -54.524819
        ]
      },
      "properties": {
        "label": "Ketamine",
        "level": 3,
        "pos": "-198391.356,-247388.92799999999",
        "src_id": "1205",
        "weight": "0.0"
      }
    },
    {
      "type": "Feature",
      "id": "457",
      "geometry": {
        "type": "Point",
        "coordinates": [
          -52.634844,
          -54.415758
        ]
      },
      "properties": {
        "label": "Sodium Chloride",
        "level": 2,
        "pos": "-170497.929,-246573.69",
        "src_id": "8096",
        "weight": "3387.0"
      }
    },
    {
      "type": "Feature",
      "id": "1703",
      "geometry": {
        "type": "Point",
        "coordinates": [
          -55.341191,
          -55.74512
        ]
      },
      "properties": {
        "label": "Belimumab",
        "level": 4,
        "pos": "-181995.453,-256662.94900000002",
        "src_id": "7838",
        "weight": "0.0"
      }
    },