{
  "type": "FeatureCollection",
  "features": [
    {
      "type": "Feature",
      "id": "730",
      "geometry": {
        "type": "Point",
        "coordinates": [
          -23.615017,
          21.920698
        ]
      },
      "properties": {
        "label": "Etanercept",
        "level": 3,
        "pos": "-70078.41500000001,160498.71600000001",
        "src_id": "5",
        "weight": "3568.0"
      }
    },
    {
      "type": "Feature",
      "id": "649",
      "geometry": {
        "type": "Point",
        "coordinates": [
          -26.860799,
          25.095006
        ]
      },
      "properties": {
        "label": "Water",
        "level": 3,
        "pos": "-83850.97,175195.49599999998",
        "src_id": "8089",
        "weight": "1785.0"
      }
    },
    {
      "type": "Feature",
      "id": "63",
      "geometry": {
        "type": "Point",
        "coordinates": [
          -17.469455,
          18.149815
        ]
      },
      "properties": {
        "label": "Injection",
        "level": 2,
        "pos": "-44001.477,143456.64800000002",
        "src_id": "179084",
        "weight": "14248.0"
      }
    },
    {
      "type": "Feature",
      "id": "1783",
      "geometry": {
        "type": "Point",
        "coordinates": [
          -25.469352,
          24.464141
        ]
      },
      "properties": {
        "label": "Interferon beta-1a",
        "level": 3,
        "pos": "-77946.763,172245.93899999998",
        "src_id": "59",
        "weight": "0.0"
      }
    },
    {
      "type": "Feature",
      "id": "260",
      "geometry": {
        "type": "Point",
        "coordinates": [
          -10.153823,
          16.990781
        ]
      },
      "properties": {
        "label": "Adalimumab",
        "level": 2,
        "pos": "-12959.683,138295.79200000002",
        "src_id": "50",
        "weight": "21317.0"
      }
    },
    {
      "type": "Feature",
      "id": "694",
      "geometry": {
        "type": "Point",
        "coordinates": [
          -21.931367,
          23.494795
        ]
      },
      "properties": {
        "label": "Hydrocortisone",
        "level": 3,
        "pos": "-62934.331999999995,167742.386",
        "src_id": "727",
        "weight": "1785.0"
      }
    },
    {
      "type": "Feature",
      "id": "1668",
      "geometry": {
        "type": "Point",
        "coordinates": [
          -15.586055,
          22.314862
        ]
      },
      "properties": {
        "label": "Enoxaparin",
        "level": 4,
        "pos": "-36009.813,162304.82499999998",
        "src_id": "1209",
        "weight": "0.0"
      }
    },
    {
      "type": "Feature",
      "id": "1635",
      "geometry": {
        "type": "Point",
        "coordinates": [
          -24.091889,
          21.341917
        ]
      },
      "properties": {
        "label": "Glatiramer Acetate",
        "level": 4,
        "pos": "-72101.889,157855.705",
        "src_id": "4930",
        "weight": "0.0"
      }
    },
    {
      "type": "Feature",
      "id": "1617",
      "geometry": {
        "type": "Point",
        "coordinates": [
          -21.063956,
          22.181577
        ]
      },
      "properties": {
        "label": "Hyaluronic acid",
        "level": 4,
        "pos": "-59253.72,161693.527",
        "src_id": "7794",
        "weight": "0.0"
      }
    },
    {
      "type": "Feature",
      "id": "1628",
      "geometry": {
        "type": "Point",
        "coordinates": [
          -13.651312,
          19.877316
        ]
      },
      "properties": {
        "label": "Tocilizumab",
        "level": 3,
        "pos": "-27800.284,151213.27",
        "src_id": "5528",
        "weight": "0.0"
      }
    },
    {
      "type": "Feature",
      "id": "558",
      "geometry": {
        "type": "Point",
        "coordinates": [
          -12.312111,
          16.657761
        ]
      },
      "properties": {
        "label": "Crohn's disease",
        "level": 3,
        "pos": "-22117.757,136818.934",
        "src_id": "174559",
        "weight": "1785.0"
      }
    },
    {
      "type": "Feature",
      "id": "110",
      "geometry": {
        "type": "Point",
        "coordinates": [
          -5.956988,
          20.984483
        ]
      },
      "properties": {
        "label": "Varicella",
        "level": 1,
        "pos": "4848.387,156228.694",
        "src_id": "188263",
        "weight": "74321.0"
      }
    },
    {
      "type": "Feature",
      "id": "1647",
      "geometry": {
        "type": "Point",
        "coordinates": [
          -22.874925,
          25.316465
        ]
      },
      "properties": {
        "label": "Phenol",
        "level": 3,
        "pos": "-66938.053,176234.497",
        "src_id": "3075",
        "weight": "0.0"
      }
    },
    {
      "type": "Feature",
      "id": "1329",
      "geometry": {
        "type": "Point",
        "coordinates": [
          -17.400491,
          17.404006
        ]
      },
      "properties": {
        "label": "Colitis ulcerative",
        "level": 4,
        "pos": "-43708.852,140131.988",
        "src_id": "173909",
        "weight": "0.0"
      }
    },
    {
      "type": "Feature",
      "id": "111",
      "geometry": {
        "type": "Point",
        "coordinates": [
          -8.310051,
          19.412203
        ]
      },
      "properties": {
        "label": "Tonsillitis",
        "level": 1,
        "pos": "-5136.158,149116.88",
        "src_id": "187154",
        "weight": "72860.0"
      }
    },
    {
      "type": "Feature",
      "id": "527",
      "geometry": {
        "type": "Point",
        "coordinates": [
          -4.566931,
          19.560361
        ]
      },
      "properties": {
        "label": "Herpes zoster",
        "level": 3,
        "pos": "10746.695000000002,149784.01",
        "src_id": "178112",
        "weight": "3568.0"
      }
    },
    {
      "type": "Feature",
      "id": "312",
      "geometry": {
        "type": "Point",
        "coordinates": [
          -2.955636,
          18.178815
        ]
      },
      "properties": {
        "label": "Hepatitis B",
        "level": 1,
        "pos": "17583.773999999998,143586.208",
        "src_id": "177942",
        "weight": "51015.0"
      }
    },
    {
      "type": "Feature",
      "id": "1787",
      "geometry": {
        "type": "Point",
        "coordinates": [
          -6.559453,
          -16.552012
        ]
      },
      "properties": {
        "label": "Leuprolide",
        "level": 3,
        "pos": "2292.002,-6169.462",
        "src_id": "7",
        "weight": "0.0"
      }
    },
    {
      "type": "Feature",
      "id": "194",
      "geometry": {
        "type": "Point",
        "coordinates": [
          -13.497575,
          -14.138833
        ]
      },
      "properties": {
        "label": "Endometriosis",
        "level": 3,
        "pos": "-27147.94,4453.881",
        "src_id": "175911",
        "weight": "5352.0"
      }
    },
    {
      "type": "Feature",
      "id": "131",
      "geometry": {
        "type": "Point",
        "coordinates": [
          -17.100094,
          -14.39235
        ]
      },
      "properties": {
        "label": "Asthma",
        "level": 2,
        "pos": "-42434.2,3343.484",
        "src_id": "171037",
        "weight": "12468.0"
      }
    },
    {
      "type": "Feature",
      "id": "1462",
      "geometry": {
        "type": "Point",
        "coordinates": [
          -6.65617,
          -15.957704
        ]
      },
      "properties": {
        "label": "Adenomyosis",
        "level": 4,
        "pos": "1881.613,-3541.617",
        "src_id": "169800",
        "weight": "0.0"
      }
    },
    {
      "type": "Feature",
      "id": "988",
      "geometry": {
        "type": "Point",
        "coordinates": [
          -12.999139,
          -13.59368
        ]
      },
      "properties": {
        "label": "Pancreatitis",
        "level": 4,
        "pos": "-25032.969,6837.477",
        "src_id": "182725",
        "weight": "0.0"
      }
    },
    {
      "type": "Feature",
      "id": "134",
      "geometry": {
        "type": "Point",
        "coordinates": [
          -19.282599,
          -14.171029
        ]
      },
      "properties": {
        "label": "Anaemia",
        "level": 1,
        "pos": "-51695.045,4312.934",
        "src_id": "170190",
        "weight": "734497.0"
      }
    },
    {
      "type": "Feature",
      "id": "1741",
      "geometry": {
        "type": "Point",
        "coordinates": [
          -10.70671,
          -15.563861
        ]
      },
      "properties": {
        "label": "Montelukast",
        "level": 3,
        "pos": "-15305.7,-1804.477",
        "src_id": "460",
        "weight": "0.0"
      }
    },
    {
      "type": "Feature",
      "id": "1258",
      "geometry": {
        "type": "Point",
        "coordinates": [
          -11.252558,
          -18.027592
        ]
      },
      "properties": {
        "label": "Emphysema",
        "level": 4,
        "pos": "-17621.846,-12729.806999999999",
        "src_id": "175786",
        "weight": "0.0"
      }
    },
    {
      "type": "Feature",
      "id": "936",
      "geometry": {
        "type": "Point",
        "coordinates": [
          -16.721689,
          -13.937155
        ]
      },
      "properties": {
        "label": "Pulmonary function test",
        "level": 4,
        "pos": "-40828.547999999995,5336.337",
        "src_id": "184512",
        "weight": "0.0"
      }
    },
    {
      "type": "Feature",
      "id": "544",
      "geometry": {
        "type": "Point",
        "coordinates": [
          -10.269006,
          -13.309487
        ]
      },
      "properties": {
        "label": "Electroencephalogram",
        "level": 1,
        "pos": "-13448.428,8077.878",
        "src_id": "175720",
        "weight": "728805.0"
      }
    },
    {
      "type": "Feature",
      "id": "1360",
      "geometry": {
        "type": "Point",
        "coordinates": [
          -19.755363,
          -10.665367
        ]
      },
      "properties": {
        "label": "Cardiomyopathy",
        "level": 4,
        "pos": "-53701.084,19553.259000000002",
        "src_id": "173135",
        "weight": "0.0"
      }
    },
    {
      "type": "Feature",
      "id": "1122",
      "geometry": {
        "type": "Point",
        "coordinates": [
          -18.052445,
          -12.845712
        ]
      },
      "properties": {
        "label": "Iron deficiency",
        "level": 4,
        "pos": "-46475.228,10098.992",
        "src_id": "179432",
        "weight": "0.0"
      }
    },
    {
      "type": "Feature",
      "id": "1786",
      "geometry": {
        "type": "Point",
        "coordinates": [
          -6.239012,
          -58.718953
        ]
      },
      "properties": {
        "label": "Gramicidin D",
        "level": 3,
        "pos": "3651.701,-244542.503",
        "src_id": "27",
        "weight": "0.0"
      }
    },
    {
      "type": "Feature",
      "id": "245",
      "geometry": {
        "type": "Point",
        "coordinates": [
          -11.694989,
          -57.766703
        ]
      },
      "properties": {
        "label": "Polymyxin B Sulfate",
        "level": 3,
        "pos": "-19499.176,-236861.805",
        "src_id": "767",
        "weight": "5352.0"
      }
    },
    {
      "type": "Feature",
      "id": "1728",
      "geometry": {
        "type": "Point",
        "coordinates": [
          -6.536796,
          -59.109857
        ]
      },
      "properties": {
        "label": "Bacitracin",
        "level": 3,
        "pos": "2388.14,-247756.358",
        "src_id": "613",
        "weight": "0.0"
      }
    },
    {
      "type": "Feature",
      "id": "1685",
      "geometry": {
        "type": "Point",
        "coordinates": [
          -19.154222,
          -56.092945
        ]
      },
      "properties": {
        "label": "Neomycin",
        "level": 3,
        "pos": "-51150.305,-223838.456",
        "src_id": "980",
        "weight": "0.0"
      }
    },
    {
      "type": "Feature",
      "id": "3",
      "geometry": {
        "type": "Point",
        "coordinates": [
          -19.601068,
          -55.763584
        ]
      },
      "properties": {
        "label": "Pain",
        "level": 1,
        "pos": "-53046.368,-221342.85499999998",
        "src_id": "182630",
        "weight": "197958.0"
      }
    },
    {
      "type": "Feature",
      "id": "22",
      "geometry": {
        "type": "Point",
        "coordinates": [
          -23.198071,
          -51.075285
        ]
      },
      "properties": {
        "label": "Depression",
        "level": 1,
        "pos": "-68309.231,-187905.319",
        "src_id": "175023",
        "weight": "229919.0"
      }
    },
    {
      "type": "Feature",
      "id": "1641",
      "geometry": {
        "type": "Point",
        "coordinates": [
          -10.545071,
          -57.065414
        ]
      },
      "properties": {
        "label": "Arachidonic Acid",
        "level": 4,
        "pos": "-14619.832,-231333.811",
        "src_id": "4289",
        "weight": "0.0"
      }
    },
    {
      "type": "Feature",
      "id": "1611",
      "geometry": {
        "type": "Point",
        "coordinates": [
          -17.872253,
          -58.340066
        ]
      },
      "properties": {
        "label": "Dimethyl fumarate",
        "level": 4,
        "pos": "-45710.636999999995,-241461.705",
        "src_id": "7867",
        "weight": "0.0"
      }
    },
    {
      "type": "Feature",
      "id": "1",
      "geometry": {
        "type": "Point",
        "coordinates": [
          -17.613247,
          -60.769185
        ]
      },
      "properties": {
        "label": "Surgery",
        "level": 1,
        "pos": "-44611.623,-261821.48",
        "src_id": "186589",
        "weight": "156159.0"
      }
    },
    {
      "type": "Feature",
      "id": "1423",
      "geometry": {
        "type": "Point",
        "coordinates": [
          -13.841199,
          -55.317638
        ]
      },
      "properties": {
        "label": "Arthroscopic surgery",
        "level": 4,
        "pos": "-28606.005,-217997.229",
        "src_id": "170964",
        "weight": "0.0"
      }
    },
    {
      "type": "Feature",
      "id": "1412",
      "geometry": {
        "type": "Point",
        "coordinates": [
          -10.694778,
          -56.12072
        ]
      },
      "properties": {
        "label": "Autoimmune arthritis",
        "level": 4,
        "pos": "-15255.067000000001,-224049.89",
        "src_id": "171134",
        "weight": "0.0"
      }
    },
    {
      "type": "Feature",
      "id": "1393",
      "geometry": {
        "type": "Point",
        "coordinates": [
          -13.621823,
          -55.766312
        ]
      },
      "properties": {
        "label": "Blood count",
        "level": 4,
        "pos": "-27675.155,-221363.434",
        "src_id": "172065",
        "weight": "0.0"
      }
    },
    {
      "type": "Feature",
      "id": "1373",
      "geometry": {
        "type": "Point",
        "coordinates": [
          -13.445883,
          -56.130954
        ]
      },
      "properties": {
        "label": "Brain oedema",
        "level": 4,
        "pos": "-26928.595999999998,-224127.83099999998",
        "src_id": "172613",
        "weight": "0.0"
      }
    },
    {
      "type": "Feature",
      "id": "1372",
      "geometry": {
        "type": "Point",
        "coordinates": [
          -10.843203,
          -55.627042
        ]
      },
      "properties": {
        "label": "Breakthrough pain",
        "level": 4,
        "pos": "-15884.869,-220314.431",
        "src_id": "172640",
        "weight": "0.0"
      }
    },
    {
      "type": "Feature",
      "id": "1228",
      "geometry": {
        "type": "Point",
        "coordinates": [
          -12.484287,
          -56.465799
        ]
      },
      "properties": {
        "label": "Flank pain",
        "level": 4,
        "pos": "-22848.338,-226689.519",
        "src_id": "176738",
        "weight": "0.0"
      }
    },
    {
      "type": "Feature",
      "id": "1225",
      "geometry": {
        "type": "Point",
        "coordinates": [
          -13.037945,
          -56.768816
        ]
      },
      "properties": {
        "label": "Flea infestation",
        "level": 4,
        "pos": "-25197.629,-229027.245",
        "src_id": "176749",
        "weight": "0.0"
      }
    },
    {
      "type": "Feature",
      "id": "1212",
      "geometry": {
        "type": "Point",
        "coordinates": [
          -14.40472,
          -57.135974
        ]
      },
      "properties": {
        "label": "Gallbladder pain",
        "level": 4,
        "pos": "-30997.149,-231885.253",
        "src_id": "177017",
        "weight": "0.0"
      }
    },
    {
      "type": "Feature",
      "id": "1186",
      "geometry": {
        "type": "Point",
        "coordinates": [
          -12.036136,
          -57.420515
        ]
      },
      "properties": {
        "label": "Haematemesis",
        "level": 4,
        "pos": "-20946.739,-234119.70500000002",
        "src_id": "177585",
        "weight": "0.0"
      }
    },
    {
      "type": "Feature",
      "id": "1154",
      "geometry": {
        "type": "Point",
        "coordinates": [
          -15.598449,
          -56.794211
        ]
      },
      "properties": {
        "label": "Hyperaesthesia",
        "level": 4,
        "pos": "-36062.405,-229224.03",
        "src_id": "178414",
        "weight": "0.0"
      }
    },
    {
      "type": "Feature",
      "id": "1150",
      "geometry": {
        "type": "Point",
        "coordinates": [
          -23.202747,
          -58.554131
        ]
      },
      "properties": {
        "label": "Hypermobility syndrome",
        "level": 4,
        "pos": "-68329.075,-243198.207",
        "src_id": "178486",
        "weight": "0.0"
      }
    },
    {
      "type": "Feature",
      "id": "1126",
      "geometry": {
        "type": "Point",
        "coordinates": [
          -27.441927,
          -58.264432
        ]
      },
      "properties": {
        "label": "Intervertebral disc degeneration",
        "level": 4,
        "pos": "-86316.822,-240850.674",
        "src_id": "179257",
        "weight": "0.0"
      }
    },
    {
      "type": "Feature",
      "id": "1071",
      "geometry": {
        "type": "Point",
        "coordinates": [
          -22.368561,
          -58.051355
        ]
      },
      "properties": {
        "label": "Medial tibial stress syndrome",
        "level": 4,
        "pos": "-64789.441999999995,-239136.253",
        "src_id": "180624",
        "weight": "0.0"
      }
    },
    {
      "type": "Feature",
      "id": "1066",
      "geometry": {
        "type": "Point",
        "coordinates": [
          -23.822148,
          -57.737798
        ]
      },
      "properties": {
        "label": "Menorrhagia",
        "level": 4,
        "pos": "-70957.31999999999,-236631.864",
        "src_id": "180772",
        "weight": "0.0"
      }
    },
    {
      "type": "Feature",
      "id": "1044",
      "geometry": {
        "type": "Point",
        "coordinates": [
          -26.998339,
          -57.443945
        ]
      },
      "properties": {
        "label": "Musculoskeletal chest pain",
        "level": 4,
        "pos": "-84434.579,-234304.465",
        "src_id": "181281",
        "weight": "0.0"
      }
    },
    {
      "type": "Feature",
      "id": "1028",
      "geometry": {
        "type": "Point",
        "coordinates": [
          -27.190332,
          -57.846068
        ]
      },
      "properties": {
        "label": "Nerve compression",
        "level": 4,
        "pos": "-85249.246,-237494.149",
        "src_id": "181678",
        "weight": "0.0"
      }
    },
    {
      "type": "Feature",
      "id": "962",
      "geometry": {
        "type": "Point",
        "coordinates": [
          -20.428874,
          -59.029343
        ]
      },
      "properties": {
        "label": "Plantar fasciitis",
        "level": 4,
        "pos": "-56558.934,-247091.41700000002",
        "src_id": "183542",
        "weight": "0.0"
      }
    },
    {
      "type": "Feature",
      "id": "899",
      "geometry": {
        "type": "Point",
        "coordinates": [
          -23.349447,
          -59.080483
        ]
      },
      "properties": {
        "label": "Seasonal allergy",
        "level": 4,
        "pos": "-68951.55200000001,-247513.593",
        "src_id": "185647",
        "weight": "0.0"
      }
    },
    {
      "type": "Feature",
      "id": "845",
      "geometry": {
        "type": "Point",
        "coordinates": [
          -17.73231,
          -56.414084
        ]
      },
      "properties": {
        "label": "Therapeutic procedure",
        "level": 4,
        "pos": "-45116.829000000005,-226292.41",
        "src_id": "186884",
        "weight": "0.0"
      }
    },
    {
      "type": "Feature",
      "id": "802",
      "geometry": {
        "type": "Point",
        "coordinates": [
          -14.75355,
          -56.444194
        ]
      },
      "properties": {
        "label": "Victim of abuse",
        "level": 4,
        "pos": "-32477.31,-226523.549",
        "src_id": "188522",
        "weight": "0.0"
      }
    },
    {
      "type": "Feature",
      "id": "46",
      "geometry": {
        "type": "Point",
        "coordinates": [
          -18.811433,
          -51.268349
        ]
      },
      "properties": {
        "label": "Anxiety",
        "level": 2,
        "pos": "-49695.779,-189212.42799999999",
        "src_id": "170661",
        "weight": "16025.0"
      }
    },
    {
      "type": "Feature",
      "id": "1653",
      "geometry": {
        "type": "Point",
        "coordinates": [
          -22.811822,
          -49.149229
        ]
      },
      "properties": {
        "label": "Propericiazine",
        "level": 4,
        "pos": "-66670.293,-175153.712",
        "src_id": "1540",
        "weight": "0.0"
      }
    },
    {
      "type": "Feature",
      "id": "1459",
      "geometry": {
        "type": "Point",
        "coordinates": [
          -24.407895,
          -49.508269
        ]
      },
      "properties": {
        "label": "Affect lability",
        "level": 4,
        "pos": "-73442.769,-177492.296",
        "src_id": "169892",
        "weight": "0.0"
      }
    },
    {
      "type": "Feature",
      "id": "1364",
      "geometry": {
        "type": "Point",
        "coordinates": [
          -22.140489,
          -48.080157
        ]
      },
      "properties": {
        "label": "Cancer pain",
        "level": 4,
        "pos": "-63821.676,-168289.065",
        "src_id": "172918",
        "weight": "0.0"
      }
    },
    {
      "type": "Feature",
      "id": "72",
      "geometry": {
        "type": "Point",
        "coordinates": [
          -27.524072,
          -45.842129
        ]
      },
      "properties": {
        "label": "Completed suicide",
        "level": 1,
        "pos": "-86665.385,-154366.291",
        "src_id": "174010",
        "weight": "392591.0"
      }
    },
    {
      "type": "Feature",
      "id": "1244",
      "geometry": {
        "type": "Point",
        "coordinates": [
          -20.069903,
          -49.533676
        ]
      },
      "properties": {
        "label": "Exhibitionism",
        "level": 4,
        "pos": "-55035.738000000005,-177658.436",
        "src_id": "176271",
        "weight": "0.0"
      }
    },
    {
      "type": "Feature",
      "id": "122",
      "geometry": {
        "type": "Point",
        "coordinates": [
          -16.561299,
          -49.843403
        ]
      },
      "properties": {
        "label": "Insomnia",
        "level": 3,
        "pos": "-40147.981999999996,-179690.723",
        "src_id": "179162",
        "weight": "7134.0"
      }
    },
    {
      "type": "Feature",
      "id": "897",
      "geometry": {
        "type": "Point",
        "coordinates": [
          -25.483249,
          -46.852314
        ]
      },
      "properties": {
        "label": "Self-injurious ideation",
        "level": 4,
        "pos": "-78005.73300000001,-160578.669",
        "src_id": "185697",
        "weight": "0.0"
      }
    },
    {
      "type": "Feature",
      "id": "10",
      "geometry": {
        "type": "Point",
        "coordinates": [
          -23.900796,
          -63.344841
        ]
      },
      "properties": {
        "label": "Injury",
        "level": 2,
        "pos": "-71291.045,-285169.896",
        "src_id": "179153",
        "weight": "53012.0"
      }
    },
    {
      "type": "Feature",
      "id": "1449",
      "geometry": {
        "type": "Point",
        "coordinates": [
          -8.457175,
          -60.835887
        ]
      },
      "properties": {
        "label": "Aneurysm",
        "level": 4,
        "pos": "-5760.437,-262401.915",
        "src_id": "170319",
        "weight": "0.0"
      }
    },
    {
      "type": "Feature",
      "id": "1445",
      "geometry": {
        "type": "Point",
        "coordinates": [
          -7.951844,
          -61.274473
        ]
      },
      "properties": {
        "label": "Ankle fracture",
        "level": 4,
        "pos": "-3616.21,-266248.84500000003",
        "src_id": "170418",
        "weight": "0.0"
      }
    },
    {
      "type": "Feature",
      "id": "1431",
      "geometry": {
        "type": "Point",
        "coordinates": [
          -13.080071,
          -62.683763
        ]
      },
      "properties": {
        "label": "Appendicitis",
        "level": 4,
        "pos": "-25376.377,-278985.348",
        "src_id": "170775",
        "weight": "0.0"
      }
    },
    {
      "type": "Feature",
      "id": "1426",
      "geometry": {
        "type": "Point",
        "coordinates": [
          -14.343309,
          -62.382883
        ]
      },
      "properties": {
        "label": "Arthrogram",
        "level": 4,
        "pos": "-30736.572,-276216.19700000004",
        "src_id": "170954",
        "weight": "0.0"
      }
    },
    {
      "type": "Feature",
      "id": "1422",
      "geometry": {
        "type": "Point",
        "coordinates": [
          -15.421227,
          -62.690312
        ]
      },
      "properties": {
        "label": "Arthroscopy",
        "level": 4,
        "pos": "-35310.409,-279045.935",
        "src_id": "170965",
        "weight": "0.0"
      }
    },
    {
      "type": "Feature",
      "id": "1415",
      "geometry": {
        "type": "Point",
        "coordinates": [
          -17.025122,
          -62.786834
        ]
      },
      "properties": {
        "label": "Atrophy",
        "level": 4,
        "pos": "-42116.079,-279940.44",
        "src_id": "171099",
        "weight": "0.0"
      }
    },
    {
      "type": "Feature",
      "id": "1388",
      "geometry": {
        "type": "Point",
        "coordinates": [
          -9.117434,
          -60.206333
        ]
      },
      "properties": {
        "label": "Blood pressure decreased",
        "level": 4,
        "pos": "-8562.061,-256971.141",
        "src_id": "172312",
        "weight": "0.0"
      }
    },
    {
      "type": "Feature",
      "id": "1381",
      "geometry": {
        "type": "Point",
        "coordinates": [
          -8.883043,
          -60.560656
        ]
      },
      "properties": {
        "label": "Bone graft",
        "level": 4,
        "pos": "-7567.486,-260014.656",
        "src_id": "172483",
        "weight": "0.0"
      }
    },
    {
      "type": "Feature",
      "id": "1377",
      "geometry": {
        "type": "Point",
        "coordinates": [
          -10.534112,
          -60.540542
        ]
      },
      "properties": {
        "label": "Bone pain",
        "level": 4,
        "pos": "-14573.333,-259841.002",
        "src_id": "172523",
        "weight": "0.0"
      }
    },
    {
      "type": "Feature",
      "id": "1369",
      "geometry": {
        "type": "Point",
        "coordinates": [
          -11.489298,
          -61.40818
        ]
      },
      "properties": {
        "label": "Bunion",
        "level": 4,
        "pos": "-18626.39,-267432.3",
        "src_id": "172809",
        "weight": "0.0"
      }
    },
    {
      "type": "Feature",
      "id": "1347",
      "geometry": {
        "type": "Point",
        "coordinates": [
          -10.344716,
          -61.106029
        ]
      },
      "properties": {
        "label": "Cholecystectomy",
        "level": 4,
        "pos": "-13769.681999999999,-264765.075",
        "src_id": "173591",
        "weight": "0.0"
      }
    },
    {
      "type": "Feature",
      "id": "1343",
      "geometry": {
        "type": "Point",
        "coordinates": [
          -9.068605,
          -61.565991
        ]
      },
      "properties": {
        "label": "Chronic sinusitis",
        "level": 4,
        "pos": "-8354.872,-268835.648",
        "src_id": "173733",
        "weight": "0.0"
      }
    },
    {
      "type": "Feature",
      "id": "1340",
      "geometry": {
        "type": "Point",
        "coordinates": [
          -9.3086,
          -61.938464
        ]
      },
      "properties": {
        "label": "Circumcision",
        "level": 4,
        "pos": "-9373.224,-272176.409",
        "src_id": "173760",
        "weight": "0.0"
      }
    },
    {
      "type": "Feature",
      "id": "206",
      "geometry": {
        "type": "Point",
        "coordinates": [
          -17.962136,
          -64.126669
        ]
      },
      "properties": {
        "label": "Cleft lip",
        "level": 2,
        "pos": "-46092.030999999995,-292670.33400000003",
        "src_id": "173778",
        "weight": "10689.0"
      }
    },
    {
      "type": "Feature",
      "id": "1299",
      "geometry": {
        "type": "Point",
        "coordinates": [
          -12.496221,
          -62.41732
        ]
      },
      "properties": {
        "label": "Dental care",
        "level": 4,
        "pos": "-22898.984,-276531.73199999996",
        "src_id": "174985",
        "weight": "0.0"
      }
    },
    {
      "type": "Feature",
      "id": "1297",
      "geometry": {
        "type": "Point",
        "coordinates": [
          -11.821047,
          -61.970276
        ]
      },
      "properties": {
        "label": "Dental operation",
        "level": 4,
        "pos": "-20034.075,-272463.62399999995",
        "src_id": "175001",
        "weight": "0.0"
      }
    },
    {
      "type": "Feature",
      "id": "1271",
      "geometry": {
        "type": "Point",
        "coordinates": [
          -12.02509,
          -60.163949
        ]
      },
      "properties": {
        "label": "Dysplasia",
        "level": 4,
        "pos": "-20899.871,-256609.284",
        "src_id": "175498",
        "weight": "0.0"
      }
    },
    {
      "type": "Feature",
      "id": "1267",
      "geometry": {
        "type": "Point",
        "coordinates": [
          -12.212005,
          -60.837428
        ]
      },
      "properties": {
        "label": "Ectopic pregnancy",
        "level": 4,
        "pos": "-21692.99,-262415.332",
        "src_id": "175604",
        "weight": "0.0"
      }
    },
    {
      "type": "Feature",
      "id": "1262",
      "geometry": {
        "type": "Point",
        "coordinates": [
          -12.62077,
          -60.502532
        ]
      },
      "properties": {
        "label": "Emergency care",
        "level": 4,
        "pos": "-23427.468999999997,-259513.12300000002",
        "src_id": "175775",
        "weight": "0.0"
      }
    },
    {
      "type": "Feature",
      "id": "1255",
      "geometry": {
        "type": "Point",
        "coordinates": [
          -13.562611,
          -61.141146
        ]
      },
      "properties": {
        "label": "Endotracheal intubation",
        "level": 4,
        "pos": "-27423.897,-265073.76",
        "src_id": "175952",
        "weight": "0.0"
      }
    },
    {
      "type": "Feature",
      "id": "1237",
      "geometry": {
        "type": "Point",
        "coordinates": [
          -10.764435,
          -62.793213
        ]
      },
      "properties": {
        "label": "Facial asymmetry",
        "level": 4,
        "pos": "-15550.635,-279999.659",
        "src_id": "176483",
        "weight": "0.0"
      }
    },
    {
      "type": "Feature",
      "id": "1209",
      "geometry": {
        "type": "Point",
        "coordinates": [
          -9.421017,
          -62.23216
        ]
      },
      "properties": {
        "label": "Gastric bypass",
        "level": 4,
        "pos": "-9850.227,-274839.459",
        "src_id": "177066",
        "weight": "0.0"
      }
    },
    {
      "type": "Feature",
      "id": "1190",
      "geometry": {
        "type": "Point",
        "coordinates": [
          -10.68509,
          -62.48841
        ]
      },
      "properties": {
        "label": "Groin pain",
        "level": 4,
        "pos": "-15213.961,-277184.239",
        "src_id": "177544",
        "weight": "0.0"
      }
    },
    {
      "type": "Feature",
      "id": "1184",
      "geometry": {
        "type": "Point",
        "coordinates": [
          -13.176434,
          -63.393889
        ]
      },
      "properties": {
        "label": "Haemostasis",
        "level": 4,
        "pos": "-25785.271,-285634.40400000004",
        "src_id": "177719",
        "weight": "0.0"
      }
    },
    {
      "type": "Feature",
      "id": "1181",
      "geometry": {
        "type": "Point",
        "coordinates": [
          -14.379708,
          -63.645994
        ]
      },
      "properties": {
        "label": "Hand fracture",
        "level": 4,
        "pos": "-30891.024999999998,-288034.49799999996",
        "src_id": "177751",
        "weight": "0.0"
      }
    },
    {
      "type": "Feature",
      "id": "1170",
      "geometry": {
        "type": "Point",
        "coordinates": [
          -15.073442,
          -63.330856
        ]
      },
      "properties": {
        "label": "Hernia",
        "level": 4,
        "pos": "-33834.684,-285037.60699999996",
        "src_id": "178084",
        "weight": "0.0"
      }
    },
    {
      "type": "Feature",
      "id": "1166",
      "geometry": {
        "type": "Point",
        "coordinates": [
          -15.899327,
          -63.939264
        ]
      },
      "properties": {
        "label": "Hip arthroplasty",
        "level": 4,
        "pos": "-37339.092000000004,-290853.465",
        "src_id": "178152",
        "weight": "0.0"
      }
    },
    {
      "type": "Feature",
      "id": "1165",
      "geometry": {
        "type": "Point",
        "coordinates": [
          -16.74409,
          -63.424242
        ]
      },
      "properties": {
        "label": "Hip dysplasia",
        "level": 4,
        "pos": "-40923.6,-285922.248",
        "src_id": "178155",
        "weight": "0.0"
      }
    },
    {
      "type": "Feature",
      "id": "1164",
      "geometry": {
        "type": "Point",
        "coordinates": [
          -18.130885,
          -63.164838
        ]
      },
      "properties": {
        "label": "Hip fracture",
        "level": 4,
        "pos": "-46808.070999999996,-283471.989",
        "src_id": "178156",
        "weight": "0.0"
      }
    },
    {
      "type": "Feature",
      "id": "1163",
      "geometry": {
        "type": "Point",
        "coordinates": [
          -18.767961,
          -63.513693
        ]
      },
      "properties": {
        "label": "Histology",
        "level": 4,
        "pos": "-49511.316,-286772.315",
        "src_id": "178172",
        "weight": "0.0"
      }
    },
    {
      "type": "Feature",
      "id": "1156",
      "geometry": {
        "type": "Point",
        "coordinates": [
          -20.376513,
          -63.136316
        ]
      },
      "properties": {
        "label": "Hydrocephalus",
        "level": 4,
        "pos": "-56336.754,-283203.924",
        "src_id": "178376",
        "weight": "0.0"
      }
    },
    {
      "type": "Feature",
      "id": "1123",
      "geometry": {
        "type": "Point",
        "coordinates": [
          -12.289691,
          -61.700586
        ]
      },
      "properties": {
        "label": "Intestinal obstruction",
        "level": 4,
        "pos": "-22022.628,-270038.19299999997",
        "src_id": "179287",
        "weight": "0.0"
      }
    },
    {
      "type": "Feature",
      "id": "1110",
      "geometry": {
        "type": "Point",
        "coordinates": [
          -14.552893,
          -62.063135
        ]
      },
      "properties": {
        "label": "Knee arthroplasty",
        "level": 4,
        "pos": "-31625.879999999997,-273303.71",
        "src_id": "179624",
        "weight": "0.0"
      }
    },
    {
      "type": "Feature",
      "id": "1104",
      "geometry": {
        "type": "Point",
        "coordinates": [
          -15.445492,
          -61.755801
        ]
      },
      "properties": {
        "label": "Leg amputation",
        "level": 4,
        "pos": "-35413.37,-270533.034",
        "src_id": "179847",
        "weight": "0.0"
      }
    },
    {
      "type": "Feature",
      "id": "1103",
      "geometry": {
        "type": "Point",
        "coordinates": [
          -14.339352,
          -61.410232
        ]
      },
      "properties": {
        "label": "Leiomyosarcoma",
        "level": 4,
        "pos": "-30719.781000000003,-267450.50800000003",
        "src_id": "179853",
        "weight": "0.0"
      }
    },
    {
      "type": "Feature",
      "id": "1088",
      "geometry": {
        "type": "Point",
        "coordinates": [
          -16.97725,
          -61.454931
        ]
      },
      "properties": {
        "label": "Local anaesthesia",
        "level": 4,
        "pos": "-41912.953,-267847.30000000005",
        "src_id": "180103",
        "weight": "0.0"
      }
    },
    {
      "type": "Feature",
      "id": "1070",
      "geometry": {
        "type": "Point",
        "coordinates": [
          -18.483938,
          -61.988109
        ]
      },
      "properties": {
        "label": "Medulloblastoma",
        "level": 4,
        "pos": "-48306.149,-272624.76",
        "src_id": "180665",
        "weight": "0.0"
      }
    },
    {
      "type": "Feature",
      "id": "1067",
      "geometry": {
        "type": "Point",
        "coordinates": [
          -20.798059,
          -63.4092
        ]
      },
      "properties": {
        "label": "Meniscus lesion",
        "level": 4,
        "pos": "-58125.456,-285779.555",
        "src_id": "180761",
        "weight": "0.0"
      }
    },
    {
      "type": "Feature",
      "id": "1007",
      "geometry": {
        "type": "Point",
        "coordinates": [
          -25.400922,
          -61.525644
        ]
      },
      "properties": {
        "label": "Oral pain",
        "level": 4,
        "pos": "-77656.397,-268476.178",
        "src_id": "182321",
        "weight": "0.0"
      }
    },
    {
      "type": "Feature",
      "id": "1000",
      "geometry": {
        "type": "Point",
        "coordinates": [
          -23.236745,
          -61.620587
        ]
      },
      "properties": {
        "label": "Osteotomy",
        "level": 4,
        "pos": "-68473.333,-269322.813",
        "src_id": "182467",
        "weight": "0.0"
      }
    },
    {
      "type": "Feature",
      "id": "999",
      "geometry": {
        "type": "Point",
        "coordinates": [
          -25.597391,
          -62.225209
        ]
      },
      "properties": {
        "label": "Otoplasty",
        "level": 4,
        "pos": "-78490.06300000001,-274776.137",
        "src_id": "182490",
        "weight": "0.0"
      }
    },
    {
      "type": "Feature",
      "id": "977",
      "geometry": {
        "type": "Point",
        "coordinates": [
          -22.221135,
          -62.143249
        ]
      },
      "properties": {
        "label": "Peripheral nerve decompression",
        "level": 4,
        "pos": "-64163.882,-274030.551",
        "src_id": "183182",
        "weight": "0.0"
      }
    },
    {
      "type": "Feature",
      "id": "976",
      "geometry": {
        "type": "Point",
        "coordinates": [
          -23.094751,
          -62.788555
        ]
      },
      "properties": {
        "label": "Peroneal nerve palsy",
        "level": 4,
        "pos": "-67870.816,-279956.414",
        "src_id": "183290",
        "weight": "0.0"
      }
    },
    {
      "type": "Feature",
      "id": "959",
      "geometry": {
        "type": "Point",
        "coordinates": [
          -22.621886,
          -63.053829
        ]
      },
      "properties": {
        "label": "Plica syndrome",
        "level": 4,
        "pos": "-65864.352,-282430.128",
        "src_id": "183665",
        "weight": "0.0"
      }
    },
    {
      "type": "Feature",
      "id": "945",
      "geometry": {
        "type": "Point",
        "coordinates": [
          -23.684589,
          -62.486928
        ]
      },
      "properties": {
        "label": "Procedural pain",
        "level": 4,
        "pos": "-70373.63100000001,-277170.62399999995",
        "src_id": "184110",
        "weight": "0.0"
      }
    },
    {
      "type": "Feature",
      "id": "942",
      "geometry": {
        "type": "Point",
        "coordinates": [
          -25.511051,
          -61.879795
        ]
      },
      "properties": {
        "label": "Psoriatic arthropathy",
        "level": 4,
        "pos": "-78123.701,-271647.509",
        "src_id": "184426",
        "weight": "0.0"
      }
    },
    {
      "type": "Feature",
      "id": "937",
      "geometry": {
        "type": "Point",
        "coordinates": [
          -23.156487,
          -60.890371
        ]
      },
      "properties": {
        "label": "Pulmonary embolism",
        "level": 4,
        "pos": "-68132.778,-262876.91000000003",
        "src_id": "184505",
        "weight": "0.0"
      }
    },
    {
      "type": "Feature",
      "id": "918",
      "geometry": {
        "type": "Point",
        "coordinates": [
          -23.228428,
          -60.592805
        ]
      },
      "properties": {
        "label": "Retinopathy",
        "level": 4,
        "pos": "-68438.042,-260292.462",
        "src_id": "185266",
        "weight": "0.0"
      }
    },
    {
      "type": "Feature",
      "id": "888",
      "geometry": {
        "type": "Point",
        "coordinates": [
          -23.221954,
          -61.255804
        ]
      },
      "properties": {
        "label": "Skin cosmetic procedure",
        "level": 4,
        "pos": "-68410.574,-266084.01300000004",
        "src_id": "185929",
        "weight": "0.0"
      }
    },
    {
      "type": "Feature",
      "id": "875",
      "geometry": {
        "type": "Point",
        "coordinates": [
          -25.753059,
          -60.760331
        ]
      },
      "properties": {
        "label": "Social phobia",
        "level": 4,
        "pos": "-79150.592,-261744.529",
        "src_id": "186090",
        "weight": "0.0"
      }
    },
    {
      "type": "Feature",
      "id": "828",
      "geometry": {
        "type": "Point",
        "coordinates": [
          -23.707852,
          -60.19512
        ]
      },
      "properties": {
        "label": "Traction",
        "level": 4,
        "pos": "-70472.33799999999,-256875.36299999998",
        "src_id": "187287",
        "weight": "0.0"
      }
    },
    {
      "type": "Feature",
      "id": "790",
      "geometry": {
        "type": "Point",
        "coordinates": [
          -25.788157,
          -60.464408
        ]
      },
      "properties": {
        "label": "Wisdom teeth removal",
        "level": 4,
        "pos": "-79299.52299999999,-259184.639",
        "src_id": "188871",
        "weight": "0.0"
      }
    },
    {
      "type": "Feature",
      "id": "751",
      "geometry": {
        "type": "Point",
        "coordinates": [
          -26.132613,
          -61.036385
        ]
      },
      "properties": {
        "label": "Hippocampus",
        "level": 4,
        "pos": "-80761.117,-264153.92000000004",
        "src_id": "240385",
        "weight": "0.0"
      }
    },
    {
      "type": "Feature",
      "id": "1785",
      "geometry": {
        "type": "Point",
        "coordinates": [
          -28.470612,
          -34.609842
        ]
      },
      "properties": {
        "label": "Insulin Lispro",
        "level": 3,
        "pos": "-90681.746,-91672.348",
        "src_id": "45",
        "weight": "0.0"
      }
    },
    {
      "type": "Feature",
      "id": "213",
      "geometry": {
        "type": "Point",
        "coordinates": [
          -26.663017,
          -33.388053
        ]
      },
      "properties": {
        "label": "Blood insulin",
        "level": 2,
        "pos": "-83011.74399999999,-85416.288",
        "src_id": "172218",
        "weight": "19551.0"
      }
    },
    {
      "type": "Feature",
      "id": "6",
      "geometry": {
        "type": "Point",
        "coordinates": [
          -24.773938,
          -32.525695
        ]
      },
      "properties": {
        "label": "Diabetes mellitus",
        "level": 1,
        "pos": "-74995.96800000001,-81053.545",
        "src_id": "175126",
        "weight": "560671.0"
      }
    },
    {
      "type": "Feature",
      "id": "663",
      "geometry": {
        "type": "Point",
        "coordinates": [
          -30.285464,
          -35.71384
        ]
      },
      "properties": {
        "label": "Insulin Aspart",
        "level": 3,
        "pos": "-98382.561,-97404.892",
        "src_id": "1280",
        "weight": "1785.0"
      }
    },
    {
      "type": "Feature",
      "id": "143",
      "geometry": {
        "type": "Point",
        "coordinates": [
          -32.238276,
          -34.496855
        ]
      },
      "properties": {
        "label": "Glucose",
        "level": 2,
        "pos": "-106668.75899999999,-91089.99900000001",
        "src_id": "8280",
        "weight": "12468.0"
      }
    },
    {
      "type": "Feature",
      "id": "1784",
      "geometry": {
        "type": "Point",
        "coordinates": [
          -17.523266,
          -34.020619
        ]
      },
      "properties": {
        "label": "Insulin Glargine",
        "level": 3,
        "pos": "-44229.807,-88644.054",
        "src_id": "46",
        "weight": "0.0"
      }
    },
    {
      "type": "Feature",
      "id": "2",
      "geometry": {
        "type": "Point",
        "coordinates": [
          -37.031668,
          -35.735719
        ]
      },
      "properties": {
        "label": "Neoplasm malignant",
        "level": 2,
        "pos": "-127008.145,-97519.288",
        "src_id": "181636",
        "weight": "63605.0"
      }
    },
    {
      "type": "Feature",
      "id": "711",
      "geometry": {
        "type": "Point",
        "coordinates": [
          -19.662078,
          -35.131672
        ]
      },
      "properties": {
        "label": "Metformin",
        "level": 3,
        "pos": "-53305.245,-94372.271",
        "src_id": "321",
        "weight": "1785.0"
      }
    },
    {
      "type": "Feature",
      "id": "1427",
      "geometry": {
        "type": "Point",
        "coordinates": [
          -20.275905,
          -34.195283
        ]
      },
      "properties": {
        "label": "Arteriosclerosis",
        "level": 4,
        "pos": "-55909.849,-89539.516",
        "src_id": "170910",
        "weight": "0.0"
      }
    },
    {
      "type": "Feature",
      "id": "42",
      "geometry": {
        "type": "Point",
        "coordinates": [
          -21.07072,
          -27.46896
        ]
      },
      "properties": {
        "label": "Impaired gastric emptying",
        "level": 1,
        "pos": "-59282.416,-56254.704",
        "src_id": "178795",
        "weight": "670720.0"
      }
    },
    {
      "type": "Feature",
      "id": "1392",
      "geometry": {
        "type": "Point",
        "coordinates": [
          -21.637971,
          -33.617876
        ]
      },
      "properties": {
        "label": "Blood glucose",
        "level": 4,
        "pos": "-61689.388999999996,-86586.25200000001",
        "src_id": "172153",
        "weight": "0.0"
      }
    },
    {
      "type": "Feature",
      "id": "1194",
      "geometry": {
        "type": "Point",
        "coordinates": [
          -18.389882,
          -33.516714
        ]
      },
      "properties": {
        "label": "Glucose tolerance impaired",
        "level": 4,
        "pos": "-47907.048,-86070.876",
        "src_id": "177436",
        "weight": "0.0"
      }
    },
    {
      "type": "Feature",
      "id": "1090",
      "geometry": {
        "type": "Point",
        "coordinates": [
          -18.772123,
          -34.653278
        ]
      },
      "properties": {
        "label": "Liver injury",
        "level": 4,
        "pos": "-49528.976,-91896.432",
        "src_id": "180088",
        "weight": "0.0"
      }
    },
    {
      "type": "Feature",
      "id": "289",
      "geometry": {
        "type": "Point",
        "coordinates": [
          -28.342784,
          -37.036382
        ]
      },
      "properties": {
        "label": "Obesity",
        "level": 1,
        "pos": "-90139.35100000001,-104377.899",
        "src_id": "181982",
        "weight": "476285.0"
      }
    },
    {
      "type": "Feature",
      "id": "953",
      "geometry": {
        "type": "Point",
        "coordinates": [
          -22.565,
          -36.033075
        ]
      },
      "properties": {
        "label": "Porphyria",
        "level": 4,
        "pos": "-65622.966,-99077.237",
        "src_id": "183819",
        "weight": "0.0"
      }
    },
    {
      "type": "Feature",
      "id": "819",
      "geometry": {
        "type": "Point",
        "coordinates": [
          -19.775384,
          -36.095049
        ]
      },
      "properties": {
        "label": "Type 1 diabetes mellitus",
        "level": 4,
        "pos": "-53786.03,-99402.677",
        "src_id": "187539",
        "weight": "0.0"
      }
    },
    {
      "type": "Feature",
      "id": "732",
      "geometry": {
        "type": "Point",
        "coordinates": [
          -22.318964,
          -36.786793
        ]
      },
      "properties": {
        "label": "Vicia",
        "level": 4,
        "pos": "-64578.98900000001,-103052.81700000001",
        "src_id": "240879",
        "weight": "0.0"
      }
    },
    {
      "type": "Feature",
      "id": "1594",
      "geometry": {
        "type": "Point",
        "coordinates": [
          -30.782571,
          -38.554168
        ]
      },
      "properties": {
        "label": "Insulin Degludec",
        "level": 4,
        "pos": "-100491.886,-112531.827",
        "src_id": "8370",
        "weight": "0.0"
      }
    },
    {
      "type": "Feature",
      "id": "395",
      "geometry": {
        "type": "Point",
        "coordinates": [
          -33.858258,
          -37.52272
        ]
      },
      "properties": {
        "label": "Fructose",
        "level": 3,
        "pos": "-113542.688,-106972.466",
        "src_id": "3934",
        "weight": "5351.0"
      }
    },
    {
      "type": "Feature",
      "id": "1646",
      "geometry": {
        "type": "Point",
        "coordinates": [
          -35.156493,
          -37.770882
        ]
      },
      "properties": {
        "label": "Maltose",
        "level": 4,
        "pos": "-119051.38100000001,-108302.914",
        "src_id": "3139",
        "weight": "0.0"
      }
    },
    {
      "type": "Feature",
      "id": "1284",
      "geometry": {
        "type": "Point",
        "coordinates": [
          -36.269868,
          -36.736523
        ]
      },
      "properties": {
        "label": "Drug tolerance",
        "level": 4,
        "pos": "-123775.67,-102786.458",
        "src_id": "175408",
        "weight": "0.0"
      }
    },
    {
      "type": "Feature",
      "id": "1061",
      "geometry": {
        "type": "Point",
        "coordinates": [
          -30.807349,
          -35.074034
        ]
      },
      "properties": {
        "label": "Metabolic syndrome",
        "level": 4,
        "pos": "-100597.02900000001,-94073.209",
        "src_id": "180825",
        "weight": "0.0"
      }
    },
    {
      "type": "Feature",
      "id": "1773",
      "geometry": {
        "type": "Point",
        "coordinates": [
          -40.907243,
          -40.616915
        ]
      },
      "properties": {
        "label": "Pyrimethamine",
        "level": 3,
        "pos": "-143453.054,-123894.995",
        "src_id": "196",
        "weight": "0.0"
      }
    },
    {
      "type": "Feature",
      "id": "1737",
      "geometry": {
        "type": "Point",
        "coordinates": [
          -42.79266,
          -41.038047
        ]
      },
      "properties": {
        "label": "Cisplatin",
        "level": 3,
        "pos": "-151453.28100000002,-126257.515",
        "src_id": "502",
        "weight": "0.0"
      }
    },
    {
      "type": "Feature",
      "id": "1684",
      "geometry": {
        "type": "Point",
        "coordinates": [
          -38.868051,
          -40.924172
        ]
      },
      "properties": {
        "label": "Doxorubicin",
        "level": 3,
        "pos": "-134800.315,-125617.205",
        "src_id": "983",
        "weight": "0.0"
      }
    },
    {
      "type": "Feature",
      "id": "1615",
      "geometry": {
        "type": "Point",
        "coordinates": [
          -38.635447,
          -40.199617
        ]
      },
      "properties": {
        "label": "Ellagic Acid",
        "level": 4,
        "pos": "-133813.334,-121568.61600000001",
        "src_id": "7816",
        "weight": "0.0"
      }
    },
    {
      "type": "Feature",
      "id": "73",
      "geometry": {
        "type": "Point",
        "coordinates": [
          -47.280241,
          -39.895369
        ]
      },
      "properties": {
        "label": "Childhood",
        "level": 2,
        "pos": "-170495.054,-119881.504",
        "src_id": "173551",
        "weight": "10694.0"
      }
    },
    {
      "type": "Feature",
      "id": "1510",
      "geometry": {
        "type": "Point",
        "coordinates": [
          -42.095095,
          -40.195898
        ]
      },
      "properties": {
        "label": "Ammonia",
        "level": 4,
        "pos": "-148493.364,-121547.946",
        "src_id": "9063",
        "weight": "0.0"
      }
    },
    {
      "type": "Feature",
      "id": "1464",
      "geometry": {
        "type": "Point",
        "coordinates": [
          -41.525202,
          -39.75592
        ]
      },
      "properties": {
        "label": "Acute lymphocytic leukaemia",
        "level": 4,
        "pos": "-146075.18,-119110.732",
        "src_id": "169754",
        "weight": "0.0"
      }
    },
    {
      "type": "Feature",
      "id": "1434",
      "geometry": {
        "type": "Point",
        "coordinates": [
          -39.911277,
          -39.263211
        ]
      },
      "properties": {
        "label": "Apoptosis",
        "level": 4,
        "pos": "-139226.946,-116399.822",
        "src_id": "170769",
        "weight": "0.0"
      }
    },
    {
      "type": "Feature",
      "id": "1378",
      "geometry": {
        "type": "Point",
        "coordinates": [
          -46.256261,
          -35.575609
        ]
      },
      "properties": {
        "label": "Bone neoplasm malignant",
        "level": 4,
        "pos": "-166150.079,-96682.826",
        "src_id": "172521",
        "weight": "0.0"
      }
    },
    {
      "type": "Feature",
      "id": "339",
      "geometry": {
        "type": "Point",
        "coordinates": [
          -40.579522,
          -38.814616
        ]
      },
      "properties": {
        "label": "Chemotherapy",
        "level": 3,
        "pos": "-142062.459,-113948.153",
        "src_id": "173517",
        "weight": "3569.0"
      }
    },
    {
      "type": "Feature",
      "id": "1358",
      "geometry": {
        "type": "Point",
        "coordinates": [
          -41.83594,
          -35.863542
        ]
      },
      "properties": {
        "label": "Cell death",
        "level": 4,
        "pos": "-147393.71399999998,-98188.277",
        "src_id": "173279",
        "weight": "0.0"
      }
    },
    {
      "type": "Feature",
      "id": "1327",
      "geometry": {
        "type": "Point",
        "coordinates": [
          -46.358563,
          -36.578244
        ]
      },
      "properties": {
        "label": "Colorectal cancer",
        "level": 4,
        "pos": "-166584.175,-101948.929",
        "src_id": "173947",
        "weight": "0.0"
      }
    },
    {
      "type": "Feature",
      "id": "1268",
      "geometry": {
        "type": "Point",
        "coordinates": [
          -43.439778,
          -37.481656
        ]
      },
      "properties": {
        "label": "Economic problem",
        "level": 4,
        "pos": "-154199.136,-106752.747",
        "src_id": "175590",
        "weight": "0.0"
      }
    },
    {
      "type": "Feature",
      "id": "1204",
      "geometry": {
        "type": "Point",
        "coordinates": [
          -43.725764,
          -39.142247
        ]
      },
      "properties": {
        "label": "Gastrointestinal carcinoma",
        "level": 4,
        "pos": "-155412.645,-115737.193",
        "src_id": "177182",
        "weight": "0.0"
      }
    },
    {
      "type": "Feature",
      "id": "1197",
      "geometry": {
        "type": "Point",
        "coordinates": [
          -46.093709,
          -38.693521
        ]
      },
      "properties": {
        "label": "Glioma",
        "level": 4,
        "pos": "-165460.34,-113288.988",
        "src_id": "177386",
        "weight": "0.0"
      }
    },
    {
      "type": "Feature",
      "id": "1196",
      "geometry": {
        "type": "Point",
        "coordinates": [
          -41.191646,
          -37.421192
        ]
      },
      "properties": {
        "label": "Glossectomy",
        "level": 4,
        "pos": "-144659.834,-106429.44099999999",
        "src_id": "177419",
        "weight": "0.0"
      }
    },
    {
      "type": "Feature",
      "id": "1160",
      "geometry": {
        "type": "Point",
        "coordinates": [
          -44.969802,
          -38.185197
        ]
      },
      "properties": {
        "label": "Hodgkin's disease",
        "level": 4,
        "pos": "-160691.356,-110534.107",
        "src_id": "178228",
        "weight": "0.0"
      }
    },
    {
      "type": "Feature",
      "id": "459",
      "geometry": {
        "type": "Point",
        "coordinates": [
          -37.88067,
          -38.284832
        ]
      },
      "properties": {
        "label": "Squamous cell carcinoma",
        "level": 3,
        "pos": "-130610.65199999999,-111072.559",
        "src_id": "186342",
        "weight": "1785.0"
      }
    },
    {
      "type": "Feature",
      "id": "1063",
      "geometry": {
        "type": "Point",
        "coordinates": [
          -38.129602,
          -38.833705
        ]
      },
      "properties": {
        "label": "Mesothelioma",
        "level": 4,
        "pos": "-131666.925,-114052.16",
        "src_id": "180809",
        "weight": "0.0"
      }
    },
    {
      "type": "Feature",
      "id": "1060",
      "geometry": {
        "type": "Point",
        "coordinates": [
          -38.409373,
          -39.698078
        ]
      },
      "properties": {
        "label": "Metastasis",
        "level": 4,
        "pos": "-132854.046,-118791.483",
        "src_id": "180907",
        "weight": "0.0"
      }
    },
    {
      "type": "Feature",
      "id": "1018",
      "geometry": {
        "type": "Point",
        "coordinates": [
          -41.478777,
          -36.48997
        ]
      },
      "properties": {
        "label": "Non-Hodgkin's lymphoma",
        "level": 4,
        "pos": "-145878.188,-101482.58",
        "src_id": "181884",
        "weight": "0.0"
      }
    },
    {
      "type": "Feature",
      "id": "1010",
      "geometry": {
        "type": "Point",
        "coordinates": [
          -41.794842,
          -37.914649
        ]
      },
      "properties": {
        "label": "Oesophageal carcinoma",
        "level": 4,
        "pos": "-147219.316,-109075.70599999999",
        "src_id": "182083",
        "weight": "0.0"
      }
    },
    {
      "type": "Feature",
      "id": "1004",
      "geometry": {
        "type": "Point",
        "coordinates": [
          -46.270047,
          -37.737699
        ]
      },
      "properties": {
        "label": "Organ failure",
        "level": 4,
        "pos": "-166208.579,-108124.75499999999",
        "src_id": "182351",
        "weight": "0.0"
      }
    },
    {
      "type": "Feature",
      "id": "952",
      "geometry": {
        "type": "Point",
        "coordinates": [
          -46.635952,
          -37.035039
        ]
      },
      "properties": {
        "label": "Positron emission tomogram",
        "level": 4,
        "pos": "-167761.188,-104370.757",
        "src_id": "183853",
        "weight": "0.0"
      }
    },
    {
      "type": "Feature",
      "id": "916",
      "geometry": {
        "type": "Point",
        "coordinates": [
          -44.625481,
          -36.02172
        ]
      },
      "properties": {
        "label": "Rhabdomyosarcoma",
        "level": 4,
        "pos": "-159230.332,-99017.639",
        "src_id": "185324",
        "weight": "0.0"
      }
    },
    {
      "type": "Feature",
      "id": "909",
      "geometry": {
        "type": "Point",
        "coordinates": [
          -41.403624,
          -36.969542
        ]
      },
      "properties": {
        "label": "Sarcoma",
        "level": 4,
        "pos": "-145559.296,-104022.621",
        "src_id": "185514",
        "weight": "0.0"
      }
    },
    {
      "type": "Feature",
      "id": "843",
      "geometry": {
        "type": "Point",
        "coordinates": [
          -45.367941,
          -39.590181
        ]
      },
      "properties": {
        "label": "Thyroid cancer",
        "level": 4,
        "pos": "-162380.74599999998,-118196.678",
        "src_id": "187010",
        "weight": "0.0"
      }
    },
    {
      "type": "Feature",
      "id": "1666",
      "geometry": {
        "type": "Point",
        "coordinates": [
          -13.679908,
          -38.157446
        ]
      },
      "properties": {
        "label": "Sitagliptin",
        "level": 3,
        "pos": "-27921.617000000002,-110384.26699999999",
        "src_id": "1244",
        "weight": "0.0"
      }
    },
    {
      "type": "Feature",
      "id": "78",
      "geometry": {
        "type": "Point",
        "coordinates": [
          -19.659535,
          -20.745059
        ]
      },
      "properties": {
        "label": "Autonomic nervous system imbalance",
        "level": 1,
        "pos": "-53294.455,-24959.99",
        "src_id": "171159",
        "weight": "790952.0"
      }
    },
    {
      "type": "Feature",
      "id": "121",
      "geometry": {
        "type": "Point",
        "coordinates": [
          -17.944439,
          -27.752283
        ]
      },
      "properties": {
        "label": "Migraine",
        "level": 2,
        "pos": "-46016.945,-57611.955",
        "src_id": "180996",
        "weight": "19562.0"
      }
    },
    {
      "type": "Feature",
      "id": "39",
      "geometry": {
        "type": "Point",
        "coordinates": [
          -15.737733,
          -31.37101
        ]
      },
      "properties": {
        "label": "Nausea",
        "level": 1,
        "pos": "-36653.412000000004,-75276.838",
        "src_id": "181546",
        "weight": "129693.0"
      }
    },
    {
      "type": "Feature",
      "id": "1254",
      "geometry": {
        "type": "Point",
        "coordinates": [
          -19.145012,
          -25.389366
        ]
      },
      "properties": {
        "label": "Enteral nutrition",
        "level": 4,
        "pos": "-51111.231,-46395.903",
        "src_id": "175965",
        "weight": "0.0"
      }
    },
    {
      "type": "Feature",
      "id": "165",
      "geometry": {
        "type": "Point",
        "coordinates": [
          -19.403286,
          -21.440826
        ]
      },
      "properties": {
        "label": "Syncope",
        "level": 2,
        "pos": "-52207.138,-28125.577",
        "src_id": "186636",
        "weight": "12464.0"
      }
    },
    {
      "type": "Feature",
      "id": "933",
      "geometry": {
        "type": "Point",
        "coordinates": [
          -24.023366,
          -23.200995
        ]
      },
      "properties": {
        "label": "Pyloroplasty",
        "level": 4,
        "pos": "-71811.128,-36202.962999999996",
        "src_id": "184643",
        "weight": "0.0"
      }
    },
    {
      "type": "Feature",
      "id": "44",
      "geometry": {
        "type": "Point",
        "coordinates": [
          -24.928915,
          -38.016949
        ]
      },
      "properties": {
        "label": "Exercise adequate",
        "level": 1,
        "pos": "-75653.571,-109626.52799999999",
        "src_id": "176259",
        "weight": "477785.0"
      }
    },
    {
      "type": "Feature",
      "id": "997",
      "geometry": {
        "type": "Point",
        "coordinates": [
          -29.800132,
          -37.482075
        ]
      },
      "properties": {
        "label": "Overweight",
        "level": 4,
        "pos": "-96323.19,-106754.993",
        "src_id": "182592",
        "weight": "0.0"
      }
    },
    {
      "type": "Feature",
      "id": "1648",
      "geometry": {
        "type": "Point",
        "coordinates": [
          -35.212712,
          -38.419337
        ]
      },
      "properties": {
        "label": "Sucrose",
        "level": 4,
        "pos": "-119289.92700000001,-111800.635",
        "src_id": "2619",
        "weight": "0.0"
      }
    },
    {
      "type": "Feature",
      "id": "632",
      "geometry": {
        "type": "Point",
        "coordinates": [
          -48.146999,
          -42.545494
        ]
      },
      "properties": {
        "label": "Flounder",
        "level": 3,
        "pos": "-174172.88999999998,-134840.8",
        "src_id": "8601",
        "weight": "1785.0"
      }
    },
    {
      "type": "Feature",
      "id": "1339",
      "geometry": {
        "type": "Point",
        "coordinates": [
          -49.88927,
          -40.483731
        ]
      },
      "properties": {
        "label": "Clang associations",
        "level": 4,
        "pos": "-181565.71600000001,-123150.94499999999",
        "src_id": "173773",
        "weight": "0.0"
      }
    },
    {
      "type": "Feature",
      "id": "1227",
      "geometry": {
        "type": "Point",
        "coordinates": [
          -49.821932,
          -41.60829
        ]
      },
      "properties": {
        "label": "Flashback",
        "level": 4,
        "pos": "-181279.992,-129480.76900000001",
        "src_id": "176739",
        "weight": "0.0"
      }
    },
    {
      "type": "Feature",
      "id": "1024",
      "geometry": {
        "type": "Point",
        "coordinates": [
          -49.117339,
          -42.02343
        ]
      },
      "properties": {
        "label": "Neuroblastoma",
        "level": 4,
        "pos": "-178290.25400000002,-131845.269",
        "src_id": "181713",
        "weight": "0.0"
      }
    },
    {
      "type": "Feature",
      "id": "737",
      "geometry": {
        "type": "Point",
        "coordinates": [
          -49.580368,
          -41.198299
        ]
      },
      "properties": {
        "label": "Sepia",
        "level": 4,
        "pos": "-180254.97999999998,-127160.475",
        "src_id": "240755",
        "weight": "0.0"
      }
    },
    {
      "type": "Feature",
      "id": "1376",
      "geometry": {
        "type": "Point",
        "coordinates": [
          -40.823295,
          -38.375972
        ]
      },
      "properties": {
        "label": "Bone sarcoma",
        "level": 4,
        "pos": "-143096.837,-111565.751",
        "src_id": "172526",
        "weight": "0.0"
      }
    },
    {
      "type": "Feature",
      "id": "930",
      "geometry": {
        "type": "Point",
        "coordinates": [
          -45.350268,
          -43.011644
        ]
      },
      "properties": {
        "label": "Radiotherapy",
        "level": 4,
        "pos": "-162305.76400000002,-137536.739",
        "src_id": "184752",
        "weight": "0.0"
      }
    },
    {
      "type": "Feature",
      "id": "1097",
      "geometry": {
        "type": "Point",
        "coordinates": [
          -35.186449,
          -39.798432
        ]
      },
      "properties": {
        "label": "Lip and/or oral cavity cancer",
        "level": 4,
        "pos": "-119178.492,-119345.545",
        "src_id": "179997",
        "weight": "0.0"
      }
    },
    {
      "type": "Feature",
      "id": "472",
      "geometry": {
        "type": "Point",
        "coordinates": [
          -15.192222,
          -22.099593
        ]
      },
      "properties": {
        "label": "Raynaud's phenomenon",
        "level": 1,
        "pos": "-34338.686,-31136.769999999997",
        "src_id": "184805",
        "weight": "152640.0"
      }
    },
    {
      "type": "Feature",
      "id": "1764",
      "geometry": {
        "type": "Point",
        "coordinates": [
          -17.552453,
          -16.344637
        ]
      },
      "properties": {
        "label": "Theophylline",
        "level": 3,
        "pos": "-44353.664000000004,-5251.607",
        "src_id": "268",
        "weight": "0.0"
      }
    },
    {
      "type": "Feature",
      "id": "536",
      "geometry": {
        "type": "Point",
        "coordinates": [
          -13.699318,
          -18.063061
        ]
      },
      "properties": {
        "label": "Fibromyalgia",
        "level": 3,
        "pos": "-28003.984,-12888.163999999999",
        "src_id": "176701",
        "weight": "1785.0"
      }
    },
    {
      "type": "Feature",
      "id": "66",
      "geometry": {
        "type": "Point",
        "coordinates": [
          -11.486246,
          -30.539961
        ]
      },
      "properties": {
        "label": "Headache",
        "level": 3,
        "pos": "-18613.436,-71163.128",
        "src_id": "177790",
        "weight": "8915.0"
      }
    },
    {
      "type": "Feature",
      "id": "334",
      "geometry": {
        "type": "Point",
        "coordinates": [
          -16.674534,
          -27.27105
        ]
      },
      "properties": {
        "label": "Costochondritis",
        "level": 3,
        "pos": "-40628.456999999995,-55308.686",
        "src_id": "174490",
        "weight": "3569.0"
      }
    },
    {
      "type": "Feature",
      "id": "971",
      "geometry": {
        "type": "Point",
        "coordinates": [
          -18.440061,
          -23.985558
        ]
      },
      "properties": {
        "label": "Photophobia",
        "level": 4,
        "pos": "-48119.971999999994,-39837.179",
        "src_id": "183449",
        "weight": "0.0"
      }
    },
    {
      "type": "Feature",
      "id": "199",
      "geometry": {
        "type": "Point",
        "coordinates": [
          -9.319462,
          -34.834172
        ]
      },
      "properties": {
        "label": "Dizziness",
        "level": 1,
        "pos": "-9419.314999999999,-92830.91799999999",
        "src_id": "175317",
        "weight": "83517.0"
      }
    },
    {
      "type": "Feature",
      "id": "1440",
      "geometry": {
        "type": "Point",
        "coordinates": [
          -9.791734,
          -32.935738
        ]
      },
      "properties": {
        "label": "Aphagia",
        "level": 4,
        "pos": "-11423.264,-83122.679",
        "src_id": "170723",
        "weight": "0.0"
      }
    },
    {
      "type": "Feature",
      "id": "1368",
      "geometry": {
        "type": "Point",
        "coordinates": [
          -18.777857,
          -30.484565
        ]
      },
      "properties": {
        "label": "Burning sensation",
        "level": 4,
        "pos": "-49553.310000000005,-70890.185",
        "src_id": "172834",
        "weight": "0.0"
      }
    },
    {
      "type": "Feature",
      "id": "1290",
      "geometry": {
        "type": "Point",
        "coordinates": [
          -18.823695,
          -31.119118
        ]
      },
      "properties": {
        "label": "Disorientation",
        "level": 4,
        "pos": "-49747.814,-74026.182",
        "src_id": "175277",
        "weight": "0.0"
      }
    },
    {
      "type": "Feature",
      "id": "1239",
      "geometry": {
        "type": "Point",
        "coordinates": [
          -10.741768,
          -34.195759
        ]
      },
      "properties": {
        "label": "Eye irritation",
        "level": 4,
        "pos": "-15454.456,-89541.961",
        "src_id": "176416",
        "weight": "0.0"
      }
    },
    {
      "type": "Feature",
      "id": "188",
      "geometry": {
        "type": "Point",
        "coordinates": [
          -13.661757,
          -24.896812
        ]
      },
      "properties": {
        "label": "Hypoglycaemia",
        "level": 3,
        "pos": "-27844.604,-44086.204000000005",
        "src_id": "178590",
        "weight": "7133.0"
      }
    },
    {
      "type": "Feature",
      "id": "1002",
      "geometry": {
        "type": "Point",
        "coordinates": [
          -19.847185,
          -22.015819
        ]
      },
      "properties": {
        "label": "Orthostatic intolerance",
        "level": 4,
        "pos": "-54090.7,-30753.071",
        "src_id": "182399",
        "weight": "0.0"
      }
    },
    {
      "type": "Feature",
      "id": "950",
      "geometry": {
        "type": "Point",
        "coordinates": [
          -20.037873,
          -22.607181
        ]
      },
      "properties": {
        "label": "Postural orthostatic tachycardia syndrome",
        "level": 4,
        "pos": "-54899.827000000005,-33466.515",
        "src_id": "183964",
        "weight": "0.0"
      }
    },
    {
      "type": "Feature",
      "id": "37",
      "geometry": {
        "type": "Point",
        "coordinates": [
          -18.094311,
          -39.31871
        ]
      },
      "properties": {
        "label": "Thermal burn",
        "level": 2,
        "pos": "-46652.879,-116704.221",
        "src_id": "186899",
        "weight": "10695.0"
      }
    },
    {
      "type": "Feature",
      "id": "309",
      "geometry": {
        "type": "Point",
        "coordinates": [
          -23.828025,
          -37.57321
        ]
      },
      "properties": {
        "label": "Hyperhidrosis",
        "level": 3,
        "pos": "-70982.259,-107242.804",
        "src_id": "178464",
        "weight": "3569.0"
      }
    },
    {
      "type": "Feature",
      "id": "1245",
      "geometry": {
        "type": "Point",
        "coordinates": [
          -27.154864,
          -36.537539
        ]
      },
      "properties": {
        "label": "Exercise lack of",
        "level": 4,
        "pos": "-85098.75,-101733.818",
        "src_id": "176263",
        "weight": "0.0"
      }
    },
    {
      "type": "Feature",
      "id": "1139",
      "geometry": {
        "type": "Point",
        "coordinates": [
          -22.511253,
          -38.462757
        ]
      },
      "properties": {
        "label": "Impatience",
        "level": 4,
        "pos": "-65394.913,-112035.94900000001",
        "src_id": "178801",
        "weight": "0.0"
      }
    },
    {
      "type": "Feature",
      "id": "778",
      "geometry": {
        "type": "Point",
        "coordinates": [
          -24.58666,
          -40.154439
        ]
      },
      "properties": {
        "label": "Hoodia",
        "level": 4,
        "pos": "-74201.311,-121317.62299999999",
        "src_id": "239827",
        "weight": "0.0"
      }
    },
    {
      "type": "Feature",
      "id": "13",
      "geometry": {
        "type": "Point",
        "coordinates": [
          -8.471193,
          26.251962
        ]
      },
      "properties": {
        "label": "Infection",
        "level": 2,
        "pos": "-5819.919,180644.75999999998",
        "src_id": "178954",
        "weight": "17805.0"
      }
    },
    {
      "type": "Feature",
      "id": "129",
      "geometry": {
        "type": "Point",
        "coordinates": [
          -9.144442,
          19.93883
        ]
      },
      "properties": {
        "label": "Breath odour",
        "level": 1,
        "pos": "-8676.658,151490.99300000002",
        "src_id": "172706",
        "weight": "82731.0"
      }
    },
    {
      "type": "Feature",
      "id": "451",
      "geometry": {
        "type": "Point",
        "coordinates": [
          -15.707506,
          20.406854
        ]
      },
      "properties": {
        "label": "Tonsillectomy",
        "level": 3,
        "pos": "-36525.147,153607.55000000002",
        "src_id": "187153",
        "weight": "1785.0"
      }
    },
    {
      "type": "Feature",
      "id": "1132",
      "geometry": {
        "type": "Point",
        "coordinates": [
          -11.19261,
          20.462999
        ]
      },
      "properties": {
        "label": "Infectious mononucleosis",
        "level": 4,
        "pos": "-17367.479,153861.889",
        "src_id": "178967",
        "weight": "0.0"
      }
    },
    {
      "type": "Feature",
      "id": "545",
      "geometry": {
        "type": "Point",
        "coordinates": [
          -7.071504,
          17.326311
        ]
      },
      "properties": {
        "label": "Elderly",
        "level": 3,
        "pos": "119.256,139786.427",
        "src_id": "175648",
        "weight": "1785.0"
      }
    },
    {
      "type": "Feature",
      "id": "173",
      "geometry": {
        "type": "Point",
        "coordinates": [
          -5.866429,
          13.702059
        ]
      },
      "properties": {
        "label": "Poliomyelitis",
        "level": 1,
        "pos": "5232.653,123816.99",
        "src_id": "183747",
        "weight": "58185.0"
      }
    },
    {
      "type": "Feature",
      "id": "189",
      "geometry": {
        "type": "Point",
        "coordinates": [
          -8.772759,
          14.764874
        ]
      },
      "properties": {
        "label": "Hepatitis A",
        "level": 3,
        "pos": "-7099.527,128471.50400000002",
        "src_id": "177930",
        "weight": "8909.0"
      }
    },
    {
      "type": "Feature",
      "id": "1654",
      "geometry": {
        "type": "Point",
        "coordinates": [
          -11.61702,
          31.765747
        ]
      },
      "properties": {
        "label": "Meticillin",
        "level": 4,
        "pos": "-19168.336,207424.543",
        "src_id": "1535",
        "weight": "0.0"
      }
    },
    {
      "type": "Feature",
      "id": "1408",
      "geometry": {
        "type": "Point",
        "coordinates": [
          -11.402428,
          32.5043
        ]
      },
      "properties": {
        "label": "Bacterial infection",
        "level": 4,
        "pos": "-18257.783,211126.878",
        "src_id": "171220",
        "weight": "0.0"
      }
    },
    {
      "type": "Feature",
      "id": "1380",
      "geometry": {
        "type": "Point",
        "coordinates": [
          -9.270023,
          32.981361
        ]
      },
      "properties": {
        "label": "Bone loss",
        "level": 4,
        "pos": "-9209.532,213534.53",
        "src_id": "172491",
        "weight": "0.0"
      }
    },
    {
      "type": "Feature",
      "id": "1345",
      "geometry": {
        "type": "Point",
        "coordinates": [
          -8.122615,
          32.421699
        ]
      },
      "properties": {
        "label": "Cholera",
        "level": 4,
        "pos": "-4340.833,210711.309",
        "src_id": "173615",
        "weight": "0.0"
      }
    },
    {
      "type": "Feature",
      "id": "1310",
      "geometry": {
        "type": "Point",
        "coordinates": [
          -7.690902,
          32.976128
        ]
      },
      "properties": {
        "label": "Cystitis",
        "level": 4,
        "pos": "-2508.977,213508.05299999999",
        "src_id": "174798",
        "weight": "0.0"
      }
    },
    {
      "type": "Feature",
      "id": "1298",
      "geometry": {
        "type": "Point",
        "coordinates": [
          -7.143595,
          31.669259
        ]
      },
      "properties": {
        "label": "Dental cleaning",
        "level": 4,
        "pos": "-186.644,206943.051",
        "src_id": "174987",
        "weight": "0.0"
      }
    },
    {
      "type": "Feature",
      "id": "932",
      "geometry": {
        "type": "Point",
        "coordinates": [
          -6.335475,
          32.236715
        ]
      },
      "properties": {
        "label": "Pyometra",
        "level": 4,
        "pos": "3242.394,209782.02200000003",
        "src_id": "184652",
        "weight": "0.0"
      }
    },
    {
      "type": "Feature",
      "id": "834",
      "geometry": {
        "type": "Point",
        "coordinates": [
          -9.589074,
          31.938106
        ]
      },
      "properties": {
        "label": "Tooth impacted",
        "level": 4,
        "pos": "-10563.329,208285.90399999998",
        "src_id": "187174",
        "weight": "0.0"
      }
    },
    {
      "type": "Feature",
      "id": "791",
      "geometry": {
        "type": "Point",
        "coordinates": [
          -9.286325,
          31.202918
        ]
      },
      "properties": {
        "label": "White blood cell count",
        "level": 4,
        "pos": "-9278.698999999999,204622.924",
        "src_id": "188846",
        "weight": "0.0"
      }
    },
    {
      "type": "Feature",
      "id": "330",
      "geometry": {
        "type": "Point",
        "coordinates": [
          -10.22619,
          21.044149
        ]
      },
      "properties": {
        "label": "Dental disorder prophylaxis",
        "level": 3,
        "pos": "-13266.747000000001,156500.00600000002",
        "src_id": "174990",
        "weight": "3569.0"
      }
    },
    {
      "type": "Feature",
      "id": "548",
      "geometry": {
        "type": "Point",
        "coordinates": [
          -11.940569,
          22.684465
        ]
      },
      "properties": {
        "label": "Dry mouth",
        "level": 2,
        "pos": "-20541.23,164003.015",
        "src_id": "175420",
        "weight": "23049.0"
      }
    },
    {
      "type": "Feature",
      "id": "322",
      "geometry": {
        "type": "Point",
        "coordinates": [
          -8.382189,
          21.573706
        ]
      },
      "properties": {
        "label": "Dyspepsia",
        "level": 3,
        "pos": "-5442.261,158912.905",
        "src_id": "175492",
        "weight": "3569.0"
      }
    },
    {
      "type": "Feature",
      "id": "187",
      "geometry": {
        "type": "Point",
        "coordinates": [
          -1.66055,
          18.776529
        ]
      },
      "properties": {
        "label": "Immunisation",
        "level": 1,
        "pos": "23079.097999999998,146261.37900000002",
        "src_id": "178766",
        "weight": "62431.0"
      }
    },
    {
      "type": "Feature",
      "id": "497",
      "geometry": {
        "type": "Point",
        "coordinates": [
          -10.402353,
          13.542433
        ]
      },
      "properties": {
        "label": "Mumps",
        "level": 3,
        "pos": "-14014.251,123119.777",
        "src_id": "181227",
        "weight": "3568.0"
      }
    },
    {
      "type": "Feature",
      "id": "1172",
      "geometry": {
        "type": "Point",
        "coordinates": [
          -15.570895,
          16.31158
        ]
      },
      "properties": {
        "label": "Hepatitis",
        "level": 4,
        "pos": "-35945.476,135286.426",
        "src_id": "177929",
        "weight": "0.0"
      }
    },
    {
      "type": "Feature",
      "id": "729",
      "geometry": {
        "type": "Point",
        "coordinates": [
          41.163247,
          20.87754
        ]
      },
      "properties": {
        "label": "Somatotropin",
        "level": 2,
        "pos": "204789.665,155742.649",
        "src_id": "51",
        "weight": "14224.0"
      }
    },
    {
      "type": "Feature",
      "id": "305",
      "geometry": {
        "type": "Point",
        "coordinates": [
          40.706883,
          24.260783
        ]
      },
      "properties": {
        "label": "Hypopituitarism",
        "level": 2,
        "pos": "202853.22300000003,171298.32400000002",
        "src_id": "178634",
        "weight": "12463.0"
      }
    },
    {
      "type": "Feature",
      "id": "181",
      "geometry": {
        "type": "Point",
        "coordinates": [
          37.892381,
          15.034857
        ]
      },
      "properties": {
        "label": "Muscle mass",
        "level": 2,
        "pos": "190910.682,129657.42599999999",
        "src_id": "181256",
        "weight": "19544.0"
      }
    },
    {
      "type": "Feature",
      "id": "303",
      "geometry": {
        "type": "Point",
        "coordinates": [
          41.259733,
          24.957819
        ]
      },
      "properties": {
        "label": "Hypothyroidism",
        "level": 3,
        "pos": "205199.079,174552.807",
        "src_id": "178664",
        "weight": "7131.0"
      }
    },
    {
      "type": "Feature",
      "id": "525",
      "geometry": {
        "type": "Point",
        "coordinates": [
          40.52179,
          25.460117
        ]
      },
      "properties": {
        "label": "Hypogonadism",
        "level": 3,
        "pos": "202067.833,176909.485",
        "src_id": "178597",
        "weight": "1785.0"
      }
    },
    {
      "type": "Feature",
      "id": "541",
      "geometry": {
        "type": "Point",
        "coordinates": [
          40.527362,
          8.725763
        ]
      },
      "properties": {
        "label": "Excoriation",
        "level": 2,
        "pos": "202091.467,102274.61",
        "src_id": "176257",
        "weight": "21288.0"
      }
    },
    {
      "type": "Feature",
      "id": "1049",
      "geometry": {
        "type": "Point",
        "coordinates": [
          38.716249,
          21.608841
        ]
      },
      "properties": {
        "label": "Muscle atrophy",
        "level": 4,
        "pos": "194406.53399999999,159073.3",
        "src_id": "181237",
        "weight": "0.0"
      }
    },
    {
      "type": "Feature",
      "id": "814",
      "geometry": {
        "type": "Point",
        "coordinates": [
          41.432701,
          20.088965
        ]
      },
      "properties": {
        "label": "Underweight",
        "level": 4,
        "pos": "205933.019,152169.256",
        "src_id": "187667",
        "weight": "0.0"
      }
    },
    {
      "type": "Feature",
      "id": "703",
      "geometry": {
        "type": "Point",
        "coordinates": [
          44.454624,
          30.567459
        ]
      },
      "properties": {
        "label": "Levothyroxine",
        "level": 3,
        "pos": "218755.68899999998,201479.718",
        "src_id": "440",
        "weight": "3568.0"
      }
    },
    {
      "type": "Feature",
      "id": "1148",
      "geometry": {
        "type": "Point",
        "coordinates": [
          42.75349,
          31.230342
        ]
      },
      "properties": {
        "label": "Hyperthyroidism",
        "level": 4,
        "pos": "211537.408,204759.037",
        "src_id": "178535",
        "weight": "0.0"
      }
    },
    {
      "type": "Feature",
      "id": "1280",
      "geometry": {
        "type": "Point",
        "coordinates": [
          38.852405,
          27.881766
        ]
      },
      "properties": {
        "label": "Dyscalculia",
        "level": 4,
        "pos": "194984.267,188414.45200000002",
        "src_id": "175470",
        "weight": "0.0"
      }
    },
    {
      "type": "Feature",
      "id": "687",
      "geometry": {
        "type": "Point",
        "coordinates": [
          43.489474,
          2.36482
        ]
      },
      "properties": {
        "label": "Chlorhexidine",
        "level": 2,
        "pos": "214660.35400000002,75131.824",
        "src_id": "864",
        "weight": "23049.0"
      }
    },
    {
      "type": "Feature",
      "id": "259",
      "geometry": {
        "type": "Point",
        "coordinates": [
          -49.316087,
          -23.272741
        ]
      },
      "properties": {
        "label": "Infliximab",
        "level": 2,
        "pos": "-179133.576,-36534.402",
        "src_id": "63",
        "weight": "56444.0"
      }
    },
    {
      "type": "Feature",
      "id": "700",
      "geometry": {
        "type": "Point",
        "coordinates": [
          -43.787072,
          -23.899384
        ]
      },
      "properties": {
        "label": "Methotrexate",
        "level": 2,
        "pos": "-155672.777,-39436.943999999996",
        "src_id": "550",
        "weight": "26565.0"
      }
    },
    {
      "type": "Feature",
      "id": "246",
      "geometry": {
        "type": "Point",
        "coordinates": [
          -49.906111,
          -24.382051
        ]
      },
      "properties": {
        "label": "Prednisone",
        "level": 2,
        "pos": "-181637.17500000002,-41682.192",
        "src_id": "622",
        "weight": "16008.0"
      }
    },
    {
      "type": "Feature",
      "id": "244",
      "geometry": {
        "type": "Point",
        "coordinates": [
          -47.254379,
          -17.928583
        ]
      },
      "properties": {
        "label": "Prednisolone",
        "level": 2,
        "pos": "-170385.309,-12287.945",
        "src_id": "846",
        "weight": "63101.0"
      }
    },
    {
      "type": "Feature",
      "id": "123",
      "geometry": {
        "type": "Point",
        "coordinates": [
          -50.817856,
          -23.052801
        ]
      },
      "properties": {
        "label": "Infusion",
        "level": 3,
        "pos": "-185505.91199999998,-35518.92",
        "src_id": "179021",
        "weight": "8914.0"
      }
    },
    {
      "type": "Feature",
      "id": "478",
      "geometry": {
        "type": "Point",
        "coordinates": [
          -48.829157,
          -25.400513
        ]
      },
      "properties": {
        "label": "Polymyositis",
        "level": 2,
        "pos": "-177067.428,-46448.284999999996",
        "src_id": "183780",
        "weight": "24808.0"
      }
    },
    {
      "type": "Feature",
      "id": "710",
      "geometry": {
        "type": "Point",
        "coordinates": [
          -48.591596,
          -23.877405
        ]
      },
      "properties": {
        "label": "Ipratropium bromide",
        "level": 2,
        "pos": "-176059.41100000002,-39334.901000000005",
        "src_id": "322",
        "weight": "10680.0"
      }
    },
    {
      "type": "Feature",
      "id": "1312",
      "geometry": {
        "type": "Point",
        "coordinates": [
          -52.506373,
          -25.121511
        ]
      },
      "properties": {
        "label": "Cushingoid",
        "level": 3,
        "pos": "-192670.652,-45138.71000000001",
        "src_id": "174732",
        "weight": "0.0"
      }
    },
    {
      "type": "Feature",
      "id": "1141",
      "geometry": {
        "type": "Point",
        "coordinates": [
          -52.130173,
          -24.466129
        ]
      },
      "properties": {
        "label": "Immunodeficiency",
        "level": 3,
        "pos": "-191074.353,-42074.172",
        "src_id": "178769",
        "weight": "0.0"
      }
    },
    {
      "type": "Feature",
      "id": "717",
      "geometry": {
        "type": "Point",
        "coordinates": [
          -44.910352,
          -21.317871
        ]
      },
      "properties": {
        "label": "Mesalazine",
        "level": 3,
        "pos": "-160439.099,-27565.076999999997",
        "src_id": "235",
        "weight": "1785.0"
      }
    },
    {
      "type": "Feature",
      "id": "195",
      "geometry": {
        "type": "Point",
        "coordinates": [
          -45.625854,
          -15.509775
        ]
      },
      "properties": {
        "label": "Encephalitis",
        "level": 2,
        "pos": "-163475.13499999998,-1566.182",
        "src_id": "175799",
        "weight": "68208.0"
      }
    },
    {
      "type": "Feature",
      "id": "805",
      "geometry": {
        "type": "Point",
        "coordinates": [
          -46.920601,
          -22.968521
        ]
      },
      "properties": {
        "label": "Vasculitis",
        "level": 3,
        "pos": "-168969.019,-35130.226",
        "src_id": "188335",
        "weight": "0.0"
      }
    },
    {
      "type": "Feature",
      "id": "1782",
      "geometry": {
        "type": "Point",
        "coordinates": [
          -53.526727,
          -21.811938
        ]
      },
      "properties": {
        "label": "Rituximab",
        "level": 3,
        "pos": "-197000.234,-29820.21",
        "src_id": "71",
        "weight": "0.0"
      }
    },
    {
      "type": "Feature",
      "id": "648",
      "geometry": {
        "type": "Point",
        "coordinates": [
          -54.701617,
          -19.186087
        ]
      },
      "properties": {
        "label": "Sodium Chloride",
        "level": 3,
        "pos": "-201985.539,-17918.851",
        "src_id": "8096",
        "weight": "1785.0"
      }
    },
    {
      "type": "Feature",
      "id": "1669",
      "geometry": {
        "type": "Point",
        "coordinates": [
          -54.895411,
          -20.86341
        ]
      },
      "properties": {
        "label": "Ketamine",
        "level": 4,
        "pos": "-202807.85,-25497.421",
        "src_id": "1205",
        "weight": "0.0"
      }
    },
    {
      "type": "Feature",
      "id": "1614",
      "geometry": {
        "type": "Point",
        "coordinates": [
          -55.213634,
          -24.466704
        ]
      },
      "properties": {
        "label": "Belimumab",
        "level": 4,
        "pos": "-204158.14,-42076.853",
        "src_id": "7838",
        "weight": "0.0"
      }
    },
    {
      "type": "Feature",
      "id": "113",
      "geometry": {
        "type": "Point",
        "coordinates": [
          -49.074534,
          -25.904082
        ]
      },
      "properties": {
        "label": "Scleroderma",
        "level": 2,
        "pos": "-178108.62399999998,-48819.623999999996",
        "src_id": "185612",
        "weight": "23105.0"
      }
    },
    {
      "type": "Feature",
      "id": "408",
      "geometry": {
        "type": "Point",
        "coordinates": [
          -54.242507,
          -26.103663
        ]
      },
      "properties": {
        "label": "Formoterol",
        "level": 3,
        "pos": "-200037.43600000002,-49762.254",
        "src_id": "969",
        "weight": "8909.0"
      }
    },
    {
      "type": "Feature",
      "id": "1686",
      "geometry": {
        "type": "Point",
        "coordinates": [
          -46.246801,
          -20.101609
        ]
      },
      "properties": {
        "label": "Azathioprine",
        "level": 3,
        "pos": "-166109.937,-22045.368",
        "src_id": "979",
        "weight": "0.0"
      }
    },
    {
      "type": "Feature",
      "id": "209",
      "geometry": {
        "type": "Point",
        "coordinates": [
          -42.19587,
          -13.56226
        ]
      },
      "properties": {
        "label": "Brain injury",
        "level": 1,
        "pos": "-148920.969,6974.688",
        "src_id": "172600",
        "weight": "76811.0"
      }
    },
    {
      "type": "Feature",
      "id": "1257",
      "geometry": {
        "type": "Point",
        "coordinates": [
          -49.212955,
          -17.399335
        ]
      },
      "properties": {
        "label": "Encephalitis autoimmune",
        "level": 4,
        "pos": "-178695.972,-9930.166",
        "src_id": "175802",
        "weight": "0.0"
      }
    },
    {
      "type": "Feature",
      "id": "1083",
      "geometry": {
        "type": "Point",
        "coordinates": [
          -49.549457,
          -18.151084
        ]
      },
      "properties": {
        "label": "Lumbar puncture",
        "level": 4,
        "pos": "-180123.819,-13281.277",
        "src_id": "180161",
        "weight": "0.0"
      }
    },
    {
      "type": "Feature",
      "id": "1678",
      "geometry": {
        "type": "Point",
        "coordinates": [
          -56.980816,
          -23.532078
        ]
      },
      "properties": {
        "label": "Heparin",
        "level": 4,
        "pos": "-211656.666,-37733.937",
        "src_id": "1093",
        "weight": "0.0"
      }
    },
    {
      "type": "Feature",
      "id": "1652",
      "geometry": {
        "type": "Point",
        "coordinates": [
          -56.640913,
          -26.432389
        ]
      },
      "properties": {
        "label": "Hydroxychloroquine",
        "level": 4,
        "pos": "-210214.388,-51318.356999999996",
        "src_id": "1543",
        "weight": "0.0"
      }
    },
    {
      "type": "Feature",
      "id": "467",
      "geometry": {
        "type": "Point",
        "coordinates": [
          -50.657905,
          -27.258992
        ]
      },
      "properties": {
        "label": "Sarcoidosis",
        "level": 3,
        "pos": "-184827.196,-55251.108",
        "src_id": "185513",
        "weight": "5349.0"
      }
    },
    {
      "type": "Feature",
      "id": "560",
      "geometry": {
        "type": "Point",
        "coordinates": [
          -53.452658,
          -30.733485
        ]
      },
      "properties": {
        "label": "Colitis",
        "level": 3,
        "pos": "-196685.942,-72117.89",
        "src_id": "173903",
        "weight": "1785.0"
      }
    },
    {
      "type": "Feature",
      "id": "1704",
      "geometry": {
        "type": "Point",
        "coordinates": [
          -57.340998,
          -25.093089
        ]
      },
      "properties": {
        "label": "Mometasone",
        "level": 3,
        "pos": "-213185.001,-45005.471",
        "src_id": "750",
        "weight": "0.0"
      }
    },
    {
      "type": "Feature",
      "id": "669",
      "geometry": {
        "type": "Point",
        "coordinates": [
          -58.85066,
          -22.361257
        ]
      },
      "properties": {
        "label": "Budesonide",
        "level": 3,
        "pos": "-219590.82200000001,-32336.695",
        "src_id": "1206",
        "weight": "5349.0"
      }
    },
    {
      "type": "Feature",
      "id": "337",
      "geometry": {
        "type": "Point",
        "coordinates": [
          -45.433184,
          -18.170232
        ]
      },
      "properties": {
        "label": "Concussion",
        "level": 3,
        "pos": "-162657.593,-13366.821",
        "src_id": "174060",
        "weight": "3569.0"
      }
    },
    {
      "type": "Feature",
      "id": "1315",
      "geometry": {
        "type": "Point",
        "coordinates": [
          -45.631633,
          -14.537902
        ]
      },