{
  "type": "FeatureCollection",
  "features": [
    {
      "type": "Feature",
      "id": "595",
      "geometry": {
        "type": "Point",
        "coordinates": [
          -12.134997,
          -10.023157
        ]
      },
      "properties": {
        "label": "Cetuximab",
        "level": 4,
        "pos": "-37901.795,-51805.069",
        "src_id": "2",
        "weight": "0.0"
      }
    },
    {
      "type": "Feature",
      "id": "380",
      "geometry": {
        "type": "Point",
        "coordinates": [
          -9.61719,
          -11.119734
        ]
      },
      "properties": {
        "label": "Bevacizumab",
        "level": 1,
        "pos": "-27765.96,-57085.907",
        "src_id": "105",
        "weight": "4924.833333333333"
      }
    },
    {
      "type": "Feature",
      "id": "45",
      "geometry": {
        "type": "Point",
        "coordinates": [
          -10.008199,
          -11.100561
        ]
      },
      "properties": {
        "label": "Encephalopathy",
        "level": 1,
        "pos": "-29340.035,-56993.41299999999",
        "src_id": "175833",
        "weight": "235240.7503662998"
      }
    },
    {
      "type": "Feature",
      "id": "212",
      "geometry": {
        "type": "Point",
        "coordinates": [
          -9.488443,
          -11.533634
        ]
      },
      "properties": {
        "label": "Necrosis",
        "level": 3,
        "pos": "-27247.671000000002,-59084.208",
        "src_id": "181561",
        "weight": "21180.999999999996"
      }
    },
    {
      "type": "Feature",
      "id": "1372",
      "geometry": {
        "type": "Point",
        "coordinates": [
          -11.199801,
          -7.095734
        ]
      },
      "properties": {
        "label": "Life support",
        "level": 1,
        "pos": "-34137.006,-37789.164",
        "src_id": "179957",
        "weight": "3.0"
      }
    },
    {
      "type": "Feature",
      "id": "3784",
      "geometry": {
        "type": "Point",
        "coordinates": [
          -10.99108,
          -7.600239
        ]
      },
      "properties": {
        "label": "Radiation necrosis",
        "level": 5,
        "pos": "-33296.770000000004,-40197.242000000006",
        "src_id": "184710",
        "weight": "0.0"
      }
    },
    {
      "type": "Feature",
      "id": "28",
      "geometry": {
        "type": "Point",
        "coordinates": [
          -7.064613,
          -16.35665
        ]
      },
      "properties": {
        "label": "Childhood",
        "level": 1,
        "pos": "-17490.159,-82617.211",
        "src_id": "173551",
        "weight": "333659.46396103903"
      }
    },
    {
      "type": "Feature",
      "id": "159",
      "geometry": {
        "type": "Point",
        "coordinates": [
          -10.587744,
          -11.953966
        ]
      },
      "properties": {
        "label": "Developmental delay",
        "level": 3,
        "pos": "-31673.084,-61116.582",
        "src_id": "175069",
        "weight": "21998.874999999996"
      }
    },
    {
      "type": "Feature",
      "id": "9082",
      "geometry": {
        "type": "Point",
        "coordinates": [
          -11.104987,
          -11.467955
        ]
      },
      "properties": {
        "label": "Furuncle",
        "level": 6,
        "pos": "-33755.324,-58766.916000000005",
        "src_id": "176970",
        "weight": "0.0"
      }
    },
    {
      "type": "Feature",
      "id": "1964",
      "geometry": {
        "type": "Point",
        "coordinates": [
          -9.28629,
          -12.132252
        ]
      },
      "properties": {
        "label": "Therapeutic procedure",
        "level": 5,
        "pos": "-26433.867,-61979.568",
        "src_id": "186884",
        "weight": "0.0"
      }
    },
    {
      "type": "Feature",
      "id": "325",
      "geometry": {
        "type": "Point",
        "coordinates": [
          -14.318489,
          -8.041559
        ]
      },
      "properties": {
        "label": "Respiratory failure",
        "level": 1,
        "pos": "-46691.777,-42306.042",
        "src_id": "185134",
        "weight": "9496.534615384622"
      }
    },
    {
      "type": "Feature",
      "id": "2059",
      "geometry": {
        "type": "Point",
        "coordinates": [
          -10.018399,
          -8.697946
        ]
      },
      "properties": {
        "label": "Extracorporeal membrane oxygenation",
        "level": 5,
        "pos": "-29381.086,-45446.796",
        "src_id": "176336",
        "weight": "0.0"
      }
    },
    {
      "type": "Feature",
      "id": "626",
      "geometry": {
        "type": "Point",
        "coordinates": [
          -14.338879,
          -9.123406
        ]
      },
      "properties": {
        "label": "Respiratory arrest",
        "level": 5,
        "pos": "-46773.861,-47485.505000000005",
        "src_id": "185125",
        "weight": "0.0"
      }
    },
    {
      "type": "Feature",
      "id": "596",
      "geometry": {
        "type": "Point",
        "coordinates": [
          -10.577649,
          -8.347169
        ]
      },
      "properties": {
        "label": "Obstruction",
        "level": 2,
        "pos": "-31632.443,-43767.699",
        "src_id": "181995",
        "weight": "9022.25"
      }
    },
    {
      "type": "Feature",
      "id": "523",
      "geometry": {
        "type": "Point",
        "coordinates": [
          -16.275807,
          -9.574827
        ]
      },
      "properties": {
        "label": "Respiratory distress",
        "level": 4,
        "pos": "-54571.266,-49651.278",
        "src_id": "185132",
        "weight": "409.83333333333337"
      }
    },
    {
      "type": "Feature",
      "id": "1482",
      "geometry": {
        "type": "Point",
        "coordinates": [
          -10.756984,
          -7.882307
        ]
      },
      "properties": {
        "label": "Obstructive airways disorder",
        "level": 4,
        "pos": "-32354.376000000004,-41544.807",
        "src_id": "181997",
        "weight": "0.0"
      }
    },
    {
      "type": "Feature",
      "id": "7384",
      "geometry": {
        "type": "Point",
        "coordinates": [
          -9.884793,
          -10.253858
        ]
      },
      "properties": {
        "label": "Technetium Tc-99m sestamibi",
        "level": 6,
        "pos": "-28843.243000000002,-52914.524999999994",
        "src_id": "8103",
        "weight": "0.0"
      }
    },
    {
      "type": "Feature",
      "id": "430",
      "geometry": {
        "type": "Point",
        "coordinates": [
          -50.616355,
          45.321992
        ]
      },
      "properties": {
        "label": "Darbepoetin alfa",
        "level": 4,
        "pos": "-192814.54400000002,237108.34399999998",
        "src_id": "12",
        "weight": "35.0"
      }
    },
    {
      "type": "Feature",
      "id": "792",
      "geometry": {
        "type": "Point",
        "coordinates": [
          -50.974029,
          46.082766
        ]
      },
      "properties": {
        "label": "Alefacept",
        "level": 4,
        "pos": "-194254.413,242265.28",
        "src_id": "87",
        "weight": "0.0"
      }
    },
    {
      "type": "Feature",
      "id": "630",
      "geometry": {
        "type": "Point",
        "coordinates": [
          -52.440562,
          45.704734
        ]
      },
      "properties": {
        "label": "Efalizumab",
        "level": 4,
        "pos": "-200158.17,239694.002",
        "src_id": "90",
        "weight": "0.0"
      }
    },
    {
      "type": "Feature",
      "id": "274",
      "geometry": {
        "type": "Point",
        "coordinates": [
          -51.032581,
          46.784867
        ]
      },
      "properties": {
        "label": "Imatinib",
        "level": 2,
        "pos": "-194490.117,247087.984",
        "src_id": "606",
        "weight": "41192.93686868686"
      }
    },
    {
      "type": "Feature",
      "id": "603",
      "geometry": {
        "type": "Point",
        "coordinates": [
          -50.995841,
          44.957217
        ]
      },
      "properties": {
        "label": "Ximelagatran",
        "level": 4,
        "pos": "-194342.221,234660.257",
        "src_id": "4620",
        "weight": "0.0"
      }
    },
    {
      "type": "Feature",
      "id": "561",
      "geometry": {
        "type": "Point",
        "coordinates": [
          -53.172741,
          46.34603
        ]
      },
      "properties": {
        "label": "Pegfilgrastim",
        "level": 4,
        "pos": "-203105.671,244066.362",
        "src_id": "19",
        "weight": "0.0"
      }
    },
    {
      "type": "Feature",
      "id": "322",
      "geometry": {
        "type": "Point",
        "coordinates": [
          -52.137652,
          48.056148
        ]
      },
      "properties": {
        "label": "Alemtuzumab",
        "level": 3,
        "pos": "-198938.764,255983.139",
        "src_id": "82",
        "weight": "2088.6666666666665"
      }
    },
    {
      "type": "Feature",
      "id": "510",
      "geometry": {
        "type": "Point",
        "coordinates": [
          -49.341947,
          44.53115
        ]
      },
      "properties": {
        "label": "Rosuvastatin",
        "level": 4,
        "pos": "-187684.213,231820.456",
        "src_id": "1082",
        "weight": "549.8333333333333"
      }
    },
    {
      "type": "Feature",
      "id": "376",
      "geometry": {
        "type": "Point",
        "coordinates": [
          -48.868539,
          44.877645
        ]
      },
      "properties": {
        "label": "Bosentan",
        "level": 2,
        "pos": "-185778.427,234128.311",
        "src_id": "546",
        "weight": "146.75"
      }
    },
    {
      "type": "Feature",
      "id": "343",
      "geometry": {
        "type": "Point",
        "coordinates": [
          -52.910421,
          47.639928
        ]
      },
      "properties": {
        "label": "Gefitinib",
        "level": 3,
        "pos": "-202049.662,253047.104",
        "src_id": "308",
        "weight": "9791.583333333332"
      }
    },
    {
      "type": "Feature",
      "id": "277",
      "geometry": {
        "type": "Point",
        "coordinates": [
          -51.034252,
          47.437619
        ]
      },
      "properties": {
        "label": "Doxorubicin",
        "level": 4,
        "pos": "-194496.85,251628.451",
        "src_id": "983",
        "weight": "19.0"
      }
    },
    {
      "type": "Feature",
      "id": "567",
      "geometry": {
        "type": "Point",
        "coordinates": [
          -48.848969,
          44.127049
        ]
      },
      "properties": {
        "label": "Lopinavir",
        "level": 4,
        "pos": "-185699.647,229146.203",
        "src_id": "1533",
        "weight": "116.5"
      }
    },
    {
      "type": "Feature",
      "id": "346",
      "geometry": {
        "type": "Point",
        "coordinates": [
          -39.264604,
          42.786001
        ]
      },
      "properties": {
        "label": "Tadalafil",
        "level": 2,
        "pos": "-147116.276,220400.002",
        "src_id": "806",
        "weight": "13069.999999999998"
      }
    },
    {
      "type": "Feature",
      "id": "957",
      "geometry": {
        "type": "Point",
        "coordinates": [
          4.267309,
          -50.267304
        ]
      },
      "properties": {
        "label": "Erythropoietin",
        "level": 4,
        "pos": "28128.27,-280218.372",
        "src_id": "16",
        "weight": "0.0"
      }
    },
    {
      "type": "Feature",
      "id": "6920",
      "geometry": {
        "type": "Point",
        "coordinates": [
          4.213621,
          -50.996061
        ]
      },
      "properties": {
        "label": "Hysterotomy",
        "level": 5,
        "pos": "27912.135,-285657.379",
        "src_id": "178692",
        "weight": "0.0"
      }
    },
    {
      "type": "Feature",
      "id": "3517",
      "geometry": {
        "type": "Point",
        "coordinates": [
          4.377646,
          -46.927407
        ]
      },
      "properties": {
        "label": "Iron deficiency",
        "level": 4,
        "pos": "28572.454,-256299.20700000002",
        "src_id": "179432",
        "weight": "0.0"
      }
    },
    {
      "type": "Feature",
      "id": "6900",
      "geometry": {
        "type": "Point",
        "coordinates": [
          6.825545,
          -50.89515
        ]
      },
      "properties": {
        "label": "Nephrogenic anaemia",
        "level": 5,
        "pos": "38426.846,-284899.184",
        "src_id": "181659",
        "weight": "0.0"
      }
    },
    {
      "type": "Feature",
      "id": "5185",
      "geometry": {
        "type": "Point",
        "coordinates": [
          2.792278,
          -46.239004
        ]
      },
      "properties": {
        "label": "Periodic limb movement disorder",
        "level": 4,
        "pos": "22190.298,-251557.58800000002",
        "src_id": "183150",
        "weight": "0.0"
      }
    },
    {
      "type": "Feature",
      "id": "615",
      "geometry": {
        "type": "Point",
        "coordinates": [
          -65.609597,
          2.978216
        ]
      },
      "properties": {
        "label": "Anakinra",
        "level": 4,
        "pos": "-253172.188,9992.787",
        "src_id": "26",
        "weight": "1.0"
      }
    },
    {
      "type": "Feature",
      "id": "771",
      "geometry": {
        "type": "Point",
        "coordinates": [
          -61.81255,
          2.539733
        ]
      },
      "properties": {
        "label": "Drotrecogin alfa",
        "level": 4,
        "pos": "-237886.581,7914.629",
        "src_id": "54",
        "weight": "0.0"
      }
    },
    {
      "type": "Feature",
      "id": "469",
      "geometry": {
        "type": "Point",
        "coordinates": [
          -65.375837,
          1.285924
        ]
      },
      "properties": {
        "label": "Etoricoxib",
        "level": 4,
        "pos": "-252231.151,1975.751",
        "src_id": "1559",
        "weight": "298.25"
      }
    },
    {
      "type": "Feature",
      "id": "960",
      "geometry": {
        "type": "Point",
        "coordinates": [
          -56.707528,
          1.997665
        ]
      },
      "properties": {
        "label": "Lanthanum carbonate",
        "level": 4,
        "pos": "-217335.508,5346.486",
        "src_id": "5847",
        "weight": "0.0"
      }
    },
    {
      "type": "Feature",
      "id": "1403",
      "geometry": {
        "type": "Point",
        "coordinates": [
          -53.249742,
          2.764411
        ]
      },
      "properties": {
        "label": "Anidulafungin",
        "level": 4,
        "pos": "-203415.65,8979.383",
        "src_id": "352",
        "weight": "0.0"
      }
    },
    {
      "type": "Feature",
      "id": "865",
      "geometry": {
        "type": "Point",
        "coordinates": [
          -60.530988,
          1.965736
        ]
      },
      "properties": {
        "label": "Eplerenone",
        "level": 4,
        "pos": "-232727.44700000001,5195.246",
        "src_id": "686",
        "weight": "0.0"
      }
    },
    {
      "type": "Feature",
      "id": "1214",
      "geometry": {
        "type": "Point",
        "coordinates": [
          -58.475167,
          2.503672
        ]
      },
      "properties": {
        "label": "Methyl aminolevulinate",
        "level": 4,
        "pos": "-224451.42,7743.750999999999",
        "src_id": "978",
        "weight": "0.0"
      }
    },
    {
      "type": "Feature",
      "id": "369",
      "geometry": {
        "type": "Point",
        "coordinates": [
          13.027099,
          -30.363927
        ]
      },
      "properties": {
        "label": "Immune Globulin Human",
        "level": 4,
        "pos": "63392.179,-155095.937",
        "src_id": "28",
        "weight": "627.8333333333333"
      }
    },
    {
      "type": "Feature",
      "id": "4417",
      "geometry": {
        "type": "Point",
        "coordinates": [
          10.966233,
          -26.663736
        ]
      },
      "properties": {
        "label": "Immunoglobulin therapy",
        "level": 4,
        "pos": "55095.835999999996,-135155.964",
        "src_id": "178774",
        "weight": "21.5"
      }
    },
    {
      "type": "Feature",
      "id": "2770",
      "geometry": {
        "type": "Point",
        "coordinates": [
          11.556758,
          -28.035032
        ]
      },
      "properties": {
        "label": "Hormone therapy",
        "level": 5,
        "pos": "57473.087,-142464.787",
        "src_id": "178307",
        "weight": "0.0"
      }
    },
    {
      "type": "Feature",
      "id": "3752",
      "geometry": {
        "type": "Point",
        "coordinates": [
          13.309594,
          -30.799358
        ]
      },
      "properties": {
        "label": "Thyroiditis",
        "level": 5,
        "pos": "64529.412,-157490.286",
        "src_id": "187049",
        "weight": "0.0"
      }
    },
    {
      "type": "Feature",
      "id": "491",
      "geometry": {
        "type": "Point",
        "coordinates": [
          9.342329,
          -24.759155
        ]
      },
      "properties": {
        "label": "Musculoskeletal stiffness",
        "level": 4,
        "pos": "48558.555,-125148.343",
        "src_id": "181286",
        "weight": "0.0"
      }
    },
    {
      "type": "Feature",
      "id": "1854",
      "geometry": {
        "type": "Point",
        "coordinates": [
          7.029611,
          -20.897954
        ]
      },
      "properties": {
        "label": "Stiff person syndrome",
        "level": 4,
        "pos": "39248.353,-105311.14499999999",
        "src_id": "186411",
        "weight": "491.75"
      }
    },
    {
      "type": "Feature",
      "id": "692",
      "geometry": {
        "type": "Point",
        "coordinates": [
          29.790422,
          6.673442
        ]
      },
      "properties": {
        "label": "Insulin Human",
        "level": 4,
        "pos": "130875.57100000001,27551.058999999997",
        "src_id": "30",
        "weight": "0.0"
      }
    },
    {
      "type": "Feature",
      "id": "624",
      "geometry": {
        "type": "Point",
        "coordinates": [
          37.760632,
          7.452245
        ]
      },
      "properties": {
        "label": "Fondaparinux sodium",
        "level": 4,
        "pos": "162960.897,31266.076999999997",
        "src_id": "556",
        "weight": "0.0"
      }
    },
    {
      "type": "Feature",
      "id": "641",
      "geometry": {
        "type": "Point",
        "coordinates": [
          36.087821,
          7.573204
        ]
      },
      "properties": {
        "label": "Ivabradine",
        "level": 4,
        "pos": "156226.742,31843.655",
        "src_id": "8028",
        "weight": "0.0"
      }
    },
    {
      "type": "Feature",
      "id": "85",
      "geometry": {
        "type": "Point",
        "coordinates": [
          27.052573,
          6.230684
        ]
      },
      "properties": {
        "label": "Blood insulin",
        "level": 2,
        "pos": "119853.92899999999,25441.706",
        "src_id": "172218",
        "weight": "33487.60873015873"
      }
    },
    {
      "type": "Feature",
      "id": "554",
      "geometry": {
        "type": "Point",
        "coordinates": [
          40.310494,
          7.08958
        ]
      },
      "properties": {
        "label": "Botulinum Toxin Type B",
        "level": 4,
        "pos": "173225.772,29535.332000000002",
        "src_id": "41",
        "weight": "0.0"
      }
    },
    {
      "type": "Feature",
      "id": "873",
      "geometry": {
        "type": "Point",
        "coordinates": [
          34.28822,
          7.729537
        ]
      },
      "properties": {
        "label": "Insulin Aspart",
        "level": 4,
        "pos": "148982.155,32590.373999999996",
        "src_id": "1280",
        "weight": "0.0"
      }
    },
    {
      "type": "Feature",
      "id": "57",
      "geometry": {
        "type": "Point",
        "coordinates": [
          21.149855,
          5.761525
        ]
      },
      "properties": {
        "label": "Glucose",
        "level": 2,
        "pos": "96091.614,23208.521",
        "src_id": "8280",
        "weight": "104665.71666666676"
      }
    },
    {
      "type": "Feature",
      "id": "1872",
      "geometry": {
        "type": "Point",
        "coordinates": [
          33.460064,
          7.030508
        ]
      },
      "properties": {
        "label": "Blood glucose decreased",
        "level": 5,
        "pos": "145648.29,29253.547000000002",
        "src_id": "172155",
        "weight": "0.0"
      }
    },
    {
      "type": "Feature",
      "id": "4064",
      "geometry": {
        "type": "Point",
        "coordinates": [
          36.27048,
          8.481755
        ]
      },
      "properties": {
        "label": "Indirect calorimetry",
        "level": 2,
        "pos": "156962.063,36187.28200000001",
        "src_id": "178924",
        "weight": "0.0"
      }
    },
    {
      "type": "Feature",
      "id": "8776",
      "geometry": {
        "type": "Point",
        "coordinates": [
          32.819148,
          7.552395
        ]
      },
      "properties": {
        "label": "Blood insulin increased",
        "level": 5,
        "pos": "143068.17799999999,31744.282",
        "src_id": "172221",
        "weight": "0.0"
      }
    },
    {
      "type": "Feature",
      "id": "746",
      "geometry": {
        "type": "Point",
        "coordinates": [
          43.826807,
          7.007955
        ]
      },
      "properties": {
        "label": "Sorafenib",
        "level": 4,
        "pos": "187381.23799999998,29145.982",
        "src_id": "387",
        "weight": "0.0"
      }
    },
    {
      "type": "Feature",
      "id": "667",
      "geometry": {
        "type": "Point",
        "coordinates": [
          44.483489,
          7.48473
        ]
      },
      "properties": {
        "label": "Insulin Detemir",
        "level": 4,
        "pos": "190024.821,31421.181",
        "src_id": "1281",
        "weight": "0.0"
      }
    },
    {
      "type": "Feature",
      "id": "8801",
      "geometry": {
        "type": "Point",
        "coordinates": [
          39.396817,
          7.834067
        ]
      },
      "properties": {
        "label": "Insulin Degludec",
        "level": 5,
        "pos": "169547.618,33089.814",
        "src_id": "8370",
        "weight": "0.0"
      }
    },
    {
      "type": "Feature",
      "id": "1687",
      "geometry": {
        "type": "Point",
        "coordinates": [
          18.385774,
          4.771713
        ]
      },
      "properties": {
        "label": "Fructose",
        "level": 2,
        "pos": "84964.371,18502.893",
        "src_id": "3934",
        "weight": "0.0"
      }
    },
    {
      "type": "Feature",
      "id": "1015",
      "geometry": {
        "type": "Point",
        "coordinates": [
          25.872408,
          6.228418
        ]
      },
      "properties": {
        "label": "Hypometabolism",
        "level": 4,
        "pos": "115102.985,25430.920000000002",
        "src_id": "178611",
        "weight": "11.0"
      }
    },
    {
      "type": "Feature",
      "id": "3691",
      "geometry": {
        "type": "Point",
        "coordinates": [
          41.505074,
          8.026481
        ]
      },
      "properties": {
        "label": "Low carbohydrate diet",
        "level": 2,
        "pos": "178034.745,34009.479",
        "src_id": "180136",
        "weight": "0.0"
      }
    },
    {
      "type": "Feature",
      "id": "1137",
      "geometry": {
        "type": "Point",
        "coordinates": [
          -62.902819,
          34.920243
        ]
      },
      "properties": {
        "label": "Palifermin",
        "level": 4,
        "pos": "-242275.631,172498.791",
        "src_id": "38",
        "weight": "0.0"
      }
    },
    {
      "type": "Feature",
      "id": "1195",
      "geometry": {
        "type": "Point",
        "coordinates": [
          -58.193692,
          36.087538
        ]
      },
      "properties": {
        "label": "Calcipotriol",
        "level": 4,
        "pos": "-223318.296,179286.964",
        "src_id": "2182",
        "weight": "0.0"
      }
    },
    {
      "type": "Feature",
      "id": "2020",
      "geometry": {
        "type": "Point",
        "coordinates": [
          -51.092857,
          33.754782
        ]
      },
      "properties": {
        "label": "Desmoteplase",
        "level": 4,
        "pos": "-194732.765,165816.943",
        "src_id": "4641",
        "weight": "0.0"
      }
    },
    {
      "type": "Feature",
      "id": "1410",
      "geometry": {
        "type": "Point",
        "coordinates": [
          -56.341165,
          35.855016
        ]
      },
      "properties": {
        "label": "Ularitide",
        "level": 4,
        "pos": "-215860.658,177926.859",
        "src_id": "4733",
        "weight": "0.0"
      }
    },
    {
      "type": "Feature",
      "id": "401",
      "geometry": {
        "type": "Point",
        "coordinates": [
          22.91779,
          3.225562
        ]
      },
      "properties": {
        "label": "Omalizumab",
        "level": 4,
        "pos": "103208.706,11165.427",
        "src_id": "42",
        "weight": "10.0"
      }
    },
    {
      "type": "Feature",
      "id": "382",
      "geometry": {
        "type": "Point",
        "coordinates": [
          22.06456,
          3.75281
        ]
      },
      "properties": {
        "label": "Adalimumab",
        "level": 3,
        "pos": "99773.89700000001,13666.029999999999",
        "src_id": "50",
        "weight": "1156.6666666666667"
      }
    },
    {
      "type": "Feature",
      "id": "501",
      "geometry": {
        "type": "Point",
        "coordinates": [
          23.523403,
          3.653007
        ]
      },
      "properties": {
        "label": "Dutasteride",
        "level": 4,
        "pos": "105646.697,13192.581",
        "src_id": "1110",
        "weight": "0.0"
      }
    },
    {
      "type": "Feature",
      "id": "1423",
      "geometry": {
        "type": "Point",
        "coordinates": [
          21.533199,
          3.097351
        ]
      },
      "properties": {
        "label": "Crohn's disease",
        "level": 3,
        "pos": "97634.81899999999,10557.556",
        "src_id": "174559",
        "weight": "8.999999999999998"
      }
    },
    {
      "type": "Feature",
      "id": "217",
      "geometry": {
        "type": "Point",
        "coordinates": [
          28.178509,
          4.085461
        ]
      },
      "properties": {
        "label": "Pneumonia",
        "level": 3,
        "pos": "124386.556,15244.475",
        "src_id": "183685",
        "weight": "5426.0"
      }
    },
    {
      "type": "Feature",
      "id": "2137",
      "geometry": {
        "type": "Point",
        "coordinates": [
          18.885161,
          3.638267
        ]
      },
      "properties": {
        "label": "Colitis ulcerative",
        "level": 2,
        "pos": "86974.731,13122.655999999999",
        "src_id": "173909",
        "weight": "9162.0"
      }
    },
    {
      "type": "Feature",
      "id": "2159",
      "geometry": {
        "type": "Point",
        "coordinates": [
          25.905056,
          3.125974
        ]
      },
      "properties": {
        "label": "Bronchitis",
        "level": 4,
        "pos": "115234.41900000001,10693.26",
        "src_id": "172749",
        "weight": "19.98692307692313"
      }
    },
    {
      "type": "Feature",
      "id": "3151",
      "geometry": {
        "type": "Point",
        "coordinates": [
          29.43805,
          3.972143
        ]
      },
      "properties": {
        "label": "Wheezing",
        "level": 3,
        "pos": "129457.045,14706.699",
        "src_id": "188840",
        "weight": "11.121212121212112"
      }
    },
    {
      "type": "Feature",
      "id": "1798",
      "geometry": {
        "type": "Point",
        "coordinates": [
          26.047083,
          3.575414
        ]
      },
      "properties": {
        "label": "Retirement",
        "level": 5,
        "pos": "115806.174,12824.529999999999",
        "src_id": "185278",
        "weight": "0.0"
      }
    },
    {
      "type": "Feature",
      "id": "757",
      "geometry": {
        "type": "Point",
        "coordinates": [
          -13.079246,
          16.287245
        ]
      },
      "properties": {
        "label": "Lutropin alfa",
        "level": 4,
        "pos": "-41703.007999999994,74050.378",
        "src_id": "43",
        "weight": "0.0"
      }
    },
    {
      "type": "Feature",
      "id": "224",
      "geometry": {
        "type": "Point",
        "coordinates": [
          -5.538616,
          17.916169
        ]
      },
      "properties": {
        "label": "Testosterone",
        "level": 2,
        "pos": "-11347.016,82118.652",
        "src_id": "611",
        "weight": "45054.708333333336"
      }
    },
    {
      "type": "Feature",
      "id": "435",
      "geometry": {
        "type": "Point",
        "coordinates": [
          -20.746061,
          14.768998
        ]
      },
      "properties": {
        "label": "Ultrasound scan",
        "level": 5,
        "pos": "-72566.976,66590.567",
        "src_id": "187624",
        "weight": "0.0"
      }
    },
    {
      "type": "Feature",
      "id": "3194",
      "geometry": {
        "type": "Point",
        "coordinates": [
          -21.848495,
          14.275723
        ]
      },
      "properties": {
        "label": "Follitropin",
        "level": 5,
        "pos": "-77004.999,64178.364",
        "src_id": "64",
        "weight": "0.0"
      }
    },
    {
      "type": "Feature",
      "id": "323",
      "geometry": {
        "type": "Point",
        "coordinates": [
          -7.059456,
          18.797539
        ]
      },
      "properties": {
        "label": "Progesterone",
        "level": 2,
        "pos": "-17469.404000000002,86514.74799999999",
        "src_id": "385",
        "weight": "2412.5833333333335"
      }
    },
    {
      "type": "Feature",
      "id": "499",
      "geometry": {
        "type": "Point",
        "coordinates": [
          -10.5542,
          16.187359
        ]
      },
      "properties": {
        "label": "Blood oestrogen",
        "level": 5,
        "pos": "-31538.036,73557.88200000001",
        "src_id": "172274",
        "weight": "0.0"
      }
    },
    {
      "type": "Feature",
      "id": "2953",
      "geometry": {
        "type": "Point",
        "coordinates": [
          -10.820631,
          16.730747
        ]
      },
      "properties": {
        "label": "Progesterone",
        "level": 4,
        "pos": "-32610.599000000002,76240.173",
        "src_id": "184202",
        "weight": "83.49155982905984"
      }
    },
    {
      "type": "Feature",
      "id": "1343",
      "geometry": {
        "type": "Point",
        "coordinates": [
          -4.778596,
          18.755521
        ]
      },
      "properties": {
        "label": "Hypogonadism",
        "level": 2,
        "pos": "-8287.443,86304.659",
        "src_id": "178597",
        "weight": "0.0"
      }
    },
    {
      "type": "Feature",
      "id": "8475",
      "geometry": {
        "type": "Point",
        "coordinates": [
          -12.952524,
          16.723754
        ]
      },
      "properties": {
        "label": "Oxandrolone",
        "level": 5,
        "pos": "-41192.871,76205.6",
        "src_id": "608",
        "weight": "0.0"
      }
    },
    {
      "type": "Feature",
      "id": "9136",
      "geometry": {
        "type": "Point",
        "coordinates": [
          -8.998535,
          15.708965
        ]
      },
      "properties": {
        "label": "Testosterone cypionate",
        "level": 5,
        "pos": "-25275.474,71202.532",
        "src_id": "10976",
        "weight": "0.0"
      }
    },
    {
      "type": "Feature",
      "id": "9017",
      "geometry": {
        "type": "Point",
        "coordinates": [
          -7.959346,
          16.687434
        ]
      },
      "properties": {
        "label": "Sarcopenia",
        "level": 5,
        "pos": "-21092.051000000003,76026.092",
        "src_id": "185520",
        "weight": "0.0"
      }
    },
    {
      "type": "Feature",
      "id": "5113",
      "geometry": {
        "type": "Point",
        "coordinates": [
          -23.401829,
          13.755908
        ]
      },
      "properties": {
        "label": "Gladiolus",
        "level": 5,
        "pos": "-83258.194,61642.074",
        "src_id": "240340",
        "weight": "0.0"
      }
    },
    {
      "type": "Feature",
      "id": "1313",
      "geometry": {
        "type": "Point",
        "coordinates": [
          -7.472688,
          19.635931
        ]
      },
      "properties": {
        "label": "Allopregnanolone",
        "level": 2,
        "pos": "-19132.933999999997,90717.882",
        "src_id": "9528",
        "weight": "0.0"
      }
    },
    {
      "type": "Feature",
      "id": "3548",
      "geometry": {
        "type": "Point",
        "coordinates": [
          -8.929006,
          19.232806
        ]
      },
      "properties": {
        "label": "Night sweats",
        "level": 4,
        "pos": "-24995.566,88694.20999999999",
        "src_id": "181827",
        "weight": "4.000000000000001"
      }
    },
    {
      "type": "Feature",
      "id": "7018",
      "geometry": {
        "type": "Point",
        "coordinates": [
          -7.500017,
          20.717819
        ]
      },
      "properties": {
        "label": "Chasteberry",
        "level": 5,
        "pos": "-19242.946,96174.424",
        "src_id": "239745",
        "weight": "0.0"
      }
    },
    {
      "type": "Feature",
      "id": "6197",
      "geometry": {
        "type": "Point",
        "coordinates": [
          -10.469406,
          17.174702
        ]
      },
      "properties": {
        "label": "Estradiol valerate",
        "level": 5,
        "pos": "-31196.692,78437.304",
        "src_id": "10988",
        "weight": "0.0"
      }
    },
    {
      "type": "Feature",
      "id": "8968",
      "geometry": {
        "type": "Point",
        "coordinates": [
          -7.858066,
          17.550772
        ]
      },
      "properties": {
        "label": "Estrone sulfate",
        "level": 5,
        "pos": "-20684.335,80302.59300000001",
        "src_id": "4305",
        "weight": "0.0"
      }
    },
    {
      "type": "Feature",
      "id": "3845",
      "geometry": {
        "type": "Point",
        "coordinates": [
          -13.287179,
          15.168602
        ]
      },
      "properties": {
        "label": "Anovulatory cycle",
        "level": 5,
        "pos": "-42540.085,68548.718",
        "src_id": "170456",
        "weight": "0.0"
      }
    },
    {
      "type": "Feature",
      "id": "7559",
      "geometry": {
        "type": "Point",
        "coordinates": [
          -16.343878,
          15.240128
        ]
      },
      "properties": {
        "label": "Adrenal carcinoma",
        "level": 5,
        "pos": "-54845.299,68899.60399999999",
        "src_id": "169846",
        "weight": "0.0"
      }
    },
    {
      "type": "Feature",
      "id": "453",
      "geometry": {
        "type": "Point",
        "coordinates": [
          -2.948169,
          14.981963
        ]
      },
      "properties": {
        "label": "Hypothyroidism",
        "level": 1,
        "pos": "-918.77,67633.693",
        "src_id": "178664",
        "weight": "0.0"
      }
    },
    {
      "type": "Feature",
      "id": "1575",
      "geometry": {
        "type": "Point",
        "coordinates": [
          -6.197986,
          18.328684
        ]
      },
      "properties": {
        "label": "Hypopituitarism",
        "level": 5,
        "pos": "-14001.42,84173.4",
        "src_id": "178634",
        "weight": "0.0"
      }
    },
    {
      "type": "Feature",
      "id": "5285",
      "geometry": {
        "type": "Point",
        "coordinates": [
          -6.249034,
          16.656939
        ]
      },
      "properties": {
        "label": "Dyscalculia",
        "level": 5,
        "pos": "-14206.922,75875.38600000001",
        "src_id": "175470",
        "weight": "0.0"
      }
    },
    {
      "type": "Feature",
      "id": "2965",
      "geometry": {
        "type": "Point",
        "coordinates": [
          20.021018,
          48.930047
        ]
      },
      "properties": {
        "label": "Insulin Lispro",
        "level": 4,
        "pos": "91547.304,262225.872",
        "src_id": "45",
        "weight": "0.0"
      }
    },
    {
      "type": "Feature",
      "id": "3389",
      "geometry": {
        "type": "Point",
        "coordinates": [
          17.174757,
          45.276242
        ]
      },
      "properties": {
        "label": "Fidarestat",
        "level": 4,
        "pos": "80089.23199999999,236800.436",
        "src_id": "1922",
        "weight": "0.0"
      }
    },
    {
      "type": "Feature",
      "id": "1779",
      "geometry": {
        "type": "Point",
        "coordinates": [
          20.017627,
          49.601484
        ]
      },
      "properties": {
        "label": "Pegvisomant",
        "level": 4,
        "pos": "91533.653,267096.909",
        "src_id": "78",
        "weight": "0.0"
      }
    },
    {
      "type": "Feature",
      "id": "1768",
      "geometry": {
        "type": "Point",
        "coordinates": [
          19.842364,
          48.58325
        ]
      },
      "properties": {
        "label": "Abarelix",
        "level": 4,
        "pos": "90828.096,259735.612",
        "src_id": "99",
        "weight": "0.0"
      }
    },
    {
      "type": "Feature",
      "id": "3193",
      "geometry": {
        "type": "Point",
        "coordinates": [
          19.079626,
          44.847839
        ]
      },
      "properties": {
        "label": "Raltitrexed",
        "level": 4,
        "pos": "87757.583,233929.238",
        "src_id": "284",
        "weight": "0.0"
      }
    },
    {
      "type": "Feature",
      "id": "3388",
      "geometry": {
        "type": "Point",
        "coordinates": [
          18.380697,
          49.525014
        ]
      },
      "properties": {
        "label": "Voglibose",
        "level": 4,
        "pos": "84943.932,266538.78500000003",
        "src_id": "4600",
        "weight": "0.0"
      }
    },
    {
      "type": "Feature",
      "id": "3189",
      "geometry": {
        "type": "Point",
        "coordinates": [
          18.651326,
          49.905441
        ]
      },
      "properties": {
        "label": "Dexmethylphenidate",
        "level": 4,
        "pos": "86033.394,269324.066",
        "src_id": "5761",
        "weight": "0.0"
      }
    },
    {
      "type": "Feature",
      "id": "3381",
      "geometry": {
        "type": "Point",
        "coordinates": [
          20.155776,
          50.164375
        ]
      },
      "properties": {
        "label": "Metreleptin",
        "level": 4,
        "pos": "92089.78899999999,271232.43000000005",
        "src_id": "7992",
        "weight": "0.0"
      }
    },
    {
      "type": "Feature",
      "id": "3107",
      "geometry": {
        "type": "Point",
        "coordinates": [
          18.976955,
          50.424676
        ]
      },
      "properties": {
        "label": "Blonanserin",
        "level": 4,
        "pos": "87344.257,273161.316",
        "src_id": "8163",
        "weight": "0.0"
      }
    },
    {
      "type": "Feature",
      "id": "1775",
      "geometry": {
        "type": "Point",
        "coordinates": [
          20.907358,
          51.74453
        ]
      },
      "properties": {
        "label": "anecortave acetate",
        "level": 4,
        "pos": "95115.403,283108.693",
        "src_id": "4945",
        "weight": "0.0"
      }
    },
    {
      "type": "Feature",
      "id": "1131",
      "geometry": {
        "type": "Point",
        "coordinates": [
          21.748686,
          49.562252
        ]
      },
      "properties": {
        "label": "Naratriptan",
        "level": 4,
        "pos": "98502.301,266810.455",
        "src_id": "938",
        "weight": "0.0"
      }
    },
    {
      "type": "Feature",
      "id": "7401",
      "geometry": {
        "type": "Point",
        "coordinates": [
          16.81182,
          42.821018
        ]
      },
      "properties": {
        "label": "Thymidine-5'-Phosphate",
        "level": 4,
        "pos": "78628.168,220625.943",
        "src_id": "1574",
        "weight": "0.0"
      }
    },
    {
      "type": "Feature",
      "id": "837",
      "geometry": {
        "type": "Point",
        "coordinates": [
          42.003946,
          7.458493
        ]
      },
      "properties": {
        "label": "Insulin Glargine",
        "level": 4,
        "pos": "180043.02599999998,31295.914",
        "src_id": "46",
        "weight": "0.0"
      }
    },
    {
      "type": "Feature",
      "id": "581",
      "geometry": {
        "type": "Point",
        "coordinates": [
          50.107359,
          7.284824
        ]
      },
      "properties": {
        "label": "Pemetrexed",
        "level": 4,
        "pos": "212664.59100000001,30466.924",
        "src_id": "629",
        "weight": "5.5"
      }
    },
    {
      "type": "Feature",
      "id": "880",
      "geometry": {
        "type": "Point",
        "coordinates": [
          -0.275927,
          21.822657
        ]
      },
      "properties": {
        "label": "Rasburicase",
        "level": 4,
        "pos": "9838.757,101787.091",
        "src_id": "48",
        "weight": "0.0"
      }
    },
    {
      "type": "Feature",
      "id": "1596",
      "geometry": {
        "type": "Point",
        "coordinates": [
          -0.54753,
          22.284065
        ]
      },
      "properties": {
        "label": "Imiquimod",
        "level": 4,
        "pos": "8745.378,104143.799",
        "src_id": "710",
        "weight": "0.0"
      }
    },
    {
      "type": "Feature",
      "id": "1586",
      "geometry": {
        "type": "Point",
        "coordinates": [
          1.01695,
          22.187572
        ]
      },
      "properties": {
        "label": "Argatroban",
        "level": 4,
        "pos": "15043.444,103650.306",
        "src_id": "269",
        "weight": "0.0"
      }
    },
    {
      "type": "Feature",
      "id": "1595",
      "geometry": {
        "type": "Point",
        "coordinates": [
          -1.423372,
          23.216176
        ]
      },
      "properties": {
        "label": "Lanoteplase",
        "level": 4,
        "pos": "5219.541,108928.683",
        "src_id": "5507",
        "weight": "0.0"
      }
    },
    {
      "type": "Feature",
      "id": "1276",
      "geometry": {
        "type": "Point",
        "coordinates": [
          4.353166,
          27.314695
        ]
      },
      "properties": {
        "label": "Zolmitriptan",
        "level": 4,
        "pos": "28473.897,130389.744",
        "src_id": "306",
        "weight": "0.0"
      }
    },
    {
      "type": "Feature",
      "id": "934",
      "geometry": {
        "type": "Point",
        "coordinates": [
          14.136173,
          2.062711
        ]
      },
      "properties": {
        "label": "Apple",
        "level": 2,
        "pos": "67856.931,5654.613",
        "src_id": "8575",
        "weight": "14549.016666666665"
      }
    },
    {
      "type": "Feature",
      "id": "1899",
      "geometry": {
        "type": "Point",
        "coordinates": [
          20.397394,
          3.713128
        ]
      },
      "properties": {
        "label": "Inflammatory bowel disease",
        "level": 5,
        "pos": "93062.465,13477.779",
        "src_id": "178997",
        "weight": "0.0"
      }
    },
    {
      "type": "Feature",
      "id": "8545",
      "geometry": {
        "type": "Point",
        "coordinates": [
          28.299389,
          3.104326
        ]
      },
      "properties": {
        "label": "Mendelson's syndrome",
        "level": 6,
        "pos": "124873.181,10590.634",
        "src_id": "180698",
        "weight": "0.0"
      }
    },
    {
      "type": "Feature",
      "id": "5500",
      "geometry": {
        "type": "Point",
        "coordinates": [
          37.554245,
          4.705082
        ]
      },
      "properties": {
        "label": "Pharyngitis streptococcal",
        "level": 5,
        "pos": "162130.062,18186.381999999998",
        "src_id": "183387",
        "weight": "0.0"
      }
    },
    {
      "type": "Feature",
      "id": "3698",
      "geometry": {
        "type": "Point",
        "coordinates": [
          29.933204,
          3.541814
        ]
      },
      "properties": {
        "label": "Crepitations",
        "level": 5,
        "pos": "131450.357,12665.159",
        "src_id": "174549",
        "weight": "0.0"
      }
    },
    {
      "type": "Feature",
      "id": "6631",
      "geometry": {
        "type": "Point",
        "coordinates": [
          32.398702,
          4.245262
        ]
      },
      "properties": {
        "label": "Adenoid cystic carcinoma",
        "level": 3,
        "pos": "141375.605,16002.961",
        "src_id": "169791",
        "weight": "0.0"
      }
    },
    {
      "type": "Feature",
      "id": "8310",
      "geometry": {
        "type": "Point",
        "coordinates": [
          33.784215,
          4.236877
        ]
      },
      "properties": {
        "label": "Pulmonary eosinophilia",
        "level": 5,
        "pos": "146953.21000000002,15963.158",
        "src_id": "184506",
        "weight": "0.0"
      }
    },
    {
      "type": "Feature",
      "id": "1509",
      "geometry": {
        "type": "Point",
        "coordinates": [
          -55.463216,
          2.762873
        ]
      },
      "properties": {
        "label": "Ranibizumab",
        "level": 4,
        "pos": "-212326.34,8972.092999999999",
        "src_id": "1253",
        "weight": "0.0"
      }
    },
    {
      "type": "Feature",
      "id": "1070",
      "geometry": {
        "type": "Point",
        "coordinates": [
          -56.048122,
          1.079832
        ]
      },
      "properties": {
        "label": "Solifenacin",
        "level": 4,
        "pos": "-214680.967,999.919",
        "src_id": "1524",
        "weight": "0.0"
      }
    },
    {
      "type": "Feature",
      "id": "2340",
      "geometry": {
        "type": "Point",
        "coordinates": [
          -53.394304,
          3.846062
        ]
      },
      "properties": {
        "label": "Torcetrapib",
        "level": 4,
        "pos": "-203997.607,14108.449999999999",
        "src_id": "5532",
        "weight": "0.0"
      }
    },
    {
      "type": "Feature",
      "id": "986",
      "geometry": {
        "type": "Point",
        "coordinates": [
          44.272709,
          -23.77862
        ]
      },
      "properties": {
        "label": "Gemtuzumab ozogamicin",
        "level": 4,
        "pos": "189176.29299999998,-120056.489",
        "src_id": "55",
        "weight": "0.0"
      }
    },
    {
      "type": "Feature",
      "id": "964",
      "geometry": {
        "type": "Point",
        "coordinates": [
          47.375797,
          -25.414086
        ]
      },
      "properties": {
        "label": "Zoledronic acid",
        "level": 4,
        "pos": "201668.25600000002,-128571.697",
        "src_id": "388",
        "weight": "0.0"
      }
    },
    {
      "type": "Feature",
      "id": "963",
      "geometry": {
        "type": "Point",
        "coordinates": [
          46.48015,
          -26.158621
        ]
      },
      "properties": {
        "label": "Almotriptan",
        "level": 4,
        "pos": "198062.693,-132486.099",
        "src_id": "904",
        "weight": "0.0"
      }
    },
    {
      "type": "Feature",
      "id": "1938",
      "geometry": {
        "type": "Point",
        "coordinates": [
          38.120444,
          -22.396725
        ]
      },
      "properties": {
        "label": "Maxacalcitol",
        "level": 4,
        "pos": "164409.377,-112944.885",
        "src_id": "5527",
        "weight": "0.0"
      }
    },
    {
      "type": "Feature",
      "id": "1905",
      "geometry": {
        "type": "Point",
        "coordinates": [
          42.817277,
          -22.77232
        ]
      },
      "properties": {
        "label": "Micafungin",
        "level": 4,
        "pos": "183317.22,-114870.59700000001",
        "src_id": "1125",
        "weight": "0.0"
      }
    },
    {
      "type": "Feature",
      "id": "1756",
      "geometry": {
        "type": "Point",
        "coordinates": [
          36.11846,
          -22.42337
        ]
      },
      "properties": {
        "label": "Zofenopril",
        "level": 4,
        "pos": "156350.083,-113081.316",
        "src_id": "10787",
        "weight": "0.0"
      }
    },
    {
      "type": "Feature",
      "id": "1518",
      "geometry": {
        "type": "Point",
        "coordinates": [
          47.766573,
          -24.90216
        ]
      },
      "properties": {
        "label": "Ranolazine",
        "level": 5,
        "pos": "203241.39299999998,-125894.276",
        "src_id": "234",
        "weight": "0.0"
      }
    },
    {
      "type": "Feature",
      "id": "2067",
      "geometry": {
        "type": "Point",
        "coordinates": [
          -47.161237,
          33.975393
        ]
      },
      "properties": {
        "label": "Trastuzumab",
        "level": 4,
        "pos": "-178905.419,167074.67299999998",
        "src_id": "70",
        "weight": "0.0"
      }
    },
    {
      "type": "Feature",
      "id": "5784",
      "geometry": {
        "type": "Point",
        "coordinates": [
          -46.393636,
          32.71284
        ]
      },
      "properties": {
        "label": "Bosutinib",
        "level": 4,
        "pos": "-175815.315,159919.797",
        "src_id": "5702",
        "weight": "0.0"
      }
    },
    {
      "type": "Feature",
      "id": "8825",
      "geometry": {
        "type": "Point",
        "coordinates": [
          -50.618268,
          35.151643
        ]
      },
      "properties": {
        "label": "Geldanamycin",
        "level": 5,
        "pos": "-192822.243,173836.64500000002",
        "src_id": "2300",
        "weight": "0.0"
      }
    },
    {
      "type": "Feature",
      "id": "2520",
      "geometry": {
        "type": "Point",
        "coordinates": [
          -44.725903,
          32.32349
        ]
      },
      "properties": {
        "label": "Ipilimumab",
        "level": 4,
        "pos": "-169101.598,157733.943",
        "src_id": "5462",
        "weight": "0.0"
      }
    },
    {
      "type": "Feature",
      "id": "5309",
      "geometry": {
        "type": "Point",
        "coordinates": [
          -44.646686,
          34.816949
        ]
      },
      "properties": {
        "label": "Vemurafenib",
        "level": 4,
        "pos": "-168782.69700000001,171902.803",
        "src_id": "7840",
        "weight": "0.0"
      }
    },
    {
      "type": "Feature",
      "id": "5783",
      "geometry": {
        "type": "Point",
        "coordinates": [
          -47.260185,
          33.120813
        ]
      },
      "properties": {
        "label": "Ponatinib",
        "level": 5,
        "pos": "-179303.749,162220.466",
        "src_id": "7860",
        "weight": "0.0"
      }
    },
    {
      "type": "Feature",
      "id": "763",
      "geometry": {
        "type": "Point",
        "coordinates": [
          -51.889524,
          43.735223
        ]
      },
      "properties": {
        "label": "Ibritumomab tiuxetan",
        "level": 4,
        "pos": "-197939.88100000002,226570.587",
        "src_id": "75",
        "weight": "0.0"
      }
    },
    {
      "type": "Feature",
      "id": "521",
      "geometry": {
        "type": "Point",
        "coordinates": [
          -48.141569,
          43.387119
        ]
      },
      "properties": {
        "label": "Bortezomib",
        "level": 4,
        "pos": "-182851.90399999998,224296.481",
        "src_id": "179",
        "weight": "114.5"
      }
    },
    {
      "type": "Feature",
      "id": "700",
      "geometry": {
        "type": "Point",
        "coordinates": [
          -51.235733,
          44.059059
        ]
      },
      "properties": {
        "label": "Adefovir Dipivoxil",
        "level": 4,
        "pos": "-195307.942,228698.063",
        "src_id": "704",
        "weight": "0.0"
      }
    },
    {
      "type": "Feature",
      "id": "745",
      "geometry": {
        "type": "Point",
        "coordinates": [
          -50.148775,
          43.336009
        ]
      },
      "properties": {
        "label": "Lenalidomide",
        "level": 4,
        "pos": "-190932.21500000003,223963.687",
        "src_id": "469",
        "weight": "0.0"
      }
    },
    {
      "type": "Feature",
      "id": "367",
      "geometry": {
        "type": "Point",
        "coordinates": [
          -51.400886,
          44.550387
        ]
      },
      "properties": {
        "label": "Atazanavir",
        "level": 4,
        "pos": "-195972.78600000002,231948.227",
        "src_id": "1056",
        "weight": "11.5"
      }
    },
    {
      "type": "Feature",
      "id": "870",
      "geometry": {
        "type": "Point",
        "coordinates": [
          -54.585173,
          47.84159
        ]
      },
      "properties": {
        "label": "Clevudine",
        "level": 4,
        "pos": "-208791.641,254466.689",
        "src_id": "5745",
        "weight": "0.0"
      }
    },
    {
      "type": "Feature",
      "id": "896",
      "geometry": {
        "type": "Point",
        "coordinates": [
          -54.704257,
          46.687311
        ]
      },
      "properties": {
        "label": "Mecasermin",
        "level": 4,
        "pos": "-209271.028,246414.13600000003",
        "src_id": "1260",
        "weight": "0.0"
      }
    },
    {
      "type": "Feature",
      "id": "628",
      "geometry": {
        "type": "Point",
        "coordinates": [
          -58.682139,
          48.190954
        ]
      },
      "properties": {
        "label": "Clofarabine",
        "level": 4,
        "pos": "-225284.62099999998,256939.145",
        "src_id": "618",
        "weight": "0.0"
      }
    },
    {
      "type": "Feature",
      "id": "770",
      "geometry": {
        "type": "Point",
        "coordinates": [
          -56.709962,
          48.153896
        ]
      },
      "properties": {
        "label": "Fulvestrant",
        "level": 4,
        "pos": "-217345.312,256676.086",
        "src_id": "933",
        "weight": "0.0"
      }
    },
    {
      "type": "Feature",
      "id": "1042",
      "geometry": {
        "type": "Point",
        "coordinates": [
          -56.639571,
          46.664665
        ]
      },
      "properties": {
        "label": "Decitabine",
        "level": 4,
        "pos": "-217061.94400000002,246257.894",
        "src_id": "1245",
        "weight": "0.0"
      }
    },
    {
      "type": "Feature",
      "id": "1274",
      "geometry": {
        "type": "Point",
        "coordinates": [
          -58.005383,
          46.306386
        ]
      },
      "properties": {
        "label": "Telbivudine",
        "level": 4,
        "pos": "-222560.22999999998,243794.592",
        "src_id": "1248",
        "weight": "0.0"
      }
    },
    {
      "type": "Feature",
      "id": "1136",
      "geometry": {
        "type": "Point",
        "coordinates": [
          -54.971662,
          47.038316
        ]
      },
      "properties": {
        "label": "Aliskiren",
        "level": 4,
        "pos": "-210347.50600000002,248844.337",
        "src_id": "7974",
        "weight": "0.0"
      }
    },
    {
      "type": "Feature",
      "id": "1371",
      "geometry": {
        "type": "Point",
        "coordinates": [
          -19.128922,
          30.90641
        ]
      },
      "properties": {
        "label": "Daptomycin",
        "level": 4,
        "pos": "-66056.935,149856.12900000002",
        "src_id": "76",
        "weight": "0.0"
      }
    },
    {
      "type": "Feature",
      "id": "1132",
      "geometry": {
        "type": "Point",
        "coordinates": [
          -17.973915,
          30.512545
        ]
      },
      "properties": {
        "label": "Stavudine",
        "level": 4,
        "pos": "-61407.266,147687.48299999998",
        "src_id": "636",
        "weight": "0.0"
      }
    },
    {
      "type": "Feature",
      "id": "677",
      "geometry": {
        "type": "Point",
        "coordinates": [
          -15.836445,
          32.2271
        ]
      },
      "properties": {
        "label": "Nevirapine",
        "level": 4,
        "pos": "-52802.549999999996,157194.25",
        "src_id": "229",
        "weight": "879.8333333333333"
      }
    },
    {
      "type": "Feature",
      "id": "788",
      "geometry": {
        "type": "Point",
        "coordinates": [
          -16.737205,
          31.791871
        ]
      },
      "properties": {
        "label": "Lamivudine",
        "level": 4,
        "pos": "-56428.703,154764.466",
        "src_id": "695",
        "weight": "0.0"
      }
    },
    {
      "type": "Feature",
      "id": "35",
      "geometry": {
        "type": "Point",
        "coordinates": [
          -17.030496,
          32.606721
        ]
      },
      "properties": {
        "label": "Infant",
        "level": 2,
        "pos": "-57609.385,159323.092",
        "src_id": "178934",
        "weight": "166520.87500000006"
      }
    },
    {
      "type": "Feature",
      "id": "969",
      "geometry": {
        "type": "Point",
        "coordinates": [
          45.173931,
          -49.61676
        ]
      },
      "properties": {
        "label": "Tositumomab",
        "level": 4,
        "pos": "192804.29799999998,-275432.98",
        "src_id": "77",
        "weight": "0.0"
      }
    },
    {
      "type": "Feature",
      "id": "1203",
      "geometry": {
        "type": "Point",
        "coordinates": [
          47.26158,
          -49.671511
        ]
      },
      "properties": {
        "label": "Treprostinil",
        "level": 4,
        "pos": "201208.465,-275833.249",
        "src_id": "364",
        "weight": "0.0"
      }
    },
    {
      "type": "Feature",
      "id": "602",
      "geometry": {
        "type": "Point",
        "coordinates": [
          45.685127,
          -46.864449
        ]
      },
      "properties": {
        "label": "Iodine",
        "level": 4,
        "pos": "194862.198,-255863.046",
        "src_id": "5012",
        "weight": "9.0"
      }
    },
    {
      "type": "Feature",
      "id": "1684",
      "geometry": {
        "type": "Point",
        "coordinates": [
          46.182251,
          -46.101011
        ]
      },
      "properties": {
        "label": "Lurtotecan",
        "level": 4,
        "pos": "196863.451,-250614.295",
        "src_id": "9880",
        "weight": "0.0"
      }
    },
    {
      "type": "Feature",
      "id": "84",
      "geometry": {
        "type": "Point",
        "coordinates": [
          41.785167,
          -43.606667
        ]
      },
      "properties": {
        "label": "Blood phosphorus",
        "level": 2,
        "pos": "179162.303,-233953.696",
        "src_id": "172294",
        "weight": "93886.94856336492"
      }
    },
    {
      "type": "Feature",
      "id": "1404",
      "geometry": {
        "type": "Point",
        "coordinates": [
          43.884201,
          -45.360639
        ]
      },
      "properties": {
        "label": "Pyridoxal",
        "level": 4,
        "pos": "187612.28600000002,-245593.1",
        "src_id": "139",
        "weight": "0.0"
      }
    },
    {
      "type": "Feature",
      "id": "256",
      "geometry": {
        "type": "Point",
        "coordinates": [
          44.006628,
          -46.62727
        ]
      },
      "properties": {
        "label": "Creatinine",
        "level": 4,
        "pos": "188105.139,-254224.5",
        "src_id": "9515",
        "weight": "404.0"
      }
    },
    {
      "type": "Feature",
      "id": "2533",
      "geometry": {
        "type": "Point",
        "coordinates": [
          41.025458,
          -42.308272
        ]
      },
      "properties": {
        "label": "Chlorine",
        "level": 5,
        "pos": "176103.971,-225554.715",
        "src_id": "9054",
        "weight": "0.0"
      }
    },
    {
      "type": "Feature",
      "id": "3475",
      "geometry": {
        "type": "Point",
        "coordinates": [
          39.641666,
          -40.607461
        ]
      },
      "properties": {
        "label": "Urine calcium",
        "level": 4,
        "pos": "170533.30399999997,-214810.356",
        "src_id": "187901",
        "weight": "0.0"
      }
    },
    {
      "type": "Feature",
      "id": "4295",
      "geometry": {
        "type": "Point",
        "coordinates": [
          39.246516,
          -40.098516
        ]
      },
      "properties": {
        "label": "Sevelamer",
        "level": 4,
        "pos": "168942.55599999998,-211648.80299999999",
        "src_id": "645",
        "weight": "0.0"
      }
    },
    {
      "type": "Feature",
      "id": "533",
      "geometry": {
        "type": "Point",
        "coordinates": [
          -53.139084,
          47.109202
        ]
      },
      "properties": {
        "label": "Enfuvirtide",
        "level": 4,
        "pos": "-202970.18099999998,249337.05599999998",
        "src_id": "102",
        "weight": "47.0"
      }
    },
    {
      "type": "Feature",
      "id": "694",
      "geometry": {
        "type": "Point",
        "coordinates": [
          -52.784017,
          46.759589
        ]
      },
      "properties": {
        "label": "Caspofungin",
        "level": 4,
        "pos": "-201540.795,246913.261",
        "src_id": "507",
        "weight": "0.0"
      }
    },
    {
      "type": "Feature",
      "id": "967",
      "geometry": {
        "type": "Point",
        "coordinates": [
          -54.367636,
          48.57042
        ]
      },
      "properties": {
        "label": "Fosamprenavir",
        "level": 4,
        "pos": "-207915.90899999999,259643.814",
        "src_id": "1283",
        "weight": "0.0"
      }
    },
    {
      "type": "Feature",
      "id": "1588",
      "geometry": {
        "type": "Point",
        "coordinates": [
          -23.166066,
          48.795259
        ]
      },
      "properties": {
        "label": "Choriogonadotropin alfa",
        "level": 4,
        "pos": "-82309.088,261255.95299999998",
        "src_id": "91",
        "weight": "0.0"
      }
    },
    {
      "type": "Feature",
      "id": "1939",
      "geometry": {
        "type": "Point",
        "coordinates": [
          -27.145176,
          49.911386
        ]
      },
      "properties": {
        "label": "Ridaforolimus",
        "level": 4,
        "pos": "-98327.623,269367.76900000003",
        "src_id": "5498",
        "weight": "0.0"
      }
    },
    {
      "type": "Feature",
      "id": "1235",
      "geometry": {
        "type": "Point",
        "coordinates": [
          -23.323894,
          48.148747
        ]
      },
      "properties": {
        "label": "Degarelix",
        "level": 4,
        "pos": "-82944.452,256639.55600000004",
        "src_id": "5759",
        "weight": "0.0"
      }
    },
    {
      "type": "Feature",
      "id": "1473",
      "geometry": {
        "type": "Point",
        "coordinates": [
          -23.321437,
          50.913135
        ]
      },
      "properties": {
        "label": "Tanespimycin",
        "level": 4,
        "pos": "-82934.556,276809.719",
        "src_id": "4824",
        "weight": "0.0"
      }
    },
    {
      "type": "Feature",
      "id": "1927",
      "geometry": {
        "type": "Point",
        "coordinates": [
          -24.97985,
          50.227285
        ]
      },
      "properties": {
        "label": "Regadenoson",
        "level": 4,
        "pos": "-89610.759,271697.638",
        "src_id": "5487",
        "weight": "0.0"
      }
    },
    {
      "type": "Feature",
      "id": "2805",
      "geometry": {
        "type": "Point",
        "coordinates": [
          -23.82112,
          47.119365
        ]
      },
      "properties": {
        "label": "Fluticasone furoate",
        "level": 4,
        "pos": "-84946.111,249407.75400000002",
        "src_id": "7865",
        "weight": "0.0"
      }
    },
    {
      "type": "Feature",
      "id": "2506",
      "geometry": {
        "type": "Point",
        "coordinates": [
          -22.850602,
          45.416246
        ]
      },
      "properties": {
        "label": "Ticagrelor",
        "level": 4,
        "pos": "-81039.145,237743.446",
        "src_id": "7793",
        "weight": "0.0"
      }
    },
    {
      "type": "Feature",
      "id": "385",
      "geometry": {
        "type": "Point",
        "coordinates": [
          -43.739649,
          56.474681
        ]
      },
      "properties": {
        "label": "Natalizumab",
        "level": 4,
        "pos": "-165131.27800000002,321357.658",
        "src_id": "101",
        "weight": "272.75"
      }
    },
    {
      "type": "Feature",
      "id": "589",
      "geometry": {
        "type": "Point",
        "coordinates": [
          -41.508615,
          56.210674
        ]
      },
      "properties": {
        "label": "Lumiracoxib",
        "level": 4,
        "pos": "-156149.896,319102.624",
        "src_id": "1266",
        "weight": "0.0"
      }
    },
    {
      "type": "Feature",
      "id": "992",
      "geometry": {
        "type": "Point",
        "coordinates": [
          -40.960426,
          55.926902
        ]
      },
      "properties": {
        "label": "Tipranavir",
        "level": 4,
        "pos": "-153943.078,316696.009",
        "src_id": "918",
        "weight": "2.0"
      }
    },
    {
      "type": "Feature",
      "id": "1240",
      "geometry": {
        "type": "Point",
        "coordinates": [
          -44.011719,
          56.138394
        ]
      },
      "properties": {
        "label": "Vatalanib",
        "level": 4,
        "pos": "-166226.539,318487.94299999997",
        "src_id": "4601",
        "weight": "0.0"
      }
    },
    {
      "type": "Feature",
      "id": "2033",
      "geometry": {
        "type": "Point",
        "coordinates": [
          -22.530518,
          5.514123
        ]
      },
      "properties": {
        "label": "Daclizumab",
        "level": 4,
        "pos": "-79750.592,22031.643",
        "src_id": "104",
        "weight": "0.0"
      }
    },
    {
      "type": "Feature",
      "id": "1865",
      "geometry": {
        "type": "Point",
        "coordinates": [
          -20.757287,
          5.43636
        ]
      },
      "properties": {
        "label": "Raloxifene",
        "level": 4,
        "pos": "-72612.172,21661.832000000002",
        "src_id": "470",
        "weight": "0.0"
      }
    },
    {
      "type": "Feature",
      "id": "2031",
      "geometry": {
        "type": "Point",
        "coordinates": [
          -15.700535,
          5.495916
        ]
      },
      "properties": {
        "label": "Bicalutamide",
        "level": 4,
        "pos": "-52255.416,21945.053",
        "src_id": "1112",
        "weight": "0.0"
      }
    },
    {
      "type": "Feature",
      "id": "8195",
      "geometry": {
        "type": "Point",
        "coordinates": [
          -19.696158,
          5.95698
        ]
      },
      "properties": {
        "label": "Doxifluridine",
        "level": 4,
        "pos": "-68340.42700000001,24138.655",
        "src_id": "10576",
        "weight": "0.0"
      }
    },
    {
      "type": "Feature",
      "id": "2122",
      "geometry": {
        "type": "Point",
        "coordinates": [
          -10.053394,
          5.665031
        ]
      },
      "properties": {
        "label": "Genistein",
        "level": 4,
        "pos": "-29521.968,22749.442",
        "src_id": "1576",
        "weight": "0.0"
      }
    },
    {
      "type": "Feature",
      "id": "132",
      "geometry": {
        "type": "Point",
        "coordinates": [
          -5.520306,
          -23.143506
        ]
      },
      "properties": {
        "label": "Nervous system disorder",
        "level": 4,
        "pos": "-11273.313,-116778.93299999999",
        "src_id": "181695",
        "weight": "1199.1666666666667"
      }
    },
    {
      "type": "Feature",
      "id": "7805",
      "geometry": {
        "type": "Point",
        "coordinates": [
          -4.995003,
          -21.732008
        ]
      },
      "properties": {
        "label": "Sepia",
        "level": 5,
        "pos": "-9158.624,-109549.45700000001",
        "src_id": "240755",
        "weight": "0.0"
      }
    },
    {
      "type": "Feature",
      "id": "6796",
      "geometry": {
        "type": "Point",
        "coordinates": [
          -4.77981,
          -22.254542
        ]
      },
      "properties": {
        "label": "Flounder",
        "level": 6,
        "pos": "-8292.325,-112217.253",
        "src_id": "8601",
        "weight": "0.0"
      }
    },
    {
      "type": "Feature",
      "id": "8953",
      "geometry": {
        "type": "Point",
        "coordinates": [
          -4.570168,
          -22.647572
        ]
      },
      "properties": {
        "label": "Hepatitis A Vaccine",
        "level": 6,
        "pos": "-7448.383,-114230.419",
        "src_id": "8985",
        "weight": "0.0"
      }
    },
    {
      "type": "Feature",
      "id": "9135",
      "geometry": {
        "type": "Point",
        "coordinates": [
          -6.215944,
          -22.136272
        ]
      },
      "properties": {
        "label": "Acetonaemic vomiting",
        "level": 6,
        "pos": "-14073.708999999999,-111612.55900000001",
        "src_id": "169624",
        "weight": "0.0"
      }
    },
    {
      "type": "Feature",
      "id": "8924",
      "geometry": {
        "type": "Point",
        "coordinates": [
          -5.92112,
          -22.589195
        ]
      },
      "properties": {
        "label": "Cerebrosclerosis",
        "level": 6,
        "pos": "-12886.853000000001,-113931.037",
        "src_id": "173407",
        "weight": "0.0"
      }
    },
    {
      "type": "Feature",
      "id": "8772",
      "geometry": {
        "type": "Point",
        "coordinates": [
          -5.185056,
          -21.188689
        ]
      },
      "properties": {
        "label": "Clang associations",
        "level": 4,
        "pos": "-9923.707999999999,-106785.81300000001",
        "src_id": "173773",
        "weight": "438.25"
      }
    },
    {
      "type": "Feature",
      "id": "8916",
      "geometry": {
        "type": "Point",
        "coordinates": [
          -8.658579,
          -13.532939
        ]
      },
      "properties": {
        "label": "Congenital melanosis",
        "level": 6,
        "pos": "-23906.915,-68780.372",
        "src_id": "174211",
        "weight": "0.0"
      }
    },
    {
      "type": "Feature",
      "id": "7019",
      "geometry": {
        "type": "Point",
        "coordinates": [
          -9.754303,
          -10.622912
        ]
      },
      "properties": {
        "label": "X-ray with contrast",
        "level": 6,
        "pos": "-28317.932,-54691.005",
        "src_id": "188951",
        "weight": "0.0"
      }
    },
    {
      "type": "Feature",
      "id": "535",
      "geometry": {
        "type": "Point",
        "coordinates": [
          -20.995007,
          -8.998711
        ]
      },
      "properties": {
        "label": "Muscular weakness",
        "level": 2,
        "pos": "-73569.154,-46887.748",
        "src_id": "181279",
        "weight": "4.625"
      }
    },
    {
      "type": "Feature",
      "id": "885",
      "geometry": {
        "type": "Point",
        "coordinates": [
          -21.474899,
          -9.524509
        ]
      },
      "properties": {
        "label": "Muscle contracture",
        "level": 5,
        "pos": "-75501.028,-49409.733",
        "src_id": "181240",
        "weight": "0.0"
      }
    },
    {
      "type": "Feature",
      "id": "8214",
      "geometry": {
        "type": "Point",
        "coordinates": [
          -16.853693,
          -8.710746
        ]
      },
      "properties": {
        "label": "Idelalisib",
        "level": 5,
        "pos": "-56897.644,-45508.10400000001",
        "src_id": "8000",
        "weight": "0.0"
      }
    },
    {
      "type": "Feature",
      "id": "4030",
      "geometry": {
        "type": "Point",
        "coordinates": [
          -8.886025,
          -7.513223
        ]
      },
      "properties": {
        "label": "Propofol infusion syndrome",
        "level": 5,
        "pos": "-24822.541999999998,-39781.698",
        "src_id": "184258",
        "weight": "0.0"
      }
    },
    {
      "type": "Feature",
      "id": "285",
      "geometry": {
        "type": "Point",
        "coordinates": [
          -7.871383,
          -12.56527
        ]
      },
      "properties": {
        "label": "Dyspnoea",
        "level": 2,
        "pos": "-20737.938,-64077.995",
        "src_id": "175501",
        "weight": "0.0"
      }
    },
    {
      "type": "Feature",
      "id": "1315",
      "geometry": {
        "type": "Point",
        "coordinates": [
          -8.679194,
          -11.021469
        ]
      },
      "properties": {
        "label": "Cardio-respiratory arrest",
        "level": 5,
        "pos": "-23989.906000000003,-56611.909",
        "src_id": "173121",
        "weight": "0.0"
      }
    },
    {
      "type": "Feature",
      "id": "8366",
      "geometry": {
        "type": "Point",
        "coordinates": [
          -10.06651,
          -9.702502
        ]
      },
      "properties": {
        "label": "Gastric neoplasm",
        "level": 5,
        "pos": "-29574.774999999998,-50264.338",
        "src_id": "177097",
        "weight": "0.0"
      }
    },
    {
      "type": "Feature",
      "id": "7906",
      "geometry": {
        "type": "Point",
        "coordinates": [
          -8.883441,
          -10.538073
        ]
      },
      "properties": {
        "label": "Glomus jugulare tumour",
        "level": 6,
        "pos": "-24812.142,-54282.426999999996",
        "src_id": "177416",
        "weight": "0.0"
      }
    },
    {
      "type": "Feature",
      "id": "1566",
      "geometry": {
        "type": "Point",
        "coordinates": [
          -55.892133,
          6.395681
        ]
      },
      "properties": {
        "label": "Ademetionine",
        "level": 4,
        "pos": "-214053.007,26227.561",
        "src_id": "111",
        "weight": "0.0"
      }
    },
    {
      "type": "Feature",
      "id": "1827",
      "geometry": {
        "type": "Point",
        "coordinates": [
          -59.712893,
          6.279558
        ]
      },
      "properties": {
        "label": "Fenretinide",
        "level": 4,
        "pos": "-229434.081,25674.458000000002",
        "src_id": "4769",
        "weight": "0.0"
      }
    },
    {
      "type": "Feature",
      "id": "2388",
      "geometry": {
        "type": "Point",
        "coordinates": [
          -50.889774,
          6.849801
        ]
      },
      "properties": {
        "label": "Combretastatin",
        "level": 4,
        "pos": "-193915.226,28391.780000000002",
        "src_id": "10241",
        "weight": "0.0"
      }
    },
    {
      "type": "Feature",
      "id": "6500",
      "geometry": {
        "type": "Point",
        "coordinates": [
          -58.347623,
          7.065816
        ]
      },
      "properties": {
        "label": "S-adenosyl-L-homocysteine",
        "level": 5,
        "pos": "-223937.969,29421.966",
        "src_id": "1674",
        "weight": "0.0"
      }
    },
    {
      "type": "Feature",
      "id": "1627",
      "geometry": {
        "type": "Point",
        "coordinates": [
          -57.837226,
          6.108168
        ]
      },
      "properties": {
        "label": "Lixivaptan",
        "level": 4,
        "pos": "-221883.289,24858.345",
        "src_id": "5733",
        "weight": "0.0"
      }
    },
    {
      "type": "Feature",
      "id": "2108",
      "geometry": {
        "type": "Point",
        "coordinates": [
          -50.304931,
          4.72456
        ]
      },
      "properties": {
        "label": "Irofulven",
        "level": 4,
        "pos": "-191560.849,18278.9",
        "src_id": "5246",
        "weight": "0.0"
      }
    },
    {
      "type": "Feature",
      "id": "3577",
      "geometry": {
        "type": "Point",
        "coordinates": [
          -48.545156,
          8.074431
        ]
      },
      "properties": {
        "label": "Idursulfase",
        "level": 4,
        "pos": "-184476.599,34238.726",
        "src_id": "1254",
        "weight": "0.0"
      }
    },
    {
      "type": "Feature",
      "id": "3576",
      "geometry": {
        "type": "Point",
        "coordinates": [
          -51.83443,
          7.873538
        ]
      },
      "properties": {
        "label": "Vildagliptin",
        "level": 5,
        "pos": "-197718.088,33278.432",
        "src_id": "4598",
        "weight": "0.0"
      }
    },
    {
      "type": "Feature",
      "id": "3575",
      "geometry": {
        "type": "Point",
        "coordinates": [
          -53.714081,
          8.429289
        ]
      },
      "properties": {
        "label": "Alfimeprase",
        "level": 5,
        "pos": "-205284.91700000002,35936.182",
        "src_id": "4637",
        "weight": "0.0"
      }
    },
    {
      "type": "Feature",
      "id": "3574",
      "geometry": {
        "type": "Point",
        "coordinates": [
          -53.238621,
          7.279537
        ]
      },
      "properties": {
        "label": "Canfosfamide",
        "level": 5,
        "pos": "-203370.87600000002,30441.687",
        "src_id": "4681",
        "weight": "0.0"
      }
    },
    {
      "type": "Feature",
      "id": "3573",
      "geometry": {
        "type": "Point",
        "coordinates": [
          -56.003017,
          8.085871
        ]
      },
      "properties": {
        "label": "Labetuzumab",
        "level": 5,
        "pos": "-214499.38499999998,34293.431",
        "src_id": "4787",
        "weight": "0.0"
      }
    },
    {
      "type": "Feature",
      "id": "3572",
      "geometry": {
        "type": "Point",
        "coordinates": [
          -53.959002,
          7.873341
        ]
      },
      "properties": {
        "label": "Tetomilast",
        "level": 5,
        "pos": "-206270.895,33277.493",
        "src_id": "4954",
        "weight": "0.0"
      }
    },
    {
      "type": "Feature",
      "id": "3570",
      "geometry": {
        "type": "Point",
        "coordinates": [
          -55.338327,
          7.374033
        ]
      },
      "properties": {
        "label": "Repinotan",
        "level": 5,
        "pos": "-211823.58099999998,30892.713",
        "src_id": "5640",
        "weight": "0.0"
      }
    },
    {
      "type": "Feature",
      "id": "3569",
      "geometry": {
        "type": "Point",
        "coordinates": [
          -55.950856,
          8.767279
        ]
      },
      "properties": {
        "label": "Enclomiphene",
        "level": 5,
        "pos": "-214289.409,37554.391",
        "src_id": "5794",
        "weight": "0.0"
      }
    },
    {
      "type": "Feature",
      "id": "418",
      "geometry": {
        "type": "Point",
        "coordinates": [
          4.648698,
          17.329166
        ]
      },
      "properties": {
        "label": "Choline",
        "level": 1,
        "pos": "29663.613999999998,79202.97499999999",
        "src_id": "115",
        "weight": "401.1666666666667"
      }
    },
    {
      "type": "Feature",
      "id": "1067",
      "geometry": {
        "type": "Point",
        "coordinates": [
          7.279083,
          18.407496
        ]
      },
      "properties": {
        "label": "Nicotinamide",
        "level": 1,
        "pos": "40252.637,84566.517",
        "src_id": "2556",
        "weight": "89.025"
      }
    },
    {
      "type": "Feature",
      "id": "3568",
      "geometry": {
        "type": "Point",
        "coordinates": [
          7.527999,
          19.216447
        ]
      },
      "properties": {
        "label": "Inositol nicotinate",
        "level": 1,
        "pos": "41254.688,88612.193",
        "src_id": "7903",
        "weight": "57.91153846153846"
      }
    },
    {
      "type": "Feature",
      "id": "2337",
      "geometry": {
        "type": "Point",
        "coordinates": [
          8.695076,
          22.593014
        ]
      },
      "properties": {
        "label": "Hot flush",
        "level": 4,
        "pos": "45952.937,105726.148",
        "src_id": "178313",
        "weight": "0.0"
      }
    },
    {
      "type": "Feature",
      "id": "1419",
      "geometry": {
        "type": "Point",
        "coordinates": [
          8.627797,
          21.67564
        ]
      },
      "properties": {
        "label": "Adenine",
        "level": 5,
        "pos": "45682.102999999996,101037.776",
        "src_id": "164",
        "weight": "0.0"
      }
    },
    {
      "type": "Feature",
      "id": "919",
      "geometry": {
        "type": "Point",
        "coordinates": [
          8.421823,
          20.37373
        ]
      },
      "properties": {
        "label": "Glycerin",
        "level": 1,
        "pos": "44852.921,94434.871",
        "src_id": "8332",
        "weight": "0.0"
      }
    },
    {
      "type": "Feature",
      "id": "3773",
      "geometry": {
        "type": "Point",
        "coordinates": [
          9.665439,
          22.138673
        ]
      },
      "properties": {
        "label": "Dexpanthenol",
        "level": 4,
        "pos": "49859.289,103400.36200000001",
        "src_id": "8294",
        "weight": "152.25462184873967"
      }
    },
    {
      "type": "Feature",
      "id": "8092",
      "geometry": {
        "type": "Point",
        "coordinates": [
          10.968342,
          22.631011
        ]
      },
      "properties": {
        "label": "Nicotinamide increased",
        "level": 5,
        "pos": "55104.325000000004,105921.0",
        "src_id": "181821",
        "weight": "0.0"
      }
    },
    {
      "type": "Feature",
      "id": "923",
      "geometry": {
        "type": "Point",
        "coordinates": [
          3.09559,
          16.835006
        ]
      },
      "properties": {
        "label": "Cyanocobalamin",
        "level": 1,
        "pos": "23411.333,76755.67700000001",
        "src_id": "108",
        "weight": "0.0"
      }
    },
    {
      "type": "Feature",
      "id": "5553",
      "geometry": {
        "type": "Point",
        "coordinates": [
          6.564609,
          19.356968
        ]
      },
      "properties": {
        "label": "Nylidrin",
        "level": 5,
        "pos": "37376.407,89316.956",
        "src_id": "5440",
        "weight": "0.0"
      }
    },
    {
      "type": "Feature",
      "id": "5292",
      "geometry": {
        "type": "Point",
        "coordinates": [
          7.543341,
          19.834332
        ]
      },
      "properties": {
        "label": "Blood gonadotrophin",
        "level": 4,
        "pos": "41316.451,91715.71",
        "src_id": "172161",
        "weight": "0.0"
      }
    },
    {
      "type": "Feature",
      "id": "1123",
      "geometry": {
        "type": "Point",
        "coordinates": [
          9.839339,
          23.789963
        ]
      },
      "properties": {
        "label": "Salicylic acid",
        "level": 5,
        "pos": "50559.351,111890.701",
        "src_id": "922",
        "weight": "0.0"
      }
    },
    {
      "type": "Feature",
      "id": "5366",
      "geometry": {
        "type": "Point",
        "coordinates": [
          9.782724,
          22.775789
        ]
      },
      "properties": {
        "label": "Analgesic drug level increased",
        "level": 5,
        "pos": "50331.435999999994,106663.94",
        "src_id": "170271",
        "weight": "0.0"
      }
    },
    {
      "type": "Feature",
      "id": "8141",
      "geometry": {
        "type": "Point",
        "coordinates": [
          12.00068,
          26.357355
        ]
      },
      "properties": {
        "label": "Electrocauterisation",
        "level": 5,
        "pos": "59260.170000000006,125310.67",
        "src_id": "175710",
        "weight": "0.0"
      }
    },
    {
      "type": "Feature",
      "id": "3672",
      "geometry": {
        "type": "Point",
        "coordinates": [
          12.362171,
          26.952829
        ]
      },
      "properties": {
        "label": "Dry eye",
        "level": 1,
        "pos": "60715.409999999996,128464.83699999998",
        "src_id": "175418",
        "weight": "0.0"
      }
    },
    {
      "type": "Feature",
      "id": "3772",
      "geometry": {
        "type": "Point",
        "coordinates": [
          10.1396,
          23.314341
        ]
      },
      "properties": {
        "label": "Mineral oil",
        "level": 4,
        "pos": "51768.096999999994,109434.52100000001",
        "src_id": "9013",
        "weight": "17.02"
      }
    },
    {
      "type": "Feature",
      "id": "1040",
      "geometry": {
        "type": "Point",
        "coordinates": [
          -1.890697,
          14.969029
        ]
      },
      "properties": {
        "label": "Methionine",
        "level": 1,
        "pos": "3338.254,67570.314",
        "src_id": "126",
        "weight": "0.0"
      }
    },
    {
      "type": "Feature",
      "id": "729",
      "geometry": {
        "type": "Point",
        "coordinates": [
          6.535577,
          17.026502
        ]
      },
      "properties": {
        "label": "Thiamine",
        "level": 3,
        "pos": "37259.542,77703.276",
        "src_id": "144",
        "weight": "117.025"
      }
    },
    {
      "type": "Feature",
      "id": "7181",
      "geometry": {
        "type": "Point",
        "coordinates": [
          2.840039,
          18.380401
        ]
      },
      "properties": {
        "label": "Gastric intrinsic factor",
        "level": 5,
        "pos": "22382.572,84431.348",
        "src_id": "8288",
        "weight": "0.0"
      }
    },
    {
      "type": "Feature",
      "id": "3970",
      "geometry": {
        "type": "Point",
        "coordinates": [
          6.676464,
          17.883631
        ]
      },
      "properties": {
        "label": "Blood homocysteine",
        "level": 5,
        "pos": "37826.697,81956.776",
        "src_id": "172188",
        "weight": "0.0"
      }
    },
    {
      "type": "Feature",
      "id": "7460",
      "geometry": {
        "type": "Point",
        "coordinates": [
          3.309257,
          17.822707
        ]
      },
      "properties": {
        "label": "Red blood cell count decreased",
        "level": 5,
        "pos": "24271.483,81653.78",
        "src_id": "184888",
        "weight": "0.0"
      }
    },
    {
      "type": "Feature",
      "id": "8448",
      "geometry": {
        "type": "Point",
        "coordinates": [
          6.168258,
          18.782229
        ]
      },
      "properties": {
        "label": "Trapidil",
        "level": 5,
        "pos": "35780.838,86438.191",
        "src_id": "8223",
        "weight": "0.0"
      }
    },
    {
      "type": "Feature",
      "id": "538",
      "geometry": {
        "type": "Point",
        "coordinates": [
          12.837232,
          22.625329
        ]
      },
      "properties": {
        "label": "L-Glutamine",
        "level": 3,
        "pos": "62627.842000000004,105891.859",
        "src_id": "122",
        "weight": "6028.491666666668"
      }
    },
    {
      "type": "Feature",
      "id": "924",
      "geometry": {
        "type": "Point",
        "coordinates": [
          14.547951,
          24.040407
        ]
      },
      "properties": {
        "label": "Creatine",
        "level": 3,
        "pos": "69514.613,113187.63",
        "src_id": "140",
        "weight": "0.0"
      }
    },
    {
      "type": "Feature",
      "id": "699",
      "geometry": {
        "type": "Point",
        "coordinates": [
          15.294749,
          23.139505
        ]
      },
      "properties": {
        "label": "L-Carnitine",
        "level": 5,
        "pos": "72520.961,108533.858",
        "src_id": "570",
        "weight": "0.0"
      }
    },
    {
      "type": "Feature",
      "id": "404",
      "geometry": {
        "type": "Point",
        "coordinates": [
          13.93662,
          23.108554
        ]
      },
      "properties": {
        "label": "Ammonia",
        "level": 4,
        "pos": "67053.598,108374.538",
        "src_id": "9063",
        "weight": "750.6348039215686"
      }
    },
    {
      "type": "Feature",
      "id": "5391",
      "geometry": {
        "type": "Point",
        "coordinates": [
          9.898777,
          21.129535
        ]
      },
      "properties": {
        "label": "Glucosamine",
        "level": 3,
        "pos": "50798.633,98261.06199999999",
        "src_id": "1274",
        "weight": "0.0"
      }
    },
    {
      "type": "Feature",
      "id": "1696",
      "geometry": {
        "type": "Point",
        "coordinates": [
          10.533051,
          21.638182
        ]
      },
      "properties": {
        "label": "Phosphocreatine",
        "level": 4,
        "pos": "53352.003000000004,100846.98899999999",
        "src_id": "10803",
        "weight": "0.0"
      }
    },
    {
      "type": "Feature",
      "id": "1649",
      "geometry": {
        "type": "Point",
        "coordinates": [
          16.933937,
          25.360306
        ]
      },
      "properties": {
        "label": "Pentoxifylline",
        "level": 3,
        "pos": "79119.77,120065.41500000001",
        "src_id": "792",
        "weight": "0.0"
      }
    },
    {
      "type": "Feature",
      "id": "284",
      "geometry": {
        "type": "Point",
        "coordinates": [
          16.404284,
          24.916854
        ]
      },
      "properties": {
        "label": "L-Arginine",
        "level": 3,
        "pos": "76987.565,117746.503",
        "src_id": "117",
        "weight": "2413.5416666666665"
      }
    },
    {
      "type": "Feature",
      "id": "269",
      "geometry": {
        "type": "Point",
        "coordinates": [
          18.39777,
          25.352584
        ]
      },
      "properties": {
        "label": "Blood lactic acid",
        "level": 4,
        "pos": "85012.66,120024.966",
        "src_id": "172243",
        "weight": "904.7083333333334"
      }
    },
    {
      "type": "Feature",
      "id": "447",
      "geometry": {
        "type": "Point",
        "coordinates": [
          17.613419,
          24.57149
        ]
      },
      "properties": {
        "label": "Urea",
        "level": 4,
        "pos": "81855.134,115946.284",
        "src_id": "3677",
        "weight": "496.1833333333334"
      }
    },
    {
      "type": "Feature",
      "id": "1041",
      "geometry": {
        "type": "Point",
        "coordinates": [
          20.880689,
          26.293989
        ]
      },
      "properties": {
        "label": "Hepatic encephalopathy",
        "level": 5,
        "pos": "95008.042,124975.995",
        "src_id": "177890",
        "weight": "0.0"
      }
    },
    {
      "type": "Feature",
      "id": "1297",
      "geometry": {
        "type": "Point",
        "coordinates": [
          5.981911,
          17.040745
        ]
      },
      "properties": {
        "label": "Biotin",
        "level": 3,
        "pos": "35030.665,77773.804",
        "src_id": "114",
        "weight": "7.0"
      }
    },
    {
      "type": "Feature",
      "id": "4582",
      "geometry": {
        "type": "Point",
        "coordinates": [
          12.957602,
          24.646272
        ]
      },
      "properties": {
        "label": "Pirlindole",
        "level": 5,
        "pos": "63112.412,116335.663",
        "src_id": "8184",
        "weight": "0.0"
      }
    },
    {
      "type": "Feature",
      "id": "5169",
      "geometry": {
        "type": "Point",
        "coordinates": [
          11.845893,
          23.680307
        ]
      },
      "properties": {
        "label": "Benzylamine",
        "level": 5,
        "pos": "58637.05,111323.635",
        "src_id": "2336",
        "weight": "0.0"
      }
    },
    {
      "type": "Feature",
      "id": "2662",
      "geometry": {
        "type": "Point",
        "coordinates": [
          17.230184,
          27.580784
        ]
      },
      "properties": {
        "label": "Decapitation",
        "level": 5,
        "pos": "80312.359,131809.171",
        "src_id": "174905",
        "weight": "0.0"
      }
    },
    {
      "type": "Feature",
      "id": "1098",
      "geometry": {
        "type": "Point",
        "coordinates": [
          17.105802,
          25.829273
        ]
      },
      "properties": {
        "label": "Riluzole",
        "level": 3,
        "pos": "79811.64,122527.043",
        "src_id": "726",
        "weight": "0.0"
      }
    },
    {
      "type": "Feature",
      "id": "379",
      "geometry": {
        "type": "Point",
        "coordinates": [
          20.952369,
          27.38723
        ]
      },
      "properties": {
        "label": "Gliosis",
        "level": 3,
        "pos": "95296.601,130776.327",
        "src_id": "177390",
        "weight": "5041.275"
      }
    },
    {
      "type": "Feature",
      "id": "1924",
      "geometry": {
        "type": "Point",
        "coordinates": [
          13.315315,
          23.622571
        ]
      },
      "properties": {
        "label": "Amyotrophic lateral sclerosis",
        "level": 5,
        "pos": "64552.442,111025.251",
        "src_id": "170187",
        "weight": "0.0"
      }
    },
    {
      "type": "Feature",
      "id": "342",
      "geometry": {
        "type": "Point",
        "coordinates": [
          24.060647,
          28.314706
        ]
      },
      "properties": {
        "label": "Nitric Oxide",
        "level": 3,
        "pos": "107809.459,135742.237",
        "src_id": "424",
        "weight": "9772.66111111111"
      }
    },
    {
      "type": "Feature",
      "id": "736",
      "geometry": {
        "type": "Point",
        "coordinates": [
          15.592717,
          24.494485
        ]
      },
      "properties": {
        "label": "Blood pyruvic acid",
        "level": 5,
        "pos": "73720.47600000001,115545.565",
        "src_id": "172349",
        "weight": "0.0"
      }
    },
    {
      "type": "Feature",
      "id": "2421",
      "geometry": {
        "type": "Point",
        "coordinates": [
          24.796,
          27.95176
        ]
      },
      "properties": {
        "label": "Lactulose",
        "level": 5,
        "pos": "110769.73599999999,133793.881",
        "src_id": "568",
        "weight": "0.0"
      }
    },
    {
      "type": "Feature",
      "id": "1084",
      "geometry": {
        "type": "Point",
        "coordinates": [
          24.927288,
          28.807902
        ]
      },
      "properties": {
        "label": "Acute hepatic failure",
        "level": 5,
        "pos": "111298.256,138400.498",
        "src_id": "169747",
        "weight": "0.0"
      }
    },
    {
      "type": "Feature",
      "id": "1436",
      "geometry": {
        "type": "Point",
        "coordinates": [
          23.432675,
          27.04612
        ]
      },
      "properties": {
        "label": "Hepatic cirrhosis",
        "level": 5,
        "pos": "105281.45700000001,128960.491",
        "src_id": "177881",
        "weight": "0.0"
      }
    },
    {
      "type": "Feature",
      "id": "3161",
      "geometry": {
        "type": "Point",
        "coordinates": [
          9.35657,
          18.758804
        ]
      },
      "properties": {
        "label": "Biotinidase deficiency",
        "level": 5,
        "pos": "48615.888,86321.073",
        "src_id": "171757",
        "weight": "0.0"
      }
    },
    {
      "type": "Feature",
      "id": "4939",
      "geometry": {
        "type": "Point",
        "coordinates": [
          9.399917,
          20.607219
        ]
      },
      "properties": {
        "label": "Biotin deficiency",
        "level": 5,
        "pos": "48790.388999999996,95614.85399999999",
        "src_id": "171756",
        "weight": "0.0"
      }
    },
    {
      "type": "Feature",
      "id": "4015",
      "geometry": {
        "type": "Point",
        "coordinates": [
          14.14664,
          24.961231
        ]
      },
      "properties": {
        "label": "Benzofuran",
        "level": 5,
        "pos": "67899.075,117978.178",
        "src_id": "3940",
        "weight": "0.0"
      }
    },
    {
      "type": "Feature",
      "id": "8447",
      "geometry": {
        "type": "Point",
        "coordinates": [
          12.083655,
          23.104099
        ]
      },
      "properties": {
        "label": "Metralindole",
        "level": 5,
        "pos": "59594.198,108351.609",
        "src_id": "8245",
        "weight": "0.0"
      }
    },
    {
      "type": "Feature",
      "id": "3779",
      "geometry": {
        "type": "Point",
        "coordinates": [
          12.542703,
          24.177465
        ]
      },
      "properties": {
        "label": "Triflupromazine",
        "level": 5,
        "pos": "61442.168000000005,113898.455",
        "src_id": "496",
        "weight": "0.0"
      }
    },
    {
      "type": "Feature",
      "id": "505",
      "geometry": {
        "type": "Point",
        "coordinates": [
          -1.828839,
          49.370022
        ]
      },
      "properties": {
        "label": "Succinic acid",
        "level": 4,
        "pos": "3587.27,265410.232",
        "src_id": "131",
        "weight": "184.0"
      }
    },
    {
      "type": "Feature",
      "id": "3977",
      "geometry": {
        "type": "Point",
        "coordinates": [
          -1.440008,
          44.878312
        ]
      },
      "properties": {
        "label": "Methylmalonic Acid",
        "level": 4,
        "pos": "5152.571,234132.761",
        "src_id": "3943",
        "weight": "0.0"
      }
    },
    {
      "type": "Feature",
      "id": "4216",
      "geometry": {
        "type": "Point",
        "coordinates": [
          -1.982727,
          47.613406
        ]
      },
      "properties": {
        "label": "Methylmalonic aciduria",
        "level": 4,
        "pos": "2967.772,252860.81",
        "src_id": "180936",
        "weight": "0.0"
      }
    },
    {
      "type": "Feature",
      "id": "3402",
      "geometry": {
        "type": "Point",
        "coordinates": [
          -1.324573,
          43.646555
        ]
      },