{
  "type": "FeatureCollection",
  "features": [
    {
      "type": "Feature",
      "id": "594",
      "geometry": {
        "type": "Point",
        "coordinates": [
          20.320926,
          9.245136
        ]
      },
      "properties": {
        "label": "Cetuximab",
        "level": 1,
        "pos": "207339.347,13037.217999999999",
        "src_id": "2",
        "weight": "0.0009217109554026744"
      }
    },
    {
      "type": "Feature",
      "id": "560",
      "geometry": {
        "type": "Point",
        "coordinates": [
          18.896106,
          5.118683
        ]
      },
      "properties": {
        "label": "Pegfilgrastim",
        "level": 1,
        "pos": "198224.878,-4125.262000000001",
        "src_id": "19",
        "weight": "0.0010096155476091318"
      }
    },
    {
      "type": "Feature",
      "id": "1773",
      "geometry": {
        "type": "Point",
        "coordinates": [
          24.856,
          10.142562
        ]
      },
      "properties": {
        "label": "Pegvisomant",
        "level": 5,
        "pos": "236349.89200000002,16793.304",
        "src_id": "78",
        "weight": "0.00011281830419910772"
      }
    },
    {
      "type": "Feature",
      "id": "1734",
      "geometry": {
        "type": "Point",
        "coordinates": [
          24.296927,
          9.401572
        ]
      },
      "properties": {
        "label": "Epothilone D",
        "level": 4,
        "pos": "232773.542,13691.249",
        "src_id": "1785",
        "weight": "0.00014365899815427558"
      }
    },
    {
      "type": "Feature",
      "id": "3386",
      "geometry": {
        "type": "Point",
        "coordinates": [
          25.5088,
          9.496335
        ]
      },
      "properties": {
        "label": "Fidarestat",
        "level": 5,
        "pos": "240525.80000000002,14087.581",
        "src_id": "1922",
        "weight": "4.349359321306256e-05"
      }
    },
    {
      "type": "Feature",
      "id": "1191",
      "geometry": {
        "type": "Point",
        "coordinates": [
          26.13798,
          10.105546
        ]
      },
      "properties": {
        "label": "Calcipotriol",
        "level": 3,
        "pos": "244550.619,16638.165",
        "src_id": "2182",
        "weight": "0.0002755628278187749"
      }
    },
    {
      "type": "Feature",
      "id": "685",
      "geometry": {
        "type": "Point",
        "coordinates": [
          29.485983,
          10.589572
        ]
      },
      "properties": {
        "label": "Ixabepilone",
        "level": 1,
        "pos": "265967.55,18668.083",
        "src_id": "4567",
        "weight": "0.0007320676644013988"
      }
    },
    {
      "type": "Feature",
      "id": "3385",
      "geometry": {
        "type": "Point",
        "coordinates": [
          27.443741,
          10.029746
        ]
      },
      "properties": {
        "label": "Voglibose",
        "level": 5,
        "pos": "252903.485,16320.561999999998",
        "src_id": "4600",
        "weight": "4.349359321306256e-05"
      }
    },
    {
      "type": "Feature",
      "id": "1769",
      "geometry": {
        "type": "Point",
        "coordinates": [
          23.128586,
          9.917277
        ]
      },
      "properties": {
        "label": "anecortave acetate",
        "level": 5,
        "pos": "225299.75,15849.443000000001",
        "src_id": "4945",
        "weight": "0.00011281830419910772"
      }
    },
    {
      "type": "Feature",
      "id": "1515",
      "geometry": {
        "type": "Point",
        "coordinates": [
          28.268425,
          9.461635
        ]
      },
      "properties": {
        "label": "Lasofoxifene",
        "level": 4,
        "pos": "258178.91700000002,13942.436000000002",
        "src_id": "5477",
        "weight": "0.00017648295058772198"
      }
    },
    {
      "type": "Feature",
      "id": "1700",
      "geometry": {
        "type": "Point",
        "coordinates": [
          20.493091,
          9.905317
        ]
      },
      "properties": {
        "label": "Asoprisnil",
        "level": 4,
        "pos": "208440.677,15799.347",
        "src_id": "5742",
        "weight": "0.00012817528263352405"
      }
    },
    {
      "type": "Feature",
      "id": "3208",
      "geometry": {
        "type": "Point",
        "coordinates": [
          21.797213,
          9.383029
        ]
      },
      "properties": {
        "label": "Dexmethylphenidate",
        "level": 5,
        "pos": "216783.048,13613.712",
        "src_id": "5761",
        "weight": "4.678225346307887e-05"
      }
    },
    {
      "type": "Feature",
      "id": "3378",
      "geometry": {
        "type": "Point",
        "coordinates": [
          26.686137,
          9.407067
        ]
      },
      "properties": {
        "label": "Metreleptin",
        "level": 5,
        "pos": "248057.145,13714.229",
        "src_id": "7992",
        "weight": "4.349359321306256e-05"
      }
    },
    {
      "type": "Feature",
      "id": "1025",
      "geometry": {
        "type": "Point",
        "coordinates": [
          28.478846,
          10.015047
        ]
      },
      "properties": {
        "label": "Landiolol",
        "level": 3,
        "pos": "259524.96600000001,16258.980000000001",
        "src_id": "9872",
        "weight": "0.0003493129333980536"
      }
    },
    {
      "type": "Feature",
      "id": "5000",
      "geometry": {
        "type": "Point",
        "coordinates": [
          21.513955,
          10.487955
        ]
      },
      "properties": {
        "label": "Colorectal cancer metastatic",
        "level": 5,
        "pos": "214971.071,18241.655000000002",
        "src_id": "173948",
        "weight": "3.5901913250639724e-05"
      }
    },
    {
      "type": "Feature",
      "id": "613",
      "geometry": {
        "type": "Point",
        "coordinates": [
          19.734372,
          2.708246
        ]
      },
      "properties": {
        "label": "Anakinra",
        "level": 2,
        "pos": "203587.207,-14093.71",
        "src_id": "26",
        "weight": "0.0006854322955168763"
      }
    },
    {
      "type": "Feature",
      "id": "760",
      "geometry": {
        "type": "Point",
        "coordinates": [
          20.940103,
          11.237841
        ]
      },
      "properties": {
        "label": "Ibritumomab tiuxetan",
        "level": 2,
        "pos": "211300.182,21391.855",
        "src_id": "75",
        "weight": "0.0006142940177688593"
      }
    },
    {
      "type": "Feature",
      "id": "571",
      "geometry": {
        "type": "Point",
        "coordinates": [
          21.052774,
          2.086704
        ]
      },
      "properties": {
        "label": "Tenofovir disoproxil",
        "level": 1,
        "pos": "212020.93,-16660.187",
        "src_id": "291",
        "weight": "0.0009357611255514337"
      }
    },
    {
      "type": "Feature",
      "id": "343",
      "geometry": {
        "type": "Point",
        "coordinates": [
          17.748805,
          3.311815
        ]
      },
      "properties": {
        "label": "Gefitinib",
        "level": 1,
        "pos": "190885.679,-11600.18",
        "src_id": "308",
        "weight": "0.0011314963743790413"
      }
    },
    {
      "type": "Feature",
      "id": "546",
      "geometry": {
        "type": "Point",
        "coordinates": [
          20.171895,
          1.446516
        ]
      },
      "properties": {
        "label": "Emtricitabine",
        "level": 1,
        "pos": "206386.00600000002,-19302.614999999998",
        "src_id": "865",
        "weight": "0.0009347967727906894"
      }
    },
    {
      "type": "Feature",
      "id": "990",
      "geometry": {
        "type": "Point",
        "coordinates": [
          20.632283,
          11.876115
        ]
      },
      "properties": {
        "label": "Tipranavir",
        "level": 2,
        "pos": "209331.076,24079.609",
        "src_id": "918",
        "weight": "0.0005270673719664609"
      }
    },
    {
      "type": "Feature",
      "id": "903",
      "geometry": {
        "type": "Point",
        "coordinates": [
          18.6764,
          5.807858
        ]
      },
      "properties": {
        "label": "Desloratadine",
        "level": 2,
        "pos": "196819.44100000002,-1269.018",
        "src_id": "953",
        "weight": "0.0006366096652766414"
      }
    },
    {
      "type": "Feature",
      "id": "587",
      "geometry": {
        "type": "Point",
        "coordinates": [
          20.913459,
          3.295997
        ]
      },
      "properties": {
        "label": "Lumiracoxib",
        "level": 1,
        "pos": "211129.736,-11665.551000000001",
        "src_id": "1266",
        "weight": "0.000760448692830453"
      }
    },
    {
      "type": "Feature",
      "id": "565",
      "geometry": {
        "type": "Point",
        "coordinates": [
          18.811798,
          1.965421
        ]
      },
      "properties": {
        "label": "Lopinavir",
        "level": 2,
        "pos": "197685.57200000001,-17160.874",
        "src_id": "1533",
        "weight": "0.0006687161944670262"
      }
    },
    {
      "type": "Feature",
      "id": "869",
      "geometry": {
        "type": "Point",
        "coordinates": [
          18.876165,
          1.149086
        ]
      },
      "properties": {
        "label": "Deferasirox",
        "level": 2,
        "pos": "198097.322,-20530.001",
        "src_id": "1541",
        "weight": "0.0005189054870922484"
      }
    },
    {
      "type": "Feature",
      "id": "6459",
      "geometry": {
        "type": "Point",
        "coordinates": [
          20.147882,
          5.679771
        ]
      },
      "properties": {
        "label": "Acute febrile neutrophilic dermatosis",
        "level": 5,
        "pos": "206232.401,-1800.121",
        "src_id": "169736",
        "weight": "2.838282250982141e-05"
      }
    },
    {
      "type": "Feature",
      "id": "1118",
      "geometry": {
        "type": "Point",
        "coordinates": [
          33.666307,
          8.808287
        ]
      },
      "properties": {
        "label": "Alvocidib",
        "level": 3,
        "pos": "292708.784,11212.362000000001",
        "src_id": "3300",
        "weight": "0.00027025834546784276"
      }
    },
    {
      "type": "Feature",
      "id": "1404",
      "geometry": {
        "type": "Point",
        "coordinates": [
          32.561524,
          9.318912
        ]
      },
      "properties": {
        "label": "Icatibant",
        "level": 4,
        "pos": "285641.55899999995,13345.633",
        "src_id": "5471",
        "weight": "0.00021979249894422118"
      }
    },
    {
      "type": "Feature",
      "id": "1535",
      "geometry": {
        "type": "Point",
        "coordinates": [
          33.270317,
          8.124397
        ]
      },
      "properties": {
        "label": "Temsirolimus",
        "level": 4,
        "pos": "290175.66099999996,8359.811",
        "src_id": "5536",
        "weight": "0.00017312483862939453"
      }
    },
    {
      "type": "Feature",
      "id": "2465",
      "geometry": {
        "type": "Point",
        "coordinates": [
          31.228097,
          9.770091
        ]
      },
      "properties": {
        "label": "Priralfinamide",
        "level": 5,
        "pos": "277111.73000000004,15233.140000000001",
        "src_id": "5722",
        "weight": "8.691246628007659e-05"
      }
    },
    {
      "type": "Feature",
      "id": "1392",
      "geometry": {
        "type": "Point",
        "coordinates": [
          30.655021,
          9.200002
        ]
      },
      "properties": {
        "label": "Efaproxiral",
        "level": 4,
        "pos": "273445.799,12848.58",
        "src_id": "7479",
        "weight": "0.00018059186802693776"
      }
    },
    {
      "type": "Feature",
      "id": "4146",
      "geometry": {
        "type": "Point",
        "coordinates": [
          29.500734,
          9.037969
        ]
      },
      "properties": {
        "label": "Perifosine",
        "level": 5,
        "pos": "266061.907,12171.541",
        "src_id": "5717",
        "weight": "2.943337805686841e-05"
      }
    },
    {
      "type": "Feature",
      "id": "4193",
      "geometry": {
        "type": "Point",
        "coordinates": [
          29.801653,
          9.904495
        ]
      },
      "properties": {
        "label": "Glucarpidase",
        "level": 5,
        "pos": "267986.86600000004,15795.911",
        "src_id": "7857",
        "weight": "2.7700659211059657e-05"
      }
    },
    {
      "type": "Feature",
      "id": "2253",
      "geometry": {
        "type": "Point",
        "coordinates": [
          19.64689,
          3.270897
        ]
      },
      "properties": {
        "label": "Canakinumab",
        "level": 5,
        "pos": "203027.593,-11769.275",
        "src_id": "5452",
        "weight": "8.103912573474909e-05"
      }
    },
    {
      "type": "Feature",
      "id": "696",
      "geometry": {
        "type": "Point",
        "coordinates": [
          30.860905,
          11.25463
        ]
      },
      "properties": {
        "label": "Adefovir Dipivoxil",
        "level": 1,
        "pos": "274762.827,21462.468999999997",
        "src_id": "704",
        "weight": "0.000734801345815369"
      }
    },
    {
      "type": "Feature",
      "id": "519",
      "geometry": {
        "type": "Point",
        "coordinates": [
          22.956751,
          11.141404
        ]
      },
      "properties": {
        "label": "Bortezomib",
        "level": 1,
        "pos": "224200.52899999998,20986.285",
        "src_id": "179",
        "weight": "0.0008516174589830954"
      }
    },
    {
      "type": "Feature",
      "id": "713",
      "geometry": {
        "type": "Point",
        "coordinates": [
          24.931347,
          11.31808
        ]
      },
      "properties": {
        "label": "Vorinostat",
        "level": 1,
        "pos": "236831.884,21729.399999999998",
        "src_id": "2413",
        "weight": "0.0007660023626719703"
      }
    },
    {
      "type": "Feature",
      "id": "1027",
      "geometry": {
        "type": "Point",
        "coordinates": [
          26.093934,
          11.788882
        ]
      },
      "properties": {
        "label": "Nilotinib",
        "level": 3,
        "pos": "244268.858,23711.913",
        "src_id": "4590",
        "weight": "0.000345329450044185"
      }
    },
    {
      "type": "Feature",
      "id": "1837",
      "geometry": {
        "type": "Point",
        "coordinates": [
          24.350728,
          10.708891
        ]
      },
      "properties": {
        "label": "Dexlansoprazole",
        "level": 4,
        "pos": "233117.696,19168.965",
        "src_id": "4994",
        "weight": "0.00014591249024862554"
      }
    },
    {
      "type": "Feature",
      "id": "2647",
      "geometry": {
        "type": "Point",
        "coordinates": [
          24.679229,
          12.298188
        ]
      },
      "properties": {
        "label": "Lestaurtinib",
        "level": 5,
        "pos": "235219.101,25860.391",
        "src_id": "5622",
        "weight": "7.487688683288816e-05"
      }
    },
    {
      "type": "Feature",
      "id": "2618",
      "geometry": {
        "type": "Point",
        "coordinates": [
          23.91898,
          11.739467
        ]
      },
      "properties": {
        "label": "Axitinib",
        "level": 5,
        "pos": "230355.843,23503.665",
        "src_id": "5708",
        "weight": "6.825223553431376e-05"
      }
    },
    {
      "type": "Feature",
      "id": "1086",
      "geometry": {
        "type": "Point",
        "coordinates": [
          24.948346,
          13.023587
        ]
      },
      "properties": {
        "label": "Denosumab",
        "level": 3,
        "pos": "236940.623,28927.686999999998",
        "src_id": "5719",
        "weight": "0.0003207043248779182"
      }
    },
    {
      "type": "Feature",
      "id": "1459",
      "geometry": {
        "type": "Point",
        "coordinates": [
          26.12792,
          11.165447
        ]
      },
      "properties": {
        "label": "Carfilzomib",
        "level": 4,
        "pos": "244486.27300000002,21087.382999999998",
        "src_id": "7848",
        "weight": "0.00022001933605469637"
      }
    },
    {
      "type": "Feature",
      "id": "1715",
      "geometry": {
        "type": "Point",
        "coordinates": [
          22.709695,
          11.773812
        ]
      },
      "properties": {
        "label": "Blinatumomab",
        "level": 4,
        "pos": "222620.126,23648.397",
        "src_id": "7998",
        "weight": "0.00014597664085199612"
      }
    },
    {
      "type": "Feature",
      "id": "3419",
      "geometry": {
        "type": "Point",
        "coordinates": [
          27.253464,
          10.675203
        ]
      },
      "properties": {
        "label": "Alosetron",
        "level": 5,
        "pos": "251686.289,19027.529000000002",
        "src_id": "955",
        "weight": "6.005683310910569e-05"
      }
    },
    {
      "type": "Feature",
      "id": "328",
      "geometry": {
        "type": "Point",
        "coordinates": [
          23.44456,
          3.430976
        ]
      },
      "properties": {
        "label": "Ritonavir",
        "level": 2,
        "pos": "227321.007,-11107.719",
        "src_id": "492",
        "weight": "0.00045943658932954054"
      }
    },
    {
      "type": "Feature",
      "id": "1177",
      "geometry": {
        "type": "Point",
        "coordinates": [
          24.614001,
          4.038575
        ]
      },
      "properties": {
        "label": "Agomelatine",
        "level": 4,
        "pos": "234801.84,-8595.672999999999",
        "src_id": "5685",
        "weight": "0.0002381613042530461"
      }
    },
    {
      "type": "Feature",
      "id": "2103",
      "geometry": {
        "type": "Point",
        "coordinates": [
          21.758902,
          2.652453
        ]
      },
      "properties": {
        "label": "Irofulven",
        "level": 5,
        "pos": "216537.985,-14324.139000000001",
        "src_id": "5246",
        "weight": "9.196459322339855e-05"
      }
    },
    {
      "type": "Feature",
      "id": "2382",
      "geometry": {
        "type": "Point",
        "coordinates": [
          22.977701,
          2.820976
        ]
      },
      "properties": {
        "label": "Combretastatin",
        "level": 5,
        "pos": "224334.554,-13628.092999999999",
        "src_id": "10241",
        "weight": "8.197136337193858e-05"
      }
    },
    {
      "type": "Feature",
      "id": "533",
      "geometry": {
        "type": "Point",
        "coordinates": [
          19.540771,
          -0.138729
        ]
      },
      "properties": {
        "label": "Enfuvirtide",
        "level": 1,
        "pos": "202348.757,-25843.308",
        "src_id": "102",
        "weight": "0.000991389289108246"
      }
    },
    {
      "type": "Feature",
      "id": "689",
      "geometry": {
        "type": "Point",
        "coordinates": [
          17.645619,
          10.722778
        ]
      },
      "properties": {
        "label": "Caspofungin",
        "level": 1,
        "pos": "190225.614,19227.283",
        "src_id": "507",
        "weight": "0.0008793276447376148"
      }
    },
    {
      "type": "Feature",
      "id": "373",
      "geometry": {
        "type": "Point",
        "coordinates": [
          19.60455,
          -0.768314
        ]
      },
      "properties": {
        "label": "Bosentan",
        "level": 1,
        "pos": "202756.75100000002,-28440.813",
        "src_id": "546",
        "weight": "0.0009643685767219644"
      }
    },
    {
      "type": "Feature",
      "id": "606",
      "geometry": {
        "type": "Point",
        "coordinates": [
          17.909143,
          6.393915
        ]
      },
      "properties": {
        "label": "Mycophenolic acid",
        "level": 2,
        "pos": "191911.347,1162.588",
        "src_id": "1010",
        "weight": "0.0005090547884202342"
      }
    },
    {
      "type": "Feature",
      "id": "507",
      "geometry": {
        "type": "Point",
        "coordinates": [
          19.480938,
          -1.45655
        ]
      },
      "properties": {
        "label": "Rosuvastatin",
        "level": 1,
        "pos": "201966.01,-31280.735",
        "src_id": "1082",
        "weight": "0.0007777704093352201"
      }
    },
    {
      "type": "Feature",
      "id": "2513",
      "geometry": {
        "type": "Point",
        "coordinates": [
          19.241556,
          9.892055
        ]
      },
      "properties": {
        "label": "Ipilimumab",
        "level": 5,
        "pos": "200434.699,15743.811000000002",
        "src_id": "5462",
        "weight": "8.685850972219836e-05"
      }
    },
    {
      "type": "Feature",
      "id": "597",
      "geometry": {
        "type": "Point",
        "coordinates": [
          24.602639,
          3.377345
        ]
      },
      "properties": {
        "label": "Nesiritide",
        "level": 1,
        "pos": "234729.162,-11329.369",
        "src_id": "4621",
        "weight": "0.0009444605474357639"
      }
    },
    {
      "type": "Feature",
      "id": "1235",
      "geometry": {
        "type": "Point",
        "coordinates": [
          23.300535,
          14.84583
        ]
      },
      "properties": {
        "label": "Vatalanib",
        "level": 4,
        "pos": "226399.69199999998,36673.834",
        "src_id": "4601",
        "weight": "0.0002474347691750474"
      }
    },
    {
      "type": "Feature",
      "id": "2560",
      "geometry": {
        "type": "Point",
        "coordinates": [
          23.720209,
          13.536649
        ]
      },
      "properties": {
        "label": "Carbopol 974P",
        "level": 5,
        "pos": "229084.315,31102.539",
        "src_id": "5014",
        "weight": "9.772858309777382e-05"
      }
    },
    {
      "type": "Feature",
      "id": "2894",
      "geometry": {
        "type": "Point",
        "coordinates": [
          21.03573,
          13.077844
        ]
      },
      "properties": {
        "label": "Indisulam",
        "level": 5,
        "pos": "211911.896,29157.474000000002",
        "src_id": "5571",
        "weight": "7.04635922339616e-05"
      }
    },
    {
      "type": "Feature",
      "id": "2753",
      "geometry": {
        "type": "Point",
        "coordinates": [
          21.075318,
          12.442182
        ]
      },
      "properties": {
        "label": "Laquinimod",
        "level": 5,
        "pos": "212165.144,26468.573",
        "src_id": "5747",
        "weight": "7.100872918655645e-05"
      }
    },
    {
      "type": "Feature",
      "id": "1616",
      "geometry": {
        "type": "Point",
        "coordinates": [
          22.832444,
          12.279264
        ]
      },
      "properties": {
        "label": "Gadofosveset trisodium",
        "level": 4,
        "pos": "223405.354,25780.492",
        "src_id": "5765",
        "weight": "0.00018577699109885955"
      }
    },
    {
      "type": "Feature",
      "id": "1614",
      "geometry": {
        "type": "Point",
        "coordinates": [
          23.619678,
          12.949985
        ]
      },
      "properties": {
        "label": "Oblimersen",
        "level": 4,
        "pos": "228441.234,28616.07",
        "src_id": "10889",
        "weight": "0.00019497088662990598"
      }
    },
    {
      "type": "Feature",
      "id": "3709",
      "geometry": {
        "type": "Point",
        "coordinates": [
          22.192526,
          13.634829
        ]
      },
      "properties": {
        "label": "Ethiodized oil",
        "level": 5,
        "pos": "219311.84300000002,31519.254",
        "src_id": "951",
        "weight": "4.91683371359699e-05"
      }
    },
    {
      "type": "Feature",
      "id": "3524",
      "geometry": {
        "type": "Point",
        "coordinates": [
          22.072095,
          17.323468
        ]
      },
      "properties": {
        "label": "Zosuquidar",
        "level": 5,
        "pos": "218541.45299999998,47312.954",
        "src_id": "5466",
        "weight": "5.3861276797442e-05"
      }
    },
    {
      "type": "Feature",
      "id": "3262",
      "geometry": {
        "type": "Point",
        "coordinates": [
          22.24474,
          13.046056
        ]
      },
      "properties": {
        "label": "Etilevodopa",
        "level": 5,
        "pos": "219645.845,29022.844",
        "src_id": "5654",
        "weight": "5.5277870771872894e-05"
      }
    },
    {
      "type": "Feature",
      "id": "3557",
      "geometry": {
        "type": "Point",
        "coordinates": [
          23.654551,
          14.236452
        ]
      },
      "properties": {
        "label": "Dibotermin alfa",
        "level": 5,
        "pos": "228664.313,34076.578",
        "src_id": "9311",
        "weight": "5.3984684039911957e-05"
      }
    },
    {
      "type": "Feature",
      "id": "1541",
      "geometry": {
        "type": "Point",
        "coordinates": [
          19.404834,
          11.047007
        ]
      },
      "properties": {
        "label": "Vinflunine",
        "level": 4,
        "pos": "201479.176,20589.422",
        "src_id": "9313",
        "weight": "0.00015823045415935006"
      }
    },
    {
      "type": "Feature",
      "id": "941",
      "geometry": {
        "type": "Point",
        "coordinates": [
          22.192213,
          4.359385
        ]
      },
      "properties": {
        "label": "Selegiline",
        "level": 3,
        "pos": "219309.842,-7268.576",
        "src_id": "1022",
        "weight": "0.00027176231876728307"
      }
    },
    {
      "type": "Feature",
      "id": "1215",
      "geometry": {
        "type": "Point",
        "coordinates": [
          21.061176,
          6.871351
        ]
      },
      "properties": {
        "label": "Lapatinib",
        "level": 3,
        "pos": "212074.68399999998,3145.569",
        "src_id": "1242",
        "weight": "0.0003588424536449816"
      }
    },
    {
      "type": "Feature",
      "id": "1365",
      "geometry": {
        "type": "Point",
        "coordinates": [
          20.92447,
          3.862083
        ]
      },
      "properties": {
        "label": "Cilomilast",
        "level": 4,
        "pos": "211200.18,-9325.537",
        "src_id": "3624",
        "weight": "0.00023565448198455005"
      }
    },
    {
      "type": "Feature",
      "id": "753",
      "geometry": {
        "type": "Point",
        "coordinates": [
          19.803171,
          4.47072
        ]
      },
      "properties": {
        "label": "Tocilizumab",
        "level": 2,
        "pos": "204027.306,-6807.893",
        "src_id": "5528",
        "weight": "0.0006154134167625618"
      }
    },
    {
      "type": "Feature",
      "id": "3496",
      "geometry": {
        "type": "Point",
        "coordinates": [
          36.494626,
          9.469972
        ]
      },
      "properties": {
        "label": "Uracil",
        "level": 5,
        "pos": "310801.33,13977.31",
        "src_id": "3228",
        "weight": "7.697371368930107e-05"
      }
    },
    {
      "type": "Feature",
      "id": "4641",
      "geometry": {
        "type": "Point",
        "coordinates": [
          31.982106,
          8.042429
        ]
      },
      "properties": {
        "label": "Hepatectomy",
        "level": 5,
        "pos": "281935.07399999996,8018.254000000001",
        "src_id": "177862",
        "weight": "4.063031139570666e-05"
      }
    },
    {
      "type": "Feature",
      "id": "428",
      "geometry": {
        "type": "Point",
        "coordinates": [
          14.468264,
          14.36016
        ]
      },
      "properties": {
        "label": "Darbepoetin alfa",
        "level": 1,
        "pos": "169900.305,34603.264",
        "src_id": "12",
        "weight": "0.0010129274041265023"
      }
    },
    {
      "type": "Feature",
      "id": "322",
      "geometry": {
        "type": "Point",
        "coordinates": [
          15.062777,
          5.14521
        ]
      },
      "properties": {
        "label": "Alemtuzumab",
        "level": 1,
        "pos": "173703.359,-4015.3759999999997",
        "src_id": "82",
        "weight": "0.0011133451830804997"
      }
    },
    {
      "type": "Feature",
      "id": "789",
      "geometry": {
        "type": "Point",
        "coordinates": [
          13.22587,
          14.909911
        ]
      },
      "properties": {
        "label": "Alefacept",
        "level": 2,
        "pos": "161952.797,36947.371",
        "src_id": "87",
        "weight": "0.0005564106897322968"
      }
    },
    {
      "type": "Feature",
      "id": "629",
      "geometry": {
        "type": "Point",
        "coordinates": [
          12.520797,
          24.193043
        ]
      },
      "properties": {
        "label": "Efalizumab",
        "level": 1,
        "pos": "157442.50400000002,77644.872",
        "src_id": "90",
        "weight": "0.0008119471057986142"
      }
    },
    {
      "type": "Feature",
      "id": "517",
      "geometry": {
        "type": "Point",
        "coordinates": [
          15.345049,
          14.938904
        ]
      },
      "properties": {
        "label": "Pimecrolimus",
        "level": 1,
        "pos": "175509.034,37071.159",
        "src_id": "327",
        "weight": "0.0009915391499522041"
      }
    },
    {
      "type": "Feature",
      "id": "608",
      "geometry": {
        "type": "Point",
        "coordinates": [
          13.41364,
          20.384218
        ]
      },
      "properties": {
        "label": "Telithromycin",
        "level": 1,
        "pos": "163153.945,60658.206",
        "src_id": "962",
        "weight": "0.0008932092135476258"
      }
    },
    {
      "type": "Feature",
      "id": "459",
      "geometry": {
        "type": "Point",
        "coordinates": [
          14.506717,
          8.849391
        ]
      },
      "properties": {
        "label": "Prasterone",
        "level": 2,
        "pos": "170146.278,11383.969000000001",
        "src_id": "1633",
        "weight": "0.0004559143523149565"
      }
    },
    {
      "type": "Feature",
      "id": "601",
      "geometry": {
        "type": "Point",
        "coordinates": [
          14.312591,
          15.513622
        ]
      },
      "properties": {
        "label": "Ximelagatran",
        "level": 2,
        "pos": "168904.472,39528.481999999996",
        "src_id": "4620",
        "weight": "0.0006574546048704421"
      }
    },
    {
      "type": "Feature",
      "id": "859",
      "geometry": {
        "type": "Point",
        "coordinates": [
          12.358277,
          13.200467
        ]
      },
      "properties": {
        "label": "Teriparatide",
        "level": 2,
        "pos": "156402.869,29676.956000000002",
        "src_id": "5535",
        "weight": "0.00049316584108434"
      }
    },
    {
      "type": "Feature",
      "id": "497",
      "geometry": {
        "type": "Point",
        "coordinates": [
          14.074625,
          3.028755
        ]
      },
      "properties": {
        "label": "Dutasteride",
        "level": 1,
        "pos": "167382.21899999998,-12769.755",
        "src_id": "1110",
        "weight": "0.0010300789134302269"
      }
    },
    {
      "type": "Feature",
      "id": "382",
      "geometry": {
        "type": "Point",
        "coordinates": [
          16.408986,
          4.227005
        ]
      },
      "properties": {
        "label": "Natalizumab",
        "level": 2,
        "pos": "182314.95899999997,-7816.2609999999995",
        "src_id": "101",
        "weight": "0.0006462096844952086"
      }
    },
    {
      "type": "Feature",
      "id": "271",
      "geometry": {
        "type": "Point",
        "coordinates": [
          18.621622,
          -0.774557
        ]
      },
      "properties": {
        "label": "Imatinib",
        "level": 1,
        "pos": "196469.03399999999,-28466.567000000003",
        "src_id": "606",
        "weight": "0.0008930823862417737"
      }
    },
    {
      "type": "Feature",
      "id": "276",
      "geometry": {
        "type": "Point",
        "coordinates": [
          18.351075,
          -0.213833
        ]
      },
      "properties": {
        "label": "Doxorubicin",
        "level": 2,
        "pos": "194738.365,-26153.161999999997",
        "src_id": "983",
        "weight": "0.00046241828472375513"
      }
    },
    {
      "type": "Feature",
      "id": "339",
      "geometry": {
        "type": "Point",
        "coordinates": [
          17.962857,
          0.419874
        ]
      },
      "properties": {
        "label": "Everolimus",
        "level": 3,
        "pos": "192254.957,-23538.729",
        "src_id": "1523",
        "weight": "0.0003774419441663236"
      }
    },
    {
      "type": "Feature",
      "id": "1641",
      "geometry": {
        "type": "Point",
        "coordinates": [
          13.714203,
          14.212752
        ]
      },
      "properties": {
        "label": "Aminopterin",
        "level": 4,
        "pos": "165076.631,33975.714",
        "src_id": "7837",
        "weight": "0.00016207983992855849"
      }
    },
    {
      "type": "Feature",
      "id": "2926",
      "geometry": {
        "type": "Point",
        "coordinates": [
          13.240171,
          16.093619
        ]
      },
      "properties": {
        "label": "Mibefradil",
        "level": 5,
        "pos": "162044.27899999998,42015.315",
        "src_id": "1335",
        "weight": "6.065692986641559e-05"
      }
    },
    {
      "type": "Feature",
      "id": "3059",
      "geometry": {
        "type": "Point",
        "coordinates": [
          13.184837,
          13.660391
        ]
      },
      "properties": {
        "label": "Rapacuronium",
        "level": 5,
        "pos": "161690.31,31627.772",
        "src_id": "4556",
        "weight": "5.660825512033329e-05"
      }
    },
    {
      "type": "Feature",
      "id": "553",
      "geometry": {
        "type": "Point",
        "coordinates": [
          11.866086,
          33.936972
        ]
      },
      "properties": {
        "label": "Botulinum Toxin Type B",
        "level": 1,
        "pos": "153254.358,123725.955",
        "src_id": "41",
        "weight": "0.0009014581881778"
      }
    },
    {
      "type": "Feature",
      "id": "598",
      "geometry": {
        "type": "Point",
        "coordinates": [
          12.356032,
          17.13582
        ]
      },
      "properties": {
        "label": "Eletriptan",
        "level": 1,
        "pos": "156388.514,46502.417",
        "src_id": "207",
        "weight": "0.0008020786577466954"
      }
    },
    {
      "type": "Feature",
      "id": "1643",
      "geometry": {
        "type": "Point",
        "coordinates": [
          13.573551,
          17.232936
        ]
      },
      "properties": {
        "label": "Abetimus",
        "level": 4,
        "pos": "164176.887,46921.804000000004",
        "src_id": "5731",
        "weight": "0.0001598418923065245"
      }
    },
    {
      "type": "Feature",
      "id": "1762",
      "geometry": {
        "type": "Point",
        "coordinates": [
          15.232714,
          22.338319
        ]
      },
      "properties": {
        "label": "Abarelix",
        "level": 4,
        "pos": "174790.432,69315.254",
        "src_id": "99",
        "weight": "0.00013368238544493057"
      }
    },
    {
      "type": "Feature",
      "id": "719",
      "geometry": {
        "type": "Point",
        "coordinates": [
          16.129769,
          16.500872
        ]
      },
      "properties": {
        "label": "Rofecoxib",
        "level": 3,
        "pos": "180528.832,43765.824",
        "src_id": "520",
        "weight": "0.0003836120759422941"
      }
    },
    {
      "type": "Feature",
      "id": "1826",
      "geometry": {
        "type": "Point",
        "coordinates": [
          17.553112,
          21.796525
        ]
      },
      "properties": {
        "label": "Colesevelam",
        "level": 4,
        "pos": "189633.847,66903.33099999999",
        "src_id": "916",
        "weight": "0.00013674106914477827"
      }
    },
    {
      "type": "Feature",
      "id": "812",
      "geometry": {
        "type": "Point",
        "coordinates": [
          16.601166,
          20.788371
        ]
      },
      "properties": {
        "label": "Natural alpha interferon",
        "level": 3,
        "pos": "183544.324,62439.317",
        "src_id": "4929",
        "weight": "0.0003929200933343115"
      }
    },
    {
      "type": "Feature",
      "id": "2420",
      "geometry": {
        "type": "Point",
        "coordinates": [
          15.876362,
          18.315448
        ]
      },
      "properties": {
        "label": "Trimegestone",
        "level": 5,
        "pos": "178907.801,51611.736",
        "src_id": "10753",
        "weight": "8.849809078249714e-05"
      }
    },
    {
      "type": "Feature",
      "id": "1807",
      "geometry": {
        "type": "Point",
        "coordinates": [
          16.170972,
          20.256627
        ]
      },
      "properties": {
        "label": "Amprenavir",
        "level": 4,
        "pos": "180792.405,60096.888999999996",
        "src_id": "687",
        "weight": "0.00015973402846137326"
      }
    },
    {
      "type": "Feature",
      "id": "3343",
      "geometry": {
        "type": "Point",
        "coordinates": [
          15.416948,
          17.674307
        ]
      },
      "properties": {
        "label": "Dofetilide",
        "level": 5,
        "pos": "175968.965,48830.602",
        "src_id": "195",
        "weight": "5.829615119198504e-05"
      }
    },
    {
      "type": "Feature",
      "id": "3390",
      "geometry": {
        "type": "Point",
        "coordinates": [
          15.258367,
          21.402019
        ]
      },
      "properties": {
        "label": "Dydrogesterone",
        "level": 5,
        "pos": "174954.53100000002,65152.84099999999",
        "src_id": "368",
        "weight": "6.007280565271417e-05"
      }
    },
    {
      "type": "Feature",
      "id": "3387",
      "geometry": {
        "type": "Point",
        "coordinates": [
          14.985384,
          19.403281
        ]
      },
      "properties": {
        "label": "Trimetrexate",
        "level": 5,
        "pos": "173208.281,56354.38",
        "src_id": "1141",
        "weight": "6.007280565271417e-05"
      }
    },
    {
      "type": "Feature",
      "id": "3379",
      "geometry": {
        "type": "Point",
        "coordinates": [
          17.352997,
          19.18069
        ]
      },
      "properties": {
        "label": "Capravirine",
        "level": 5,
        "pos": "188353.73,55381.425",
        "src_id": "7495",
        "weight": "6.007280565271417e-05"
      }
    },
    {
      "type": "Feature",
      "id": "3377",
      "geometry": {
        "type": "Point",
        "coordinates": [
          17.965493,
          20.274874
        ]
      },
      "properties": {
        "label": "Synthetic Conjugated Estrogens, B",
        "level": 5,
        "pos": "192271.816,60177.14200000001",
        "src_id": "8257",
        "weight": "6.007280565271417e-05"
      }
    },
    {
      "type": "Feature",
      "id": "1902",
      "geometry": {
        "type": "Point",
        "coordinates": [
          18.436452,
          21.22094
        ]
      },
      "properties": {
        "label": "Micafungin",
        "level": 4,
        "pos": "195284.513,64350.95",
        "src_id": "1125",
        "weight": "0.00015170961121552734"
      }
    },
    {
      "type": "Feature",
      "id": "2436",
      "geometry": {
        "type": "Point",
        "coordinates": [
          16.195737,
          19.632941
        ]
      },
      "properties": {
        "label": "Tezosentan",
        "level": 5,
        "pos": "180950.821,57359.627",
        "src_id": "5666",
        "weight": "9.844525295207145e-05"
      }
    },
    {
      "type": "Feature",
      "id": "2430",
      "geometry": {
        "type": "Point",
        "coordinates": [
          15.291991,
          19.929146
        ]
      },
      "properties": {
        "label": "Eczema",
        "level": 4,
        "pos": "175169.61800000002,58658.284",
        "src_id": "175613",
        "weight": "0.00014898401379658807"
      }
    },
    {
      "type": "Feature",
      "id": "391",
      "geometry": {
        "type": "Point",
        "coordinates": [
          15.905291,
          23.637928
        ]
      },
      "properties": {
        "label": "Ezetimibe",
        "level": 1,
        "pos": "179092.865,75139.586",
        "src_id": "959",
        "weight": "0.0010894612491933154"
      }
    },
    {
      "type": "Feature",
      "id": "821",
      "geometry": {
        "type": "Point",
        "coordinates": [
          14.308781,
          23.39736
        ]
      },
      "properties": {
        "label": "Ertapenem",
        "level": 3,
        "pos": "168880.099,74057.202",
        "src_id": "294",
        "weight": "0.0003582751730199862"
      }
    },
    {
      "type": "Feature",
      "id": "1400",
      "geometry": {
        "type": "Point",
        "coordinates": [
          13.413259,
          22.510503
        ]
      },
      "properties": {
        "label": "Anidulafungin",
        "level": 4,
        "pos": "163151.507,70083.724",
        "src_id": "352",
        "weight": "0.00020461638580879986"
      }
    },
    {
      "type": "Feature",
      "id": "489",
      "geometry": {
        "type": "Point",
        "coordinates": [
          13.885267,
          27.494955
        ]
      },
      "properties": {
        "label": "Clopidogrel",
        "level": 2,
        "pos": "166170.91400000002,92784.12400000001",
        "src_id": "744",
        "weight": "0.0004825308726021377"
      }
    },
    {
      "type": "Feature",
      "id": "2334",
      "geometry": {
        "type": "Point",
        "coordinates": [
          14.185359,
          21.990888
        ]
      },
      "properties": {
        "label": "Torcetrapib",
        "level": 5,
        "pos": "168090.576,67767.52399999999",
        "src_id": "5532",
        "weight": "9.427028670118431e-05"
      }
    },
    {
      "type": "Feature",
      "id": "1075",
      "geometry": {
        "type": "Point",
        "coordinates": [
          13.476397,
          24.218989
        ]
      },
      "properties": {
        "label": "Mepolizumab",
        "level": 3,
        "pos": "163555.398,77762.225",
        "src_id": "5700",
        "weight": "0.00031399290698037456"
      }
    },
    {
      "type": "Feature",
      "id": "3569",
      "geometry": {
        "type": "Point",
        "coordinates": [
          13.544659,
          26.595417
        ]
      },
      "properties": {
        "label": "Idursulfase",
        "level": 5,
        "pos": "163992.07200000001,88617.28700000001",
        "src_id": "1254",
        "weight": "4.3061234073154183e-05"
      }
    },
    {
      "type": "Feature",
      "id": "3568",
      "geometry": {
        "type": "Point",
        "coordinates": [
          14.839689,
          22.809588
        ]
      },
      "properties": {
        "label": "Vildagliptin",
        "level": 5,
        "pos": "172276.28000000003,71420.84300000001",
        "src_id": "4598",
        "weight": "4.3061234073154183e-05"
      }
    },
    {
      "type": "Feature",
      "id": "3567",
      "geometry": {
        "type": "Point",
        "coordinates": [
          14.574685,
          25.090422
        ]
      },
      "properties": {
        "label": "Alfimeprase",
        "level": 5,
        "pos": "170581.068,81718.06700000001",
        "src_id": "4637",
        "weight": "4.3061234073154183e-05"
      }
    },
    {
      "type": "Feature",
      "id": "3566",
      "geometry": {
        "type": "Point",
        "coordinates": [
          14.887997,
          25.72731
        ]
      },
      "properties": {
        "label": "Canfosfamide",
        "level": 5,
        "pos": "172585.296,84627.014",
        "src_id": "4681",
        "weight": "4.3061234073154183e-05"
      }
    },
    {
      "type": "Feature",
      "id": "3565",
      "geometry": {
        "type": "Point",
        "coordinates": [
          16.970759,
          24.774294
        ]
      },
      "properties": {
        "label": "Labetuzumab",
        "level": 5,
        "pos": "185908.578,80279.819",
        "src_id": "4787",
        "weight": "4.3061234073154183e-05"
      }
    },
    {
      "type": "Feature",
      "id": "3564",
      "geometry": {
        "type": "Point",
        "coordinates": [
          13.60186,
          25.517868
        ]
      },
      "properties": {
        "label": "Tetomilast",
        "level": 5,
        "pos": "164357.98299999998,83668.69900000001",
        "src_id": "4954",
        "weight": "4.3061234073154183e-05"
      }
    },
    {
      "type": "Feature",
      "id": "3562",
      "geometry": {
        "type": "Point",
        "coordinates": [
          14.408724,
          26.299225
        ]
      },
      "properties": {
        "label": "Repinotan",
        "level": 5,
        "pos": "169519.432,87252.49399999999",
        "src_id": "5640",
        "weight": "4.3061234073154183e-05"
      }
    },
    {
      "type": "Feature",
      "id": "3561",
      "geometry": {
        "type": "Point",
        "coordinates": [
          14.127114,
          27.075712
        ]
      },
      "properties": {
        "label": "Enclomiphene",
        "level": 5,
        "pos": "167717.989,90837.949",
        "src_id": "5794",
        "weight": "4.3061234073154183e-05"
      }
    },
    {
      "type": "Feature",
      "id": "5984",
      "geometry": {
        "type": "Point",
        "coordinates": [
          13.490282,
          24.73082
        ]
      },
      "properties": {
        "label": "Cangrelor",
        "level": 5,
        "pos": "163644.221,80082.319",
        "src_id": "5605",
        "weight": "3.1411218064049905e-05"
      }
    },
    {
      "type": "Feature",
      "id": "2512",
      "geometry": {
        "type": "Point",
        "coordinates": [
          15.151986,
          16.074265
        ]
      },
      "properties": {
        "label": "Thrombin",
        "level": 5,
        "pos": "174274.024,41932.221",
        "src_id": "9184",
        "weight": "0.00011926488876836063"
      }
    },
    {
      "type": "Feature",
      "id": "1229",
      "geometry": {
        "type": "Point",
        "coordinates": [
          12.413144,
          12.571914
        ]
      },
      "properties": {
        "label": "Pegaptanib",
        "level": 3,
        "pos": "156753.85499999998,27016.798000000003",
        "src_id": "4617",
        "weight": "0.00026913066621054357"
      }
    },
    {
      "type": "Feature",
      "id": "1696",
      "geometry": {
        "type": "Point",
        "coordinates": [
          12.990071,
          15.457717
        ]
      },
      "properties": {
        "label": "Miglustat",
        "level": 4,
        "pos": "160444.414,39289.147",
        "src_id": "408",
        "weight": "0.00013385503554765298"
      }
    },
    {
      "type": "Feature",
      "id": "1447",
      "geometry": {
        "type": "Point",
        "coordinates": [
          12.242017,
          14.192727
        ]
      },
      "properties": {
        "label": "Cinacalcet",
        "level": 4,
        "pos": "155659.16100000002,33890.492",
        "src_id": "998",
        "weight": "0.0001915221656246438"
      }
    },
    {
      "type": "Feature",
      "id": "1068",
      "geometry": {
        "type": "Point",
        "coordinates": [
          12.084458,
          16.204786
        ]
      },
      "properties": {
        "label": "Solifenacin",
        "level": 3,
        "pos": "154651.26799999998,42492.789000000004",
        "src_id": "1524",
        "weight": "0.00028560175185111643"
      }
    },
    {
      "type": "Feature",
      "id": "966",
      "geometry": {
        "type": "Point",
        "coordinates": [
          11.925251,
          6.602408
        ]
      },
      "properties": {
        "label": "Telmisartan",
        "level": 3,
        "pos": "153632.835,2028.3069999999998",
        "src_id": "952",
        "weight": "0.00032863937851760667"
      }
    },
    {
      "type": "Feature",
      "id": "1055",
      "geometry": {
        "type": "Point",
        "coordinates": [
          12.683834,
          5.132174
        ]
      },
      "properties": {
        "label": "Alendronic acid",
        "level": 3,
        "pos": "158485.428,-4069.3780000000006",
        "src_id": "617",
        "weight": "0.0003952261652566047"
      }
    },
    {
      "type": "Feature",
      "id": "654",
      "geometry": {
        "type": "Point",
        "coordinates": [
          13.95815,
          5.740996
        ]
      },
      "properties": {
        "label": "Prilocaine",
        "level": 3,
        "pos": "166637.136,-1546.2720000000002",
        "src_id": "736",
        "weight": "0.00037662041948279906"
      }
    },
    {
      "type": "Feature",
      "id": "2350",
      "geometry": {
        "type": "Point",
        "coordinates": [
          17.586789,
          -0.771038
        ]
      },
      "properties": {
        "label": "Abatacept",
        "level": 5,
        "pos": "189849.278,-28452.054",
        "src_id": "1264",
        "weight": "9.13828750653854e-05"
      }
    },
    {
      "type": "Feature",
      "id": "5914",
      "geometry": {
        "type": "Point",
        "coordinates": [
          17.300749,
          3.656572
        ]
      },
      "properties": {
        "label": "Progressive multiple sclerosis",
        "level": 5,
        "pos": "188019.499,-10175.217",
        "src_id": "184219",
        "weight": "2.5640297461734896e-05"
      }
    },
    {
      "type": "Feature",
      "id": "2762",
      "geometry": {
        "type": "Point",
        "coordinates": [
          17.710402,
          3.873635
        ]
      },
      "properties": {
        "label": "Progressive multifocal leukoencephalopathy",
        "level": 4,
        "pos": "190640.02300000002,-9277.768999999998",
        "src_id": "184218",
        "weight": "0.00012302782044056916"
      }
    },
    {
      "type": "Feature",
      "id": "4130",
      "geometry": {
        "type": "Point",
        "coordinates": [
          22.346802,
          -7.33484
        ]
      },
      "properties": {
        "label": "Chronic myeloid leukaemia",
        "level": 5,
        "pos": "220298.735,-55614.468",
        "src_id": "173721",
        "weight": "0.00011771036903522345"
      }
    },
    {
      "type": "Feature",
      "id": "6577",
      "geometry": {
        "type": "Point",
        "coordinates": [
          20.753601,
          -5.621943
        ]
      },
      "properties": {
        "label": "Gastrointestinal stromal tumour",
        "level": 5,
        "pos": "210107.137,-48502.084",
        "src_id": "177224",
        "weight": "2.4160455215342254e-05"
      }
    },
    {
      "type": "Feature",
      "id": "449",
      "geometry": {
        "type": "Point",
        "coordinates": [
          22.150693,
          -6.760712
        ]
      },
      "properties": {
        "label": "Cisplatin",
        "level": 3,
        "pos": "219044.24,-53227.81",
        "src_id": "502",
        "weight": "0.00035797076349295234"
      }
    },
    {
      "type": "Feature",
      "id": "461",
      "geometry": {
        "type": "Point",
        "coordinates": [
          21.141565,
          -4.447166
        ]
      },
      "properties": {
        "label": "Vincristine",
        "level": 3,
        "pos": "212588.925,-43636.58",
        "src_id": "528",
        "weight": "0.0003360290056373091"
      }
    },
    {
      "type": "Feature",
      "id": "4086",
      "geometry": {
        "type": "Point",
        "coordinates": [
          20.888234,
          -3.272937
        ]
      },
      "properties": {
        "label": "Stomatitis",
        "level": 5,
        "pos": "210968.377,-38781.096",
        "src_id": "186424",
        "weight": "8.804945267755679e-05"
      }
    },
    {
      "type": "Feature",
      "id": "3181",
      "geometry": {
        "type": "Point",
        "coordinates": [
          20.755558,
          -3.807118
        ]
      },
      "properties": {
        "label": "Astrocytoma, low grade",
        "level": 5,
        "pos": "210119.664,-40989.133",
        "src_id": "171047",
        "weight": "8.895194744426978e-05"
      }
    },
    {
      "type": "Feature",
      "id": "1942",
      "geometry": {
        "type": "Point",
        "coordinates": [
          12.238027,
          14.789019
        ]
      },
      "properties": {
        "label": "Amiloride",
        "level": 4,
        "pos": "155633.635,36431.394",
        "src_id": "581",
        "weight": "0.0001401737373350006"
      }
    },
    {
      "type": "Feature",
      "id": "767",
      "geometry": {
        "type": "Point",
        "coordinates": [
          15.86341,
          38.996538
        ]
      },
      "properties": {
        "label": "Drotrecogin alfa",
        "level": 1,
        "pos": "178824.94600000003,149699.394",
        "src_id": "54",
        "weight": "0.0007666220608670227"
      }
    },
    {
      "type": "Feature",
      "id": "2552",
      "geometry": {
        "type": "Point",
        "coordinates": [
          11.220259,
          37.27401
        ]
      },
      "properties": {
        "label": "Clofazimine",
        "level": 5,
        "pos": "149123.052,140663.745",
        "src_id": "831",
        "weight": "8.102587613154775e-05"
      }
    },
    {
      "type": "Feature",
      "id": "2550",
      "geometry": {
        "type": "Point",
        "coordinates": [
          12.314197,
          36.769392
        ]
      },
      "properties": {
        "label": "Seocalcitol",
        "level": 5,
        "pos": "156120.886,138056.226",
        "src_id": "4013",
        "weight": "8.102587613154775e-05"
      }
    },
    {
      "type": "Feature",
      "id": "1948",
      "geometry": {
        "type": "Point",
        "coordinates": [
          12.251207,
          39.02025
        ]
      },
      "properties": {
        "label": "Licofelone",
        "level": 4,
        "pos": "155717.94700000001,149825.276",
        "src_id": "4449",
        "weight": "0.0001427899340976177"
      }
    },
    {
      "type": "Feature",
      "id": "2586",
      "geometry": {
        "type": "Point",
        "coordinates": [
          8.767137,
          39.016351
        ]
      },
      "properties": {
        "label": "Ospemifene",
        "level": 5,
        "pos": "133430.614,149804.58",
        "src_id": "4652",
        "weight": "9.095595063829417e-05"
      }
    },
    {
      "type": "Feature",
      "id": "1520",
      "geometry": {
        "type": "Point",
        "coordinates": [
          14.604632,
          40.225243
        ]
      },
      "properties": {
        "label": "Troxacitabine",
        "level": 4,
        "pos": "170772.641,156279.619",
        "src_id": "4672",
        "weight": "0.0001829325951100737"
      }
    },
    {
      "type": "Feature",
      "id": "2549",
      "geometry": {
        "type": "Point",
        "coordinates": [
          9.907135,
          37.087152
        ]
      },
      "properties": {
        "label": "Pradefovir Mesylate",
        "level": 5,
        "pos": "140723.09100000001,139696.169",
        "src_id": "5100",
        "weight": "8.102587613154775e-05"
      }
    },
    {
      "type": "Feature",
      "id": "2548",
      "geometry": {
        "type": "Point",
        "coordinates": [
          11.749053,
          39.484412
        ]
      },
      "properties": {
        "label": "Oglufanide",
        "level": 5,
        "pos": "152505.715,152298.207",
        "src_id": "5243",
        "weight": "8.102587613154775e-05"
      }
    },
    {
      "type": "Feature",
      "id": "2584",
      "geometry": {
        "type": "Point",
        "coordinates": [
          12.962766,
          39.758583
        ]
      },
      "properties": {
        "label": "Ciluprevir",
        "level": 5,
        "pos": "160269.741,153766.673",
        "src_id": "5317",
        "weight": "9.095595063829417e-05"
      }
    },
    {
      "type": "Feature",
      "id": "1221",
      "geometry": {
        "type": "Point",
        "coordinates": [
          14.734057,
          39.724585
        ]
      },
      "properties": {
        "label": "Rimonabant",
        "level": 4,
        "pos": "171600.55800000002,153584.26499999998",
        "src_id": "5443",
        "weight": "0.0002494467288451644"
      }
    },
    {
      "type": "Feature",
      "id": "1899",
      "geometry": {
        "type": "Point",
        "coordinates": [
          14.647581,
          39.07075
        ]
      },
      "properties": {
        "label": "Pixantrone",
        "level": 4,
        "pos": "171047.378,150093.539",
        "src_id": "5468",
        "weight": "0.00013193581228214282"
      }
    },
    {
      "type": "Feature",
      "id": "3090",
      "geometry": {
        "type": "Point",
        "coordinates": [
          12.26504,
          38.641458
        ]
      },
      "properties": {
        "label": "Ferumoxytol",
        "level": 5,
        "pos": "155806.444,147819.19",
        "src_id": "5488",
        "weight": "6.292799246692454e-05"
      }
    },
    {
      "type": "Feature",
      "id": "2547",
      "geometry": {
        "type": "Point",
        "coordinates": [
          10.100002,
          39.107859
        ]
      },
      "properties": {
        "label": "Maribavir",
        "level": 5,
        "pos": "141956.85,150290.786",
        "src_id": "5499",
        "weight": "8.102587613154775e-05"
      }
    },
    {
      "type": "Feature",
      "id": "1481",
      "geometry": {
        "type": "Point",
        "coordinates": [
          13.683909,
          40.162356
        ]
      },
      "properties": {
        "label": "Arzoxifene",
        "level": 4,
        "pos": "164882.84300000002,155939.975",
        "src_id": "5511",
        "weight": "0.00016358319353085825"
      }
    },
    {
      "type": "Feature",
      "id": "2546",
      "geometry": {
        "type": "Point",
        "coordinates": [
          9.628792,
          37.581297
        ]
      },
      "properties": {
        "label": "Alvimopan",
        "level": 5,
        "pos": "138942.553,142260.147",
        "src_id": "5529",
        "weight": "8.102587613154775e-05"
      }
    },
    {
      "type": "Feature",
      "id": "3183",
      "geometry": {
        "type": "Point",
        "coordinates": [
          11.62243,
          40.243135
        ]
      },
      "properties": {
        "label": "Radium Ra 223 Dichloride",
        "level": 5,
        "pos": "151695.71099999998,156376.307",
        "src_id": "7872",
        "weight": "5.553394878015505e-05"
      }
    },
    {
      "type": "Feature",
      "id": "3182",
      "geometry": {
        "type": "Point",
        "coordinates": [
          12.826164,
          40.233689
        ]
      },
      "properties": {
        "label": "Ortataxel",
        "level": 5,
        "pos": "159395.913,156325.263",
        "src_id": "9341",
        "weight": "5.553394878015505e-05"
      }
    },
    {
      "type": "Feature",
      "id": "2286",
      "geometry": {
        "type": "Point",
        "coordinates": [
          14.992784,
          37.251059
        ]
      },
      "properties": {
        "label": "Soblidotin",
        "level": 5,
        "pos": "173255.62199999997,140544.775",
        "src_id": "10317",
        "weight": "8.673773379445213e-05"
      }
    },
    {
      "type": "Feature",
      "id": "2542",
      "geometry": {
        "type": "Point",
        "coordinates": [
          13.815752,
          37.793764
        ]
      },
      "properties": {
        "label": "Amithiozone",
        "level": 5,
        "pos": "165726.23200000002,143367.81300000002",
        "src_id": "10462",
        "weight": "8.102587613154775e-05"
      }
    },
    {
      "type": "Feature",
      "id": "1859",
      "geometry": {
        "type": "Point",
        "coordinates": [
          14.641658,
          38.161546
        ]
      },
      "properties": {
        "label": "Urocortin-2",
        "level": 5,
        "pos": "171009.492,145292.735",
        "src_id": "10660",
        "weight": "0.00011335303232039512"
      }
    },
    {
      "type": "Feature",
      "id": "2541",
      "geometry": {
        "type": "Point",
        "coordinates": [
          11.889421,
          37.637716
        ]
      },
      "properties": {
        "label": "Valopicitabine",
        "level": 5,
        "pos": "153403.629,142553.967",
        "src_id": "10955",
        "weight": "8.102587613154775e-05"
      }
    },
    {
      "type": "Feature",
      "id": "2040",
      "geometry": {
        "type": "Point",
        "coordinates": [
          12.244943,
          39.816142
        ]
      },
      "properties": {
        "label": "Estradiol acetate",
        "level": 4,
        "pos": "155677.883,154075.697",
        "src_id": "10984",
        "weight": "0.0001199197969103888"
      }
    },
    {
      "type": "Feature",
      "id": "2355",
      "geometry": {
        "type": "Point",
        "coordinates": [
          10.21582,
          39.916649
        ]
      },
      "properties": {
        "label": "Denileukin diftitox",
        "level": 5,
        "pos": "142697.733,154615.926",
        "src_id": "4",
        "weight": "9.848678717779257e-05"
      }
    },
    {
      "type": "Feature",
      "id": "2354",
      "geometry": {
        "type": "Point",
        "coordinates": [
          9.078479,
          39.502691
        ]
      },
      "properties": {
        "label": "Zanamivir",
        "level": 5,
        "pos": "135422.24300000002,152395.926",
        "src_id": "545",
        "weight": "9.848678717779257e-05"
      }
    },
    {
      "type": "Feature",
      "id": "1593",
      "geometry": {
        "type": "Point",
        "coordinates": [
          13.705929,
          38.319896
        ]
      },
      "properties": {
        "label": "Imiquimod",
        "level": 4,
        "pos": "165023.701,146124.50100000002",
        "src_id": "710",
        "weight": "0.00019085908576135555"
      }
    },
    {
      "type": "Feature",
      "id": "1592",
      "geometry": {
        "type": "Point",
        "coordinates": [
          14.862563,
          38.647389
        ]
      },
      "properties": {
        "label": "Lanoteplase",
        "level": 4,
        "pos": "172422.595,147850.51799999998",
        "src_id": "5507",
        "weight": "0.00019085908576135557"
      }
    },
    {
      "type": "Feature",
      "id": "2348",
      "geometry": {
        "type": "Point",
        "coordinates": [
          11.859685,
          40.635058
        ]
      },
      "properties": {
        "label": "Enrasentan",
        "level": 5,
        "pos": "153213.40699999998,158500.767",
        "src_id": "5618",
        "weight": "9.848678717779257e-05"
      }
    },
    {
      "type": "Feature",
      "id": "2347",
      "geometry": {
        "type": "Point",
        "coordinates": [
          12.649422,
          38.116667
        ]
      },
      "properties": {
        "label": "Benidipine",
        "level": 5,
        "pos": "158265.3,145057.323",
        "src_id": "8171",
        "weight": "9.848678717779257e-05"
      }
    },
    {
      "type": "Feature",
      "id": "2346",
      "geometry": {
        "type": "Point",
        "coordinates": [
          10.88238,
          40.047594
        ]
      },
      "properties": {
        "label": "Manidipine",
        "level": 5,
        "pos": "146961.65600000002,155320.95799999998",
        "src_id": "8178",
        "weight": "9.848678717779257e-05"
      }
    },
    {
      "type": "Feature",
      "id": "2345",
      "geometry": {
        "type": "Point",
        "coordinates": [
          10.272082,
          38.628459
        ]
      },
      "properties": {
        "label": "Mizolastine",
        "level": 5,
        "pos": "143057.633,147750.54",
        "src_id": "10171",
        "weight": "9.848678717779257e-05"
      }
    },
    {
      "type": "Feature",
      "id": "2473",
      "geometry": {
        "type": "Point",
        "coordinates": [
          11.303383,
          38.19038
        ]
      },
      "properties": {
        "label": "Reteplase",
        "level": 5,
        "pos": "149654.79400000002,145444.054",
        "src_id": "15",
        "weight": "0.00010241024325848408"
      }
    },
    {
      "type": "Feature",
      "id": "2471",
      "geometry": {
        "type": "Point",
        "coordinates": [
          9.128287,
          38.961181
        ]
      },
      "properties": {
        "label": "Dexrazoxane",
        "level": 5,
        "pos": "135740.861,149511.747",
        "src_id": "370",
        "weight": "0.00010241024325848408"
      }
    },
    {
      "type": "Feature",
      "id": "2411",
      "geometry": {
        "type": "Point",
        "coordinates": [
          9.10699,
          38.548282
        ]
      },
      "properties": {
        "label": "Formoterol",
        "level": 5,
        "pos": "135604.621,147327.361",
        "src_id": "969",
        "weight": "0.00011797302085009573"
      }
    },
    {
      "type": "Feature",
      "id": "2468",
      "geometry": {
        "type": "Point",
        "coordinates": [
          11.140227,
          38.959225
        ]
      },
      "properties": {
        "label": "Tanomastat",
        "level": 5,
        "pos": "148611.091,149501.36800000002",
        "src_id": "5530",
        "weight": "0.00010241024325848409"
      }
    },
    {
      "type": "Feature",
      "id": "2467",
      "geometry": {
        "type": "Point",
        "coordinates": [
          10.611557,
          37.768038
        ]
      },
      "properties": {
        "label": "Semaxanib",
        "level": 5,
        "pos": "145229.227,143233.519",
        "src_id": "5601",
        "weight": "0.00010241024325848409"
      }
    },
    {
      "type": "Feature",
      "id": "2466",
      "geometry": {
        "type": "Point",
        "coordinates": [
          10.804522,
          39.445261
        ]
      },
      "properties": {
        "label": "Ravuconazole",
        "level": 5,
        "pos": "146463.608,152088.989",
        "src_id": "5604",
        "weight": "0.00010241024325848409"
      }
    },
    {
      "type": "Feature",
      "id": "2219",
      "geometry": {
        "type": "Point",
        "coordinates": [
          16.226607,
          37.299845
        ]
      },
      "properties": {
        "label": "Cerivastatin",
        "level": 5,
        "pos": "181148.287,140797.709",
        "src_id": "428",
        "weight": "0.00010054345477630538"
      }
    },
    {
      "type": "Feature",
      "id": "2195",
      "geometry": {
        "type": "Point",
        "coordinates": [
          15.959328,
          38.37266
        ]
      },
      "properties": {
        "label": "Binodenoson",
        "level": 5,
        "pos": "179438.534,146402.059",
        "src_id": "4575",
        "weight": "0.00010420295478721549"
      }
    },
    {
      "type": "Feature",
      "id": "2847",
      "geometry": {
        "type": "Point",
        "coordinates": [
          14.767376,
          36.716001
        ]
      },
      "properties": {
        "label": "Picoplatin",
        "level": 5,
        "pos": "171813.701,137781.348",
        "src_id": "4596",
        "weight": "5.981050001272752e-05"
      }
    },
    {
      "type": "Feature",
      "id": "3384",
      "geometry": {
        "type": "Point",
        "coordinates": [
          10.711332,
          35.366521
        ]
      },
      "properties": {
        "label": "Oritavancin",
        "level": 5,
        "pos": "145867.483,130895.74200000001",
        "src_id": "4631",
        "weight": "4.637947307599908e-05"
      }
    },
    {
      "type": "Feature",
      "id": "2573",
      "geometry": {
        "type": "Point",
        "coordinates": [
          15.600093,
          39.889311
        ]
      },
      "properties": {
        "label": "Clevidipine",
        "level": 5,
        "pos": "177140.53100000002,154468.911",
        "src_id": "4638",
        "weight": "7.204389781997001e-05"
      }
    },
    {
      "type": "Feature",
      "id": "2143",
      "geometry": {
        "type": "Point",
        "coordinates": [
          9.833316,
          38.190732
        ]
      },
      "properties": {
        "label": "Asimadoline",
        "level": 5,
        "pos": "140250.883,145445.897",
        "src_id": "4794",
        "weight": "0.00011191304442251358"
      }
    },
    {
      "type": "Feature",
      "id": "2846",
      "geometry": {
        "type": "Point",
        "coordinates": [
          12.777743,
          35.767061
        ]
      },
      "properties": {
        "label": "Paclitaxel docosahexaenoic acid",
        "level": 5,
        "pos": "159086.15800000002,132927.202",
        "src_id": "4953",
        "weight": "5.981050001272752e-05"
      }
    },
    {
      "type": "Feature",
      "id": "3525",
      "geometry": {
        "type": "Point",
        "coordinates": [
          12.623544,
          36.270535
        ]
      },
      "properties": {
        "label": "gallium maltolate",
        "level": 5,
        "pos": "158099.75600000002,135495.304",
        "src_id": "5046",
        "weight": "5.0123374941777585e-05"
      }
    },
    {
      "type": "Feature",
      "id": "3383",
      "geometry": {
        "type": "Point",
        "coordinates": [
          11.74583,
          35.838331
        ]
      },
      "properties": {
        "label": "Bimosiamose",
        "level": 5,
        "pos": "152485.09000000003,133289.738",
        "src_id": "5472",
        "weight": "4.637947307599908e-05"
      }
    },
    {
      "type": "Feature",
      "id": "3523",
      "geometry": {
        "type": "Point",
        "coordinates": [
          11.30408,
          36.545468
        ]
      },
      "properties": {
        "label": "Exisulind",
        "level": 5,
        "pos": "149659.25,136904.651",
        "src_id": "5508",
        "weight": "5.0123374941777585e-05"
      }
    },
    {
      "type": "Feature",
      "id": "3522",
      "geometry": {
        "type": "Point",
        "coordinates": [
          9.323806,
          38.026864
        ]
      },
      "properties": {
        "label": "Repifermin",
        "level": 5,
        "pos": "136991.584,144586.701",
        "src_id": "5599",
        "weight": "5.0123374941777585e-05"
      }
    },
    {
      "type": "Feature",
      "id": "3382",
      "geometry": {
        "type": "Point",
        "coordinates": [
          14.200939,
          35.659816
        ]
      },
      "properties": {
        "label": "Diethylnorspermine",
        "level": 5,
        "pos": "168190.24300000002,132382.277",
        "src_id": "5608",
        "weight": "4.637947307599908e-05"
      }
    },
    {
      "type": "Feature",
      "id": "2845",
      "geometry": {
        "type": "Point",
        "coordinates": [
          15.094185,
          37.727601
        ]
      },
      "properties": {
        "label": "Meclinertant",
        "level": 5,
        "pos": "173904.268,143022.536",
        "src_id": "5615",
        "weight": "5.981050001272754e-05"
      }
    },
    {
      "type": "Feature",
      "id": "3381",
      "geometry": {
        "type": "Point",
        "coordinates": [
          11.275403,
          34.826837
        ]
      },
      "properties": {
        "label": "Cariporide",
        "level": 5,
        "pos": "149475.803,128174.43499999998",
        "src_id": "5621",
        "weight": "4.637947307599908e-05"
      }
    },
    {
      "type": "Feature",
      "id": "2844",
      "geometry": {
        "type": "Point",
        "coordinates": [
          12.488862,
          35.191905
        ]
      },
      "properties": {
        "label": "Bivatuzumab",
        "level": 5,
        "pos": "157238.212,130013.284",
        "src_id": "5661",
        "weight": "5.981050001272754e-05"
      }
    },
    {
      "type": "Feature",
      "id": "2843",
      "geometry": {
        "type": "Point",
        "coordinates": [
          13.738013,
          37.304168
        ]
      },
      "properties": {
        "label": "Rostaporfin",
        "level": 5,
        "pos": "165228.94400000002,140820.126",
        "src_id": "5729",
        "weight": "5.981050001272754e-05"
      }
    },
    {
      "type": "Feature",
      "id": "2482",
      "geometry": {
        "type": "Point",
        "coordinates": [
          12.598669,
          37.254134
        ]
      },
      "properties": {
        "label": "Belimumab",
        "level": 5,
        "pos": "157940.63700000002,140560.715",
        "src_id": "7838",
        "weight": "7.9896007277184e-05"
      }
    },
    {
      "type": "Feature",
      "id": "2838",
      "geometry": {
        "type": "Point",
        "coordinates": [
          15.816785,
          36.800649
        ]
      },
      "properties": {
        "label": "Mafosfamide",
        "level": 5,
        "pos": "178526.69,138217.236",
        "src_id": "9747",
        "weight": "5.981050001272754e-05"
      }
    },
    {
      "type": "Feature",
      "id": "2837",
      "geometry": {
        "type": "Point",
        "coordinates": [
          14.016724,
          36.128628
        ]
      },
      "properties": {
        "label": "Exatecan",
        "level": 5,
        "pos": "167011.831,134769.802",
        "src_id": "9845",
        "weight": "5.981050001272754e-05"
      }
    },
    {
      "type": "Feature",
      "id": "3373",
      "geometry": {
        "type": "Point",
        "coordinates": [
          14.999636,
          36.21949
        ]
      },
      "properties": {
        "label": "Bizelesin",
        "level": 5,
        "pos": "173299.452,135234.184",
        "src_id": "10008",
        "weight": "4.637947307599908e-05"
      }
    },
    {
      "type": "Feature",
      "id": "3599",
      "geometry": {
        "type": "Point",
        "coordinates": [
          12.99523,
          39.115946
        ]
      },
      "properties": {
        "label": "Ceftobiprole",
        "level": 5,
        "pos": "160477.415,150333.79299999998",
        "src_id": "4636",
        "weight": "4.0616904036071364e-05"
      }
    },
    {
      "type": "Feature",
      "id": "3597",
      "geometry": {
        "type": "Point",
        "coordinates": [
          13.581108,
          36.736653
        ]
      },
      "properties": {
        "label": "Fospropofol",
        "level": 5,
        "pos": "164225.234,137887.651",
        "src_id": "5776",
        "weight": "4.061690403607136e-05"
      }
    },
    {
      "type": "Feature",
      "id": "3592",
      "geometry": {
        "type": "Point",
        "coordinates": [
          13.504142,
          38.746264
        ]
      },
      "properties": {
        "label": "Incyclinide",
        "level": 5,
        "pos": "163732.877,148373.18300000002",
        "src_id": "9319",
        "weight": "4.061690403607136e-05"
      }
    },
    {
      "type": "Feature",
      "id": "3591",
      "geometry": {
        "type": "Point",
        "coordinates": [
          13.686603,
          39.451719
        ]
      },
      "properties": {
        "label": "Bucindolol",
        "level": 5,
        "pos": "164900.074,152123.488",
        "src_id": "10390",
        "weight": "4.061690403607136e-05"
      }
    },
    {
      "type": "Feature",
      "id": "2897",
      "geometry": {
        "type": "Point",
        "coordinates": [
          12.411357,
          21.646909
        ]
      },
      "properties": {
        "label": "Fluticasone propionate",
        "level": 5,
        "pos": "156742.417,66238.896",
        "src_id": "575",
        "weight": "9.8232605108711e-05"
      }
    },
    {
      "type": "Feature",
      "id": "2754",
      "geometry": {
        "type": "Point",
        "coordinates": [
          13.37061,
          18.204589
        ]
      },
      "properties": {
        "label": "Resiniferatoxin",
        "level": 5,
        "pos": "162878.691,51130.133",
        "src_id": "5643",
        "weight": "9.496108175205866e-05"
      }
    },
    {
      "type": "Feature",
      "id": "2922",
      "geometry": {
        "type": "Point",
        "coordinates": [
          12.994636,
          21.079174
        ]
      },
      "properties": {
        "label": "Propiverine",
        "level": 5,
        "pos": "160473.607,63723.841",
        "src_id": "9936",
        "weight": "9.781559100924958e-05"
      }
    },
    {
      "type": "Feature",
      "id": "2921",
      "geometry": {
        "type": "Point",
        "coordinates": [
          11.437402,
          21.457617
        ]
      },
      "properties": {
        "label": "Testosterone enanthate",
        "level": 5,
        "pos": "150512.09600000002,65399.24600000001",
        "src_id": "10977",
        "weight": "9.781559100924958e-05"
      }
    },
    {
      "type": "Feature",
      "id": "2920",
      "geometry": {
        "type": "Point",
        "coordinates": [
          11.335829,
          22.614498
        ]
      },
      "properties": {
        "label": "Testosterone undecanoate",
        "level": 5,
        "pos": "149862.337,70548.317",
        "src_id": "10978",
        "weight": "9.781559100924958e-05"
      }
    },
    {
      "type": "Feature",
      "id": "3706",
      "geometry": {
        "type": "Point",
        "coordinates": [
          12.469162,
          22.093271
        ]
      },
      "properties": {
        "label": "Fumagillin",
        "level": 5,
        "pos": "157112.187,68223.223",
        "src_id": "2500",
        "weight": "4.625693650663834e-05"
      }
    },
    {
      "type": "Feature",
      "id": "2336",
      "geometry": {
        "type": "Point",
        "coordinates": [
          13.175701,
          19.821241
        ]
      },
      "properties": {
        "label": "Eniluracil",
        "level": 5,
        "pos": "161631.869,58184.908",
        "src_id": "3320",
        "weight": "0.00010207277466561244"
      }
    },
    {
      "type": "Feature",
      "id": "3705",
      "geometry": {
        "type": "Point",
        "coordinates": [
          12.620189,
          23.107307
        ]
      },
      "properties": {
        "label": "Bicifadine",
        "level": 5,
        "pos": "158078.305,72754.769",
        "src_id": "4611",
        "weight": "4.625693650663834e-05"
      }
    },
    {
      "type": "Feature",
      "id": "3704",
      "geometry": {
        "type": "Point",
        "coordinates": [
          12.592843,
          23.637477
        ]
      },
      "properties": {
        "label": "Reslizumab",
        "level": 5,
        "pos": "157903.373,75137.558",
        "src_id": "5690",
        "weight": "4.625693650663834e-05"
      }
    },
    {
      "type": "Feature",
      "id": "577",
      "geometry": {
        "type": "Point",
        "coordinates": [
          17.007183,
          17.235832
        ]
      },
      "properties": {
        "label": "Celecoxib",
        "level": 3,
        "pos": "186141.57700000002,46934.314999999995",
        "src_id": "471",
        "weight": "0.00027898190006182914"
      }
    },
    {
      "type": "Feature",
      "id": "1578",
      "geometry": {
        "type": "Point",
        "coordinates": [
          18.356926,
          19.715279
        ]
      },
      "properties": {
        "label": "Nimesulide",
        "level": 4,
        "pos": "194775.793,57720.378",
        "src_id": "4466",
        "weight": "0.00019311064142888863"
      }
    },
    {
      "type": "Feature",
      "id": "1034",
      "geometry": {
        "type": "Point",
        "coordinates": [
          18.74991,
          23.548688
        ]
      },
      "properties": {
        "label": "Saquinavir",
        "level": 3,
        "pos": "197289.684,74737.835",
        "src_id": "1216",
        "weight": "0.00037672878364840496"
      }
    },
    {
      "type": "Feature",
      "id": "2118",
      "geometry": {
        "type": "Point",
        "coordinates": [
          16.752969,
          24.355828
        ]
      },
      "properties": {
        "label": "Genistein",
        "level": 4,
        "pos": "184515.392,78381.587",
        "src_id": "1576",
        "weight": "0.00013193262622552082"
      }
    },
    {
      "type": "Feature",
      "id": "5481",
      "geometry": {
        "type": "Point",
        "coordinates": [
          16.195181,
          22.859977
        ]
      },
      "properties": {
        "label": "Seasonal allergy",
        "level": 5,
        "pos": "180947.26499999998,71646.403",
        "src_id": "185647",
        "weight": "3.9037712190367884e-05"
      }
    },
    {
      "type": "Feature",
      "id": "7835",
      "geometry": {
        "type": "Point",
        "coordinates": [
          15.976035,
          19.080751
        ]
      },
      "properties": {
        "label": "Rosacea",
        "level": 5,
        "pos": "179545.399,54945.019",
        "src_id": "185407",
        "weight": "1.9599234931551667e-05"
      }
    },
    {
      "type": "Feature",
      "id": "8177",
      "geometry": {
        "type": "Point",
        "coordinates": [
          17.084117,
          22.361672
        ]
      },
      "properties": {
        "label": "Acute interstitial pneumonitis",
        "level": 5,
        "pos": "186633.72,69419.42",
        "src_id": "169749",
        "weight": "2.9887169467578378e-05"
      }
    },
    {
      "type": "Feature",
      "id": "4553",
      "geometry": {
        "type": "Point",
        "coordinates": [
          18.279655,
          22.959892
        ]
      },
      "properties": {
        "label": "Left-handedness",
        "level": 5,
        "pos": "194281.487,72093.91100000001",
        "src_id": "179846",
        "weight": "2.7595248098206376e-05"
      }
    },
    {
      "type": "Feature",
      "id": "377",
      "geometry": {
        "type": "Point",
        "coordinates": [
          16.461119,
          27.79586
        ]
      },
      "properties": {
        "label": "Bevacizumab",
        "level": 1,
        "pos": "182648.451,94185.524",
        "src_id": "105",
        "weight": "0.0008618132379693541"
      }
    },
    {
      "type": "Feature",
      "id": "350",
      "geometry": {
        "type": "Point",
        "coordinates": [
          17.420619,
          27.359035
        ]
      },
      "properties": {
        "label": "Tadalafil",
        "level": 1,
        "pos": "188786.304,92152.356",
        "src_id": "806",
        "weight": "0.0009418586561948928"
      }
    },
    {
      "type": "Feature",
      "id": "523",
      "geometry": {
        "type": "Point",
        "coordinates": [
          15.420437,
          23.536135
        ]
      },
      "properties": {
        "label": "Ribavirin",
        "level": 2,
        "pos": "175991.278,74681.353",
        "src_id": "797",
        "weight": "0.0005647220216993701"
      }
    },
    {
      "type": "Feature",
      "id": "1474",
      "geometry": {
        "type": "Point",
        "coordinates": [
          18.023405,
          28.823399
        ]
      },
      "properties": {
        "label": "Tenecteplase",
        "level": 4,
        "pos": "192642.27500000002,99000.723",
        "src_id": "31",
        "weight": "0.00016288864290489642"
      }
    },
    {
      "type": "Feature",
      "id": "2423",
      "geometry": {
        "type": "Point",
        "coordinates": [
          17.495116,
          28.816964
        ]
      },
      "properties": {
        "label": "Rebimastat",
        "level": 5,
        "pos": "189262.845,98970.424",
        "src_id": "5671",
        "weight": "7.302553542550985e-05"
      }
    },
    {
      "type": "Feature",
      "id": "2822",
      "geometry": {
        "type": "Point",
        "coordinates": [
          15.268198,
          24.197291
        ]
      },
      "properties": {
        "label": "Doripenem",
        "level": 5,
        "pos": "175017.425,77664.075",
        "src_id": "5485",
        "weight": "0.00010422296564339789"
      }
    },
    {
      "type": "Feature",
      "id": "1622",
      "geometry": {
        "type": "Point",
        "coordinates": [
          15.739876,
          24.545787
        ]
      },
      "properties": {
        "label": "Peritoneal dialysis",
        "level": 4,
        "pos": "178034.71099999998,79242.493",
        "src_id": "183233",
        "weight": "0.00016271335965029125"
      }
    },
    {
      "type": "Feature",
      "id": "6321",
      "geometry": {
        "type": "Point",
        "coordinates": [
          14.439481,
          24.08998
        ]
      },
      "properties": {
        "label": "Abdominal infection",
        "level": 5,
        "pos": "169716.185,77178.91799999999",
        "src_id": "169498",
        "weight": "2.801884183160285e-05"
      }
    },
    {
      "type": "Feature",
      "id": "1355",
      "geometry": {
        "type": "Point",
        "coordinates": [
          12.455719,
          25.255188
        ]
      },
      "properties": {
        "label": "Pyridoxamine",
        "level": 4,
        "pos": "157026.196,82469.15699999999",
        "src_id": "9345",
        "weight": "0.00026185325380013427"
      }
    },
    {
      "type": "Feature",
      "id": "772",
      "geometry": {
        "type": "Point",
        "coordinates": [
          12.365149,
          27.136599
        ]
      },
      "properties": {
        "label": "Arsenic trioxide",
        "level": 3,
        "pos": "156446.834,91120.142",
        "src_id": "1153",
        "weight": "0.00041129311115644355"
      }
    },
    {
      "type": "Feature",
      "id": "3621",
      "geometry": {
        "type": "Point",
        "coordinates": [
          12.842377,
          26.041996
        ]
      },
      "properties": {
        "label": "Acute coronary syndrome",
        "level": 5,
        "pos": "159499.617,86070.05200000001",
        "src_id": "169732",
        "weight": "8.497953705979282e-05"
      }
    },
    {
      "type": "Feature",
      "id": "6821",
      "geometry": {
        "type": "Point",
        "coordinates": [
          14.086834,
          16.639437
        ]
      },
      "properties": {
        "label": "Becaplermin",
        "level": 5,
        "pos": "167460.316,44362.251000000004",
        "src_id": "95",
        "weight": "2.3554424581508418e-05"
      }
    },
    {
      "type": "Feature",
      "id": "5243",
      "geometry": {
        "type": "Point",
        "coordinates": [
          14.273256,
          18.851498
        ]
      },
      "properties": {
        "label": "Shock hypoglycaemic",
        "level": 5,
        "pos": "168652.853,53944.923",
        "src_id": "185828",
        "weight": "4.647113266504916e-05"
      }
    },
    {
      "type": "Feature",
      "id": "8594",
      "geometry": {
        "type": "Point",
        "coordinates": [
          15.15505,
          17.042142
        ]
      },
      "properties": {
        "label": "Blood thrombin increased",
        "level": 5,
        "pos": "174293.61599999998,46098.086",
        "src_id": "172386",
        "weight": "2.0074228233687556e-05"
      }
    },
    {
      "type": "Feature",
      "id": "955",
      "geometry": {
        "type": "Point",
        "coordinates": [
          7.714402,
          34.619457
        ]
      },
      "properties": {
        "label": "Erythropoietin",
        "level": 4,
        "pos": "126696.343,127133.494",
        "src_id": "16",
        "weight": "0.00019008077560823483"
      }
    },
    {
      "type": "Feature",
      "id": "6910",
      "geometry": {
        "type": "Point",
        "coordinates": [
          7.089846,
          33.33681
        ]
      },
      "properties": {
        "label": "Hysterotomy",
        "level": 6,
        "pos": "122701.09700000001,120751.969",
        "src_id": "178692",
        "weight": "1.892618599477115e-05"
      }
    },
    {
      "type": "Feature",
      "id": "3545",
      "geometry": {
        "type": "Point",
        "coordinates": [
          6.868368,
          34.125051
        ]
      },
      "properties": {
        "label": "Iron deficiency",
        "level": 5,
        "pos": "121284.317,124662.246",
        "src_id": "179432",
        "weight": "7.599152447550934e-05"
      }
    },
    {
      "type": "Feature",
      "id": "6891",
      "geometry": {
        "type": "Point",
        "coordinates": [
          7.191596,
          32.845943
        ]
      },
      "properties": {
        "label": "Nephrogenic anaemia",
        "level": 5,
        "pos": "123351.987,118334.784",
        "src_id": "181659",
        "weight": "2.5194892006220325e-05"
      }
    },
    {
      "type": "Feature",
      "id": "5247",
      "geometry": {
        "type": "Point",
        "coordinates": [
          7.529074,
          31.295209
        ]
      },
      "properties": {
        "label": "Periodic limb movement disorder",
        "level": 5,
        "pos": "125510.814,110784.541",
        "src_id": "183150",
        "weight": "4.460799009532016e-05"
      }
    },
    {
      "type": "Feature",
      "id": "3678",
      "geometry": {
        "type": "Point",
        "coordinates": [
          7.359216,
          31.859218
        ]
      },
      "properties": {
        "label": "Venous insufficiency",
        "level": 5,
        "pos": "124424.239,113515.83499999999",
        "src_id": "188388",
        "weight": "9.20935368802092e-05"
      }
    },
    {
      "type": "Feature",
      "id": "3188",
      "geometry": {
        "type": "Point",
        "coordinates": [
          27.109207,
          13.605298
        ]
      },
      "properties": {
        "label": "Raltitrexed",
        "level": 5,
        "pos": "250763.489,31393.886",
        "src_id": "284",
        "weight": "5.491333914126975e-05"
      }
    },
    {
      "type": "Feature",
      "id": "1424",
      "geometry": {
        "type": "Point",
        "coordinates": [
          28.479295,
          17.087195
        ]
      },
      "properties": {
        "label": "Trifluridine",
        "level": 4,
        "pos": "259527.84300000002,46292.515",
        "src_id": "421",
        "weight": "0.00016965838105438167"
      }
    },
    {
      "type": "Feature",
      "id": "868",
      "geometry": {
        "type": "Point",
        "coordinates": [
          35.84576,
          15.732196
        ]
      },
      "properties": {
        "label": "Clevudine",
        "level": 2,
        "pos": "306650.578,40464.82",
        "src_id": "5745",
        "weight": "0.0004684863162820275"
      }
    },
    {
      "type": "Feature",
      "id": "2666",
      "geometry": {
        "type": "Point",
        "coordinates": [
          33.084473,
          10.916943
        ]
      },
      "properties": {
        "label": "Daunorubicin",
        "level": 5,
        "pos": "288986.826,20042.815000000002",
        "src_id": "680",
        "weight": "6.534375715762444e-05"
      }
    },
    {
      "type": "Feature",
      "id": "2585",
      "geometry": {
        "type": "Point",
        "coordinates": [
          32.705863,
          11.570767
        ]
      },
      "properties": {
        "label": "Acadesine",
        "level": 5,
        "pos": "286564.892,22793.028",
        "src_id": "4656",
        "weight": "7.674822361047733e-05"
      }
    },
    {
      "type": "Feature",
      "id": "1255",
      "geometry": {
        "type": "Point",
        "coordinates": [
          29.638204,
          15.0554
        ]
      },
      "properties": {
        "label": "Pexelizumab",
        "level": 4,
        "pos": "266941.297,37568.723",
        "src_id": "4660",
        "weight": "0.00023802918753488468"
      }
    },
    {
      "type": "Feature",
      "id": "2681",
      "geometry": {
        "type": "Point",
        "coordinates": [
          34.803484,
          11.904312
        ]
      },
      "properties": {
        "label": "Apremilast",
        "level": 5,
        "pos": "299983.223,24198.492000000002",
        "src_id": "5188",
        "weight": "6.476725668378622e-05"
      }
    },
    {
      "type": "Feature",
      "id": "1234",
      "geometry": {
        "type": "Point",
        "coordinates": [
          29.627432,
          15.855775
        ]
      },
      "properties": {
        "label": "Prucalopride",
        "level": 4,
        "pos": "266872.385,40994.663",
        "src_id": "5630",
        "weight": "0.00024360506621467232"
      }
    },
    {
      "type": "Feature",
      "id": "2740",
      "geometry": {
        "type": "Point",
        "coordinates": [
          28.480725,
          15.401549
        ]
      },
      "properties": {
        "label": "Tafluprost",
        "level": 5,
        "pos": "259536.98500000002,39048.763",
        "src_id": "7795",
        "weight": "6.341667858222766e-05"
      }
    },
    {
      "type": "Feature",
      "id": "2449",
      "geometry": {
        "type": "Point",
        "coordinates": [
          28.284698,
          13.934735
        ]
      },
      "properties": {
        "label": "Eribulin",
        "level": 5,
        "pos": "258283.024,32793.233",
        "src_id": "7830",
        "weight": "8.09359945626549e-05"
      }
    },
    {
      "type": "Feature",
      "id": "2000",
      "geometry": {
        "type": "Point",
        "coordinates": [
          29.26939,
          14.493226
        ]
      },
      "properties": {
        "label": "Teriflunomide",
        "level": 5,
        "pos": "264582.02499999997,35170.108",
        "src_id": "7839",
        "weight": "0.0001038346128756291"
      }
    },
    {
      "type": "Feature",
      "id": "2646",
      "geometry": {
        "type": "Point",
        "coordinates": [
          34.414787,
          11.255569
        ]
      },
      "properties": {
        "label": "Linaclotide",
        "level": 5,
        "pos": "297496.746,21466.418999999998",
        "src_id": "7849",
        "weight": "6.57823484601498e-05"
      }
    },
    {
      "type": "Feature",
      "id": "2464",
      "geometry": {
        "type": "Point",
        "coordinates": [
          27.648813,
          14.81974
        ]
      },
      "properties": {
        "label": "Benzoyl peroxide",
        "level": 4,
        "pos": "254215.308,36562.484",
        "src_id": "8041",
        "weight": "0.00012874050362488994"
      }
    },
    {
      "type": "Feature",
      "id": "2495",
      "geometry": {
        "type": "Point",
        "coordinates": [
          29.864849,
          13.108682
        ]
      },
      "properties": {
        "label": "Saracatinib",
        "level": 5,
        "pos": "268391.127,29288.091",
        "src_id": "9474",
        "weight": "7.80608225262076e-05"
      }
    },
    {
      "type": "Feature",
      "id": "1033",
      "geometry": {
        "type": "Point",
        "coordinates": [
          29.655195,
          13.89654
        ]
      },
      "properties": {
        "label": "Ruboxistaurin",
        "level": 3,
        "pos": "267049.99299999996,32630.89",
        "src_id": "9498",
        "weight": "0.00030325272515388844"
      }
    },
    {
      "type": "Feature",
      "id": "2163",
      "geometry": {
        "type": "Point",
        "coordinates": [
          33.671172,
          12.126714
        ]
      },
      "properties": {
        "label": "Vofopitant",
        "level": 5,
        "pos": "292739.90099999995,25136.579999999998",
        "src_id": "10091",
        "weight": "9.198761978523983e-05"
      }
    },
    {
      "type": "Feature",
      "id": "2707",
      "geometry": {
        "type": "Point",
        "coordinates": [
          30.955985,
          13.505269
        ]
      },
      "properties": {
        "label": "Biapenem",
        "level": 5,
        "pos": "275371.054,30969.394",
        "src_id": "10655",
        "weight": "6.740251220843257e-05"
      }
    },
    {
      "type": "Feature",
      "id": "2174",
      "geometry": {
        "type": "Point",
        "coordinates": [
          30.980288,
          12.958557
        ]
      },
      "properties": {
        "label": "Gossypol",
        "level": 5,
        "pos": "275526.51200000005,28652.356",
        "src_id": "10670",
        "weight": "9.179972308354166e-05"
      }
    },
    {
      "type": "Feature",
      "id": "3103",
      "geometry": {
        "type": "Point",
        "coordinates": [
          29.761876,
          12.44572
        ]
      },
      "properties": {
        "label": "Brasofensine",
        "level": 5,
        "pos": "267732.424,26483.521",
        "src_id": "4579",
        "weight": "5.532253820280781e-05"
      }
    },
    {
      "type": "Feature",
      "id": "741",
      "geometry": {
        "type": "Point",
        "coordinates": [
          30.847482,
          10.574725
        ]
      },
      "properties": {
        "label": "Lenalidomide",
        "level": 1,
        "pos": "274676.956,18605.77",
        "src_id": "469",
        "weight": "0.0007277812643897818"
      }
    },
    {
      "type": "Feature",
      "id": "6802",
      "geometry": {
        "type": "Point",
        "coordinates": [
          28.334405,
          10.768994
        ]
      },
      "properties": {
        "label": "Xaliproden",
        "level": 5,
        "pos": "258600.98900000003,19421.353",
        "src_id": "5576",
        "weight": "2.097681262613437e-05"
      }
    },
    {
      "type": "Feature",
      "id": "1351",
      "geometry": {
        "type": "Point",
        "coordinates": [
          27.415967,
          11.381577
        ]
      },
      "properties": {
        "label": "Dronedarone",
        "level": 4,
        "pos": "252725.81,21996.593",
        "src_id": "4577",
        "weight": "0.0001912910778171283"
      }
    },
    {
      "type": "Feature",
      "id": "3248",
      "geometry": {
        "type": "Point",
        "coordinates": [
          27.188326,
          11.950826
        ]
      },
      "properties": {
        "label": "Olcegepant",
        "level": 5,
        "pos": "251269.614,24394.624",
        "src_id": "4591",
        "weight": "6.360018546810215e-05"
      }
    },
    {
      "type": "Feature",
      "id": "3247",
      "geometry": {
        "type": "Point",
        "coordinates": [
          28.46612,
          11.960301
        ]
      },
      "properties": {
        "label": "Prinomastat",
        "level": 5,
        "pos": "259443.55899999998,24434.577",
        "src_id": "4790",
        "weight": "6.360018546810215e-05"
      }
    },